Place Name,Latitude,Longitude,Rating,User_Total_Rating,Types,Address,Place_ID,Compound_Code,Global_Code
Hakimpur Upazila Health Complex,25.2860578,89.012652,3.7,17,"['hospital', 'health', 'point_of_interest', 'establishment']","হাসপাতাল রোড, বাংলাহিলি, Hospital Road, Hakimpur",ChIJf0cxV_m9_DkRT0WIr6kMBkQ,"72P7+C3 Hakimpur, Bangladesh",7MQF72P7+C3
৩ নং আলীহাট সাস্থ্য সেবা কেন্দ্র,25.2745502,89.0131532,not found,not found,"['hospital', 'health', 'point_of_interest', 'establishment']","Monsapur, Hakimpur",ChIJ25I1AO6X_DkRuyCADBm6aLc,"72F7+R7 Hakimpur, Bangladesh",7MQF72F7+R7
Surjer Hashi Clinic,25.2764568,89.0145918,not found,not found,"['hospital', 'health', 'point_of_interest', 'establishment']","Matpara Road, Hakimpur",ChIJN6pLCNiX_DkR6GMgdKEMLRQ,"72G7+HR Hakimpur, Bangladesh",7MQF72G7+HR
"Hili Thana More,rainagar",25.2791051,88.9961853,5,6,"['hospital', 'health', 'point_of_interest', 'establishment']",Baikunthapur,ChIJTbOZiyCW_DkRlkSjWN-jVtA,"7XHW+JF Baikunthapur, West Bengal, India",7MQC7XHW+JF
HILI GRAMIN HOSPITAL,25.2784642,88.9919947,not found,not found,"['hospital', 'health', 'point_of_interest', 'establishment']","Hospital Mondap para Road, Hili",ChIJK0ehDieW_DkR1rEp98q7GHA,"7XHR+9Q Hili, West Bengal, India",7MQC7XHR+9Q
Hili Gramin Hospital,25.2792428,88.991874,3.5,4,"['hospital', 'health', 'point_of_interest', 'establishment']",Purbba Raynagar,ChIJyWehdieW_DkRamzIO_ZN0M0,"7XHR+MP Purbba Raynagar, West Bengal, India",7MQC7XHR+MP
ananta aushadhalay,25.2810712,88.9812688,1,1,"['hospital', 'health', 'point_of_interest', 'establishment']","Hili Balurghat Highway, Bilaspara",ChIJBzlPboC9_DkRmgj9i29DrZA,"7XJJ+CG Bilaspara, West Bengal, India",7MQC7XJJ+CG
SONAPUR HOSPITAL,25.2601434,89.035533,not found,not found,"['hospital', 'health', 'point_of_interest', 'establishment']",Panchbibi Upazila,ChIJYe1vZViV_DkRPIsJfM2-dBI,"726P+36 Bagjana, Bangladesh",7MQF726P+36
Kurdamosul hospital,25.2601349,89.0356429,not found,not found,"['hospital', 'health', 'point_of_interest', 'establishment']",Panchbibi Upazila,ChIJbTB6c86V_DkRBXvaNyDNG8U,"726P+37 Bagjana, Bangladesh",7MQF726P+37
panjil health center,25.2825688,88.975478,4,1,"['hospital', 'health', 'point_of_interest', 'establishment']","Hospital More Road, Bilaspara",ChIJE0nMen69_DkR_grt2wVvEXA,"7XMG+25 Bilaspara, West Bengal, India",7MQC7XMG+25
বিসমিল্লাহ চিকিৎসালয়,25.2402853,89.0112754,4,1,"['hospital', 'health', 'point_of_interest', 'establishment']","পাঁচবিবি উপজেলা, Bagzana Railway station",ChIJU7-ju6mX_DkRczFznmg1xiI,"62R6+4G Bagjana, Bangladesh",7MQF62R6+4G
Bagzana Hospital,25.2396486,89.0085171,not found,not found,"['hospital', 'health', 'point_of_interest', 'establishment']",Panchbibi Upazila,ChIJQ4ryUnuW_DkRX5n1_gfcZG8,"62Q5+VC Bagjana, Bangladesh",7MQF62Q5+VC
Union Health And Family Welfare Care,25.2395748,89.0087903,not found,not found,"['hospital', 'health', 'point_of_interest', 'establishment']",Bagjana,ChIJV8FyhcWX_DkR1cM9OJXgSNs,"62Q5+RG Bagjana, Bangladesh",7MQF62Q5+RG
raipur cc,25.2346399,88.9918753,not found,not found,"['hospital', 'health', 'point_of_interest', 'establishment']",Panchbibi Upazila,ChIJc0VODFyX_DkRiZEPraaEOcA,"6XMR+VQ Bagjana, Bangladesh",7MQC6XMR+VQ
রায়পুর কমউনিটি ক্লিনিক,25.2345622,88.9918981,not found,not found,"['hospital', 'health', 'point_of_interest', 'establishment']",Panchbibi Upazila,ChIJvYSMD9WX_DkR9AGAIuquFXU,"6XMR+RQ Bagjana, Bangladesh",7MQC6XMR+RQ
ইউনিয়ন স্বাস্থ্য ও পরিবার কল্যাণ কেন্দ্র,25.3173915,89.0348584,not found,not found,"['hospital', 'health', 'point_of_interest', 'establishment']","বোয়াল দাড়, Hakimpur",ChIJDRiwnni__DkRx1lXh-FDBXY,"828M+XW Baigram, Bangladesh",7MQF828M+XW
Mahanta Medicin,25.2671905,88.958225,not found,not found,"['hospital', 'health', 'point_of_interest', 'establishment']","Gosaipur Road Laskarpur, Trimohini, Laskarpur",ChIJQS_PxvKX_DkR5Q9F8igVyro,"7X85+V7 Laskarpur, West Bengal, India",7MQC7X85+V7
raipur cc,25.2263831,88.9920445,not found,not found,"['hospital', 'health', 'point_of_interest', 'establishment']","পাঁচবিবি উপজেলা, Roypur Raypur cc Ratanpur",ChIJZYsBMx-X_DkRuYJH3_khB78,"6XGR+HR Bagjana, Bangladesh",7MQC6XGR+HR
Dharanji Hospital,25.227717,88.9746753,not found,not found,"['hospital', 'health', 'point_of_interest', 'establishment']",Panchbibi Upazila,ChIJG8ob7XiX_DkR7dN-CcNQ344,"6XHF+3V Dharanji, Bangladesh",7MQC6XHF+3V
"Additional Block Animal Health Center, Hilli",25.2823162,88.9398851,5,2,"['hospital', 'health', 'point_of_interest', 'establishment']",Kismatdapat,ChIJdexrqBWj_DkRCDxRyNLhoWA,"7WJQ+WX Kismatdapat, West Bengal, India",7MQC7WJQ+WX
Dinajpur General Hospital,25.6258212,88.6368759,4.4,47,"['hospital', 'health', 'point_of_interest', 'establishment']","Hospital Road, Dinajpur",ChIJAxyfEZxS-zkR0gSYIQrdna4,"JJGP+8Q Dinajpur, Bangladesh",7MQCJJGP+8Q
Zia Heart Foundation Hospital & Research Institute,25.6198077,88.6462561,4.1,61,"['hospital', 'health', 'point_of_interest', 'establishment']","N585, Dinajpur",ChIJe3PMN45S-zkRAZxm7dQkcb4,"JJ9W+WG Dinajpur, Bangladesh",7MQCJJ9W+WG
Dinajpur Diabetes O Swasthoseba Hospital,25.6198836,88.6472738,4.6,13,"['hospital', 'health', 'point_of_interest', 'establishment']","Block # 1, দিনাজপুর",ChIJ41ZUFY5S-zkRGGfHtGTryyM,"JJ9W+XW Dinajpur, Bangladesh",7MQCJJ9W+XW
"M. Abdur Rahim Medical College Hospital, Dinajpur",25.611899,88.653979,4.4,136,"['hospital', 'health', 'point_of_interest', 'establishment']",Dinajpur,ChIJBzHNMfVS-zkRXJtttwzc5mk,"JM63+QH Dinajpur, Bangladesh",7MQCJM63+QH
vorotpur,25.6334796,88.5504897,5,1,"['hospital', 'health', 'point_of_interest', 'establishment']",Biral,ChIJAQAAwF1L-zkRMlfqowQQynQ,"JHM2+95 Biral, Bangladesh",7MQCJHM2+95
"বিরল উপজেলা স্বাস্থ্য কমপ্লেক্স, দিনাজপুর।",25.6362325,88.5540215,not found,not found,"['hospital', 'health', 'point_of_interest', 'establishment']",Biral,ChIJgdJOAphL-zkR_A50DVG7n1k,"JHP3+FJ Biral, Bangladesh",7MQCJHP3+FJ
Biral Upazilla Health Complex,25.6364705,88.5539109,5,2,"['hospital', 'health', 'point_of_interest', 'establishment']",Biral,ChIJpfOd4F5L-zkR6czi3HL-c5w,"JHP3+HH Biral, Bangladesh",7MQCJHP3+HH
Borotilain community clinic Biral,25.6307861,88.5653347,not found,not found,"['hospital', 'health', 'point_of_interest', 'establishment']",Biral,ChIJVR5MhFZN-zkRDKU1LyQX4t0,"JHJ8+84 Biral, Bangladesh",7MQCJHJ8+84
Bhorotpur Community Clinic,25.6229778,88.5666235,not found,not found,"['hospital', 'health', 'point_of_interest', 'establishment']",Birol Upazila,ChIJ8fwc3otN-zkRp8pZbjNoikM,"JHF8+5J Biral, Bangladesh",7MQCJHF8+5J
Mafizuddin Mazeda Medical Center,25.6144978,88.5749477,not found,not found,"['hospital', 'health', 'point_of_interest', 'establishment']",bistor,ChIJZYz9yhdN-zkRy1wMBmBjofs,"JH7F+QX Biral, Bangladesh",7MQCJH7F+QX
লালবাগ কবর স্থান,25.6372327,88.6236667,not found,not found,"['hospital', 'health', 'point_of_interest', 'establishment']",Unnamed Road,ChIJS2fey91N-zkRe0YZuy6ndLE,"JJPF+VF Dinajpur, Bangladesh",7MQCJJPF+VF
Light Palli Ltd & Hospital,25.6303308,88.6237938,5,3,"['hospital', 'health', 'point_of_interest', 'establishment']","Ahle Hadis mosjid, Baluadanga, road",ChIJ83Clf9JN-zkRFeea62frLgA,"JJJF+4G Dinajpur, Bangladesh",7MQCJJJF+4G
SHN Surjer Hashi Clinic,25.6291534,88.6239876,not found,not found,"['hospital', 'health', 'point_of_interest', 'establishment']","Baluadanga Biral, Rd, দিনাজপুর",ChIJWYOPUEhN-zkR74upSfFClRQ,"JJHF+MH Dinajpur, Bangladesh",7MQCJJHF+MH
"Bangladesh Redcricent Society,Dinajpur Unit",25.6296592,88.6267671,5,1,"['hospital', 'health', 'point_of_interest', 'establishment']","Paharpur, Dinajpur",ChIJ5fZG_mZN-zkRKz4mgDaNg1M,"JJHG+VP Dinajpur, Bangladesh",7MQCJJHG+VP
Bhandara Community Clinic,25.5995221,88.4833516,5,1,"['hospital', 'health', 'point_of_interest', 'establishment']",Birol Upazila,ChIJs24d7D5L-zkRfnTyYz6EE9U,"HFXM+R8 Haljay, Bangladesh",7MQCHFXM+R8
"Kanchon Shomiti, Paharpur Branch",25.6252324,88.6281279,3.8,4,"['hospital', 'health', 'point_of_interest', 'establishment']","Paharpur to Shostitola Link Road, Dinajpur",ChIJt6eUbGRN-zkRkjniJf2n5eU,"JJGH+37 Dinajpur, Bangladesh",7MQCJJGH+37
Life Care Hospital,25.6281707,88.6291954,4.5,12,"['hospital', 'health', 'point_of_interest', 'establishment']",Dinajpur,ChIJl3BONGFN-zkRyUxIyBom0sM,"JJHH+7M Dinajpur, Bangladesh",7MQCJJHH+7M
অরবিন্দ শিশু হাসপাতাল,25.6295113,88.6303323,4.7,6,"['hospital', 'health', 'point_of_interest', 'establishment']",Dinajpur,ChIJSbzeHmFN-zkRFP1Pfe7OyUQ,"JJHJ+R4 Dinajpur, Bangladesh",7MQCJJHJ+R4
Aurobindo Shishu Hospital অরবিন্দ শিশু হাসপাতাল,25.629494,88.630984,4.5,2,"['hospital', 'health', 'point_of_interest', 'establishment']","Ghashipara - Paharpur Road, Dinajpur",ChIJewg0RMxN-zkR8WuxfRnL1Zc,"JJHJ+Q9 Dinajpur, Bangladesh",7MQCJJHJ+Q9
Saint Vincent Hospital Dinajpur,25.6119208,88.6302602,4.9,13,"['hospital', 'health', 'point_of_interest', 'establishment']","Mission Road, Dinajpur",ChIJiX27H39N-zkRPI1w_iogiC8,"JJ6J+Q4 Dinajpur, Bangladesh",7MQCJJ6J+Q4
America Australia Bangladesh Friendship Hospital,25.3931081,88.9937479,3.4,5,"['hospital', 'health', 'point_of_interest', 'establishment']","MS Tower, Birampur Notun Bazar, Dinajpur, Rangpur",ChIJZQCCq5a7_DkRyodqQPVpKfE,"9XVV+6F Birampur, Bangladesh",7MQC9XVV+6F
Raiyan Health Care Hospital,25.3965242,88.9905191,4.3,6,"['hospital', 'health', 'point_of_interest', 'establishment']",Birampur,ChIJW4uimpe7_DkR4Y-_ch9IChU,"9XWR+J6 Birampur, Bangladesh",7MQC9XWR+J6
Hakimpur Upazila Health Complex,25.2860578,89.012652,3.7,17,"['hospital', 'health', 'point_of_interest', 'establishment']","হাসপাতাল রোড, বাংলাহিলি, Hospital Road, Hakimpur",ChIJf0cxV_m9_DkRT0WIr6kMBkQ,"72P7+C3 Hakimpur, Bangladesh",7MQF72P7+C3
"হামদর্দ চিকিৎসা ও বিক্রয়কেন্দ্র, বিরামপুর",25.3909636,88.9917952,not found,not found,"['hospital', 'health', 'point_of_interest', 'establishment']",Purba Jagannathpur,ChIJ-w_n5yS7_DkR5eO1VS8emDM,"9XRR+9P Birampur, Bangladesh",7MQC9XRR+9P
পপুলার ফিজিওথেরাপি সেন্টার,25.3882215,88.9893819,not found,not found,"['hospital', 'health', 'point_of_interest', 'establishment']",R585,ChIJ4yLIXje7_DkR7sR8AUVYZDw,"9XQQ+7Q Birampur, Bangladesh",7MQC9XQQ+7Q
Rony Diagnostic Center,25.387988,88.9888163,4.4,5,"['hospital', 'health', 'point_of_interest', 'establishment']","বিরামপুর উপজেলা, Old Sonali Bank Mor Bus Stop R585 বিরামপুর",ChIJXRIZpJq7_DkRAji1cQbH-ws,"9XQQ+5G Birampur, Bangladesh",7MQC9XQQ+5G
BRAC Health Center,25.3877148,88.9888438,not found,not found,"['hospital', 'health', 'point_of_interest', 'establishment']",Birampur,ChIJZTfAlf27_DkR8CMAoEH1xxc,"9XQQ+3G Birampur, Bangladesh",7MQC9XQQ+3G
Dr. Md. Aftab Uddin,25.3936073,88.9940965,not found,not found,"['hospital', 'health', 'point_of_interest', 'establishment']","719, Station Road, স্টেশন রোড, Birampur",ChIJ473HApS7_DkRNVfUBTY6uZM,"9XVV+CJ Birampur, Bangladesh",7MQC9XVV+CJ
Dr. Imar Uddin Community Hospital,25.3852931,88.9887804,4.4,5,"['hospital', 'health', 'point_of_interest', 'establishment']","Thana Road, বিরামপুর",ChIJF1RvrfK7_DkRj_eGbFFKFf0,"9XPQ+4G Birampur, Bangladesh",7MQC9XPQ+4G
স্বাস্থ্য সেবা ক্লিনিক অ্যান্ড ডায়াগনস্টিক সেন্টার,25.3949655,88.9896431,3,2,"['hospital', 'health', 'point_of_interest', 'establishment']",R585,ChIJsYEfse67_DkRc8vXKCDG9fs,"9XVQ+XV Birampur, Bangladesh",7MQC9XVQ+XV
"Mordern clinic,sarkarpara Birampur",25.3939758,88.987569,not found,not found,"['hospital', 'health', 'point_of_interest', 'establishment']",Birampur,ChIJX_pIeLO7_DkRQPw8QPCHPRc,"9XVQ+H2 Birampur, Bangladesh",7MQC9XVQ+H2
Helth care clinic,25.395539,88.988879,not found,not found,"['hospital', 'health', 'point_of_interest', 'establishment']",Birampur,ChIJNVPo05m7_DkRQY8EphOhSbU,"9XWQ+6H Birampur, Bangladesh",7MQC9XWQ+6H
Birampur Upazila Health Complex,25.3955426,88.9878342,4.4,17,"['hospital', 'health', 'point_of_interest', 'establishment']",Birampur,ChIJj8vqtpm7_DkReCu9jals-48,"9XWQ+64 Birampur, Bangladesh",7MQC9XWQ+64
রাইয়ান হেলথ কেয়ার সেন্টার & ক্লিনিক,25.3966321,88.9899002,4.6,5,"['hospital', 'health', 'point_of_interest', 'establishment']",Birampur,ChIJoy4MkJe7_DkRF7Dr-4aBgEQ,"9XWQ+MX Birampur, Bangladesh",7MQC9XWQ+MX
"উপজেলা প্রাণিসম্পদ দপ্তর, বিরামপুর।",25.397671,88.9872341,not found,not found,"['hospital', 'health', 'point_of_interest', 'establishment']",R585,ChIJWzzqIxW7_DkRp7wwZ9wT1Fs,"9XXP+3V Birampur, Bangladesh",7MQC9XXP+3V
Birampur Dental Clinic,25.380207,88.9904916,4.7,3,"['hospital', 'health', 'point_of_interest', 'establishment']","R585, Birampur",ChIJ2dv4x4i7_DkRbUM6qQw8LiY,"9XJR+35 Birampur, Bangladesh",7MQC9XJR+35
Beparitola Community Medical Clinic,25.3903021,89.0543202,not found,not found,"['hospital', 'health', 'point_of_interest', 'establishment']",Palash Bari Road,ChIJE7URqCe5_DkRrfiebvPK7t8,"93R3+4P Beparitola, Bangladesh",7MQF93R3+4P
Chakul Hospital,25.3604115,88.9220353,not found,not found,"['hospital', 'health', 'point_of_interest', 'establishment']",Birampur Upazila,ChIJg78vwW2j_DkR61TReMvmHSo,"9W6C+5R Ketrahat, Bangladesh",7MQC9W6C+5R
মা ফার্মেসি,25.4263777,88.9213999,not found,not found,"['hospital', 'health', 'point_of_interest', 'establishment']",Unnamed Road,ChIJJ_HsaR-l_DkRitl0kRcM0-M,"CWGC+HH Madilahat, Bangladesh",7MQCCWGC+HH
Saidpur CC,25.4381054,88.9288902,4.5,2,"['hospital', 'health', 'point_of_interest', 'establishment']","Warehouse, Madilahat",ChIJT7putzul_DkREGsnClbLvP4,"CWQH+6H Madilahat, Bangladesh",7MQCCWQH+6H
"Rajupharmacy SoheedminarRoad Birganj, Dinajpur",25.8610024,88.655011,not found,not found,"['hospital', 'health', 'point_of_interest', 'establishment']",Birganj Upazila,ChIJtwcQ_E6l5DkR7drgEpkA6Ag,"VM64+C2 Birganj, Bangladesh",7MQCVM64+C2
Birgonj Diabetic Hospital,25.8597796,88.6541658,4.4,5,"['hospital', 'health', 'point_of_interest', 'establishment']",Birganj,ChIJd_aYUGil5DkRiwA-s2lTaZ8,"VM53+WM Birganj, Bangladesh",7MQCVM53+WM
Mukti Medicals,25.8620979,88.6542643,4.2,5,"['hospital', 'health', 'point_of_interest', 'establishment']","Dhaka - Thakurgaon Highway, Birganj",ChIJQzSQv2ml5DkR2ddJXCoClJo,"VM63+RP Birganj, Bangladesh",7MQCVM63+RP
comfort dental care,25.8590338,88.6550153,4,3,"['hospital', 'health', 'point_of_interest', 'establishment']",Birganj,ChIJV1VZZmil5DkRg2ChLE0c9r8,"VM54+J2 Birganj, Bangladesh",7MQCVM54+J2
আয়ুর্বেদ ও ইউনানী ঔষধালয়,25.8602587,88.6525611,3.5,2,"['hospital', 'health', 'point_of_interest', 'establishment']","Dinajpur - Birganj - Pirganj Road, Birganj",ChIJEZ6-hUKl5DkRU8N2jvSnB1w,"VM63+42 Birganj, Bangladesh",7MQCVM63+42
Birgonj Clilinik,25.8638058,88.6551364,3.7,3,"['hospital', 'health', 'point_of_interest', 'establishment']","Baba Ma Taur, Birganj-Khansama-Jharbari Road, Birganj",ChIJKfnsKWql5DkRVoLASihVUxU,"VM74+G3 Birganj, Bangladesh",7MQCVM74+G3
KAMRUTZAMAN babu,25.8640308,88.6550345,not found,not found,"['hospital', 'health', 'point_of_interest', 'establishment']","Jarbari Bus Stand, Sadar, বীরগঞ্জ-খানসামা-ঝারবাড়ি রোড, Birganj",ChIJkSVxYP6l5DkRzBy0dqv14c4,"VM74+J2 Birganj, Bangladesh",7MQCVM74+J2
অধ্যক্ষ ভিলা,25.8649388,88.6531694,not found,not found,"['hospital', 'health', 'point_of_interest', 'establishment']",Birganj Upazila,ChIJGX9wohql5DkR5WWhIK9LSK4,"VM73+X7 Birganj, Bangladesh",7MQCVM73+X7
City Nursing Home & Diagnostic Center,25.8642197,88.6504197,4,2,"['hospital', 'health', 'point_of_interest', 'establishment']","Dhaka - Thakurgaon Highway, Birganj",ChIJISRcNEGl5DkRrtB26a4V9uw,"VM72+M5 Birganj, Bangladesh",7MQCVM72+M5
Seven Star Clinic,25.8650837,88.6597297,3,1,"['hospital', 'health', 'point_of_interest', 'establishment']","Birganj-Khansama-Jharbari Road, Birganj",ChIJXXaEN2yl5DkR6xZpKPPACvw,"VM85+2V Birganj, Bangladesh",7MQCVM85+2V
সিটি নার্সিং হোম এন্ড ডায়াগনস্টিক সেন্টার,25.8644097,88.6503335,4.5,2,"['hospital', 'health', 'point_of_interest', 'establishment']","Dhaka - Thakurgaon Highway, Birganj",ChIJn1Jyd0Gl5DkRz8rlCkYJsYw,"VM72+Q4 Birganj, Bangladesh",7MQCVM72+Q4
MAA Halima Pharmacy,25.8667414,88.6610943,not found,not found,"['hospital', 'health', 'point_of_interest', 'establishment']","Birganj-Khansama-Jharbari Road, Birganj",ChIJHccqCG2l5DkRlQcRdj6EfmM,"VM86+MC Birganj, Bangladesh",7MQCVM86+MC
Nijpara Comunity Clinic,25.8833039,88.6652453,not found,not found,"['hospital', 'health', 'point_of_interest', 'establishment']",Birganj Upazila,ChIJFyAGlk-l5DkRA4iCP-q9wvk,"VMM8+83 Birganj, Bangladesh",7MQCVMM8+83
Upazila Health Complex,25.8800864,88.6357118,3,1,"['hospital', 'health', 'point_of_interest', 'establishment']",Birganj Upazila,ChIJ3dshmUql5DkR04mk9PcY8nc,"VJJP+27 Birganj, Bangladesh",7MQCVJJP+27
"TMSS Birganj, Upozila, Dinajpur",25.8785676,88.6218116,not found,not found,"['hospital', 'health', 'point_of_interest', 'establishment']",Birganj Upazila,ChIJI0sE_re75DkRk_wKClain-M,"VJHC+CP Birganj, Bangladesh",7MQCVJHC+CP
TMSS Hospital,25.877293,88.619565,not found,not found,"['hospital', 'health', 'point_of_interest', 'establishment']",Birganj Upazila,ChIJW-70OQK75DkRI2RfLBAIg9w,"VJG9+WR Birganj, Bangladesh",7MQCVJG9+WR
মানকিরা কমিউনিটি ক্লিনিক,25.8442952,88.6174785,not found,not found,"['hospital', 'health', 'point_of_interest', 'establishment']",Birganj Upazila,ChIJmTfjRrOx5DkR2HfvYyQ00OA,"RJV8+PX Birganj, Bangladesh",7MQCRJV8+PX
Mankira Community Clinic,25.8426685,88.6168969,not found,not found,"['hospital', 'health', 'point_of_interest', 'establishment']",Birganj Upazila,ChIJs0ezwBax5DkR7u5pVhUG134,"RJV8+3Q Birganj, Bangladesh",7MQCRJV8+3Q
Bhogdoma Community Clinic,25.8582282,88.7012651,not found,not found,"['hospital', 'health', 'point_of_interest', 'establishment']",Birganj Upazila,ChIJU7YcJSil5DkRza7NSOONMng,"VP52+7G Sanka, Bangladesh",7MQCVP52+7G
Bhogdoma Community Clinic,25.8730337,88.7036731,not found,not found,"['hospital', 'health', 'point_of_interest', 'establishment']",Birganj Upazila,ChIJ5_idISKl5DkRagjHq4-nR94,"VPF3+6F Bhogdoma, Bangladesh",7MQCVPF3+6F
LAMB Hospital,25.6620281,88.8839713,4.3,50,"['hospital', 'health', 'point_of_interest', 'establishment']","Dist, LAMB Hospital Road, P.O",ChIJacuhgTVT4zkRvmO9EWMI0g4,"MV6M+RH Rajabasor, Bangladesh",7MQCMV6M+RH
Ma Pharmacy,25.6503373,88.7770522,not found,not found,"['hospital', 'health', 'point_of_interest', 'establishment']","hospital gate, Chirirbandar",ChIJYUb8jI5V-zkRa8OCZuxbKtU,"MQ2G+4R Chirirbandar, Bangladesh",7MQCMQ2G+4R
Chirirbandar Upazila Health Complex,25.6507533,88.773061,4,4,"['hospital', 'health', 'point_of_interest', 'establishment']","Hospital Road, Chirirbandar, Chirirbandar",ChIJJwLBTklV-zkRi5YKpt-5VRw,"MQ2F+86 Chirirbandar, Bangladesh",7MQCMQ2F+86
Chirirbandar Digital Diagnostic center and doctors chamber,25.6575503,88.7766985,not found,not found,"['hospital', 'health', 'point_of_interest', 'establishment']",Chirirbandar,ChIJPcbV1txV-zkRwS0hp3fDxxY,"MQ5G+2M Chirirbandar, Bangladesh",7MQCMQ5G+2M
Chirirbandar Diabetic Centre,25.6575425,88.776226,5,4,"['hospital', 'doctor', 'health', 'point_of_interest', 'establishment']","Dinajpur - Parbatipur Road, Chirirbandar",ChIJJ_5fLE1V-zkRraAAsnG8K_M,"MQ5G+2F Chirirbandar, Bangladesh",7MQCMQ5G+2F
EVERGREEN CLINIC AND DIAGNOSTIC CENTER,25.65762,88.77202,4.7,3,"['hospital', 'health', 'point_of_interest', 'establishment']","দিনাজপুর - চিরিরবন্দর রোড, Dinajpur",ChIJk6bANEtV-zkRAC_W_8fwez0,"MQ5C+2R Chirirbandar, Bangladesh",7MQCMQ5C+2R
Abdulpur Community Clinic ( আব্দুলপুর কমউনিটি ক্লিনিক ),25.6532802,88.8064619,not found,not found,"['hospital', 'health', 'point_of_interest', 'establishment']",Chirirbandar Upazila,ChIJBTbSfk6r_DkR_-UkvRNXlzU,"MR34+8H Abdulpur Hajipara, Bangladesh",7MQCMR34+8H
Abdulpur Community Clinic ( আব্দুলপুর কমউনিটি ক্লিনিক ),25.6601071,88.8075559,not found,not found,"['hospital', 'health', 'point_of_interest', 'establishment']",Chirirbandar Upazila,ChIJmd-o2gtV4zkRxwaiH_lH98I,"MR65+22 Abdulpur Hajipara, Bangladesh",7MQCMR65+22
হাফিজের মোর,25.6101579,88.7825425,not found,not found,"['hospital', 'health', 'point_of_interest', 'establishment']",Chirirbandar,ChIJt5KZgXpV-zkRKZYvHF_MvE0,"JQ6M+32 Basudebpur, Bangladesh",7MQCJQ6M+32
মোমিনপুর ইউনিয়ন স্বাস্থ্য ও পরিবার কল্যান কেন্দ্র,25.6287018,88.8351233,not found,not found,"['hospital', 'health', 'point_of_interest', 'establishment']","hat, mominpur road, Joshai",ChIJJVvrJA-r_DkRb8gtCZXtbKU,"JRHP+F2 Joshai, Bangladesh",7MQCJRHP+F2
Hospital,25.6432504,88.7121689,not found,not found,"['hospital', 'health', 'point_of_interest', 'establishment']","Dinajpur - Chirirbandar Road, Dinajpur",ChIJ1XYpmwZV-zkREBQHmUNhuWg,"JPV6+8V Dighon, Bangladesh",7MQCJPV6+8V
JANATA PHARMACY,25.7081181,88.8145676,not found,not found,"['hospital', 'health', 'point_of_interest', 'establishment']",Chirirbandar Upazila,ChIJ35iFq6dV4zkRmGQ0su2Zeuc,"PR57+6R Digharan, Bangladesh",7MQCPR57+6R
পূর্ব রামনগর কমিউনিটি ক্লিনিক,25.6432111,88.693263,not found,not found,"['hospital', 'health', 'point_of_interest', 'establishment']",Dinajpur Sadar Upazila,ChIJb7wAc8lT-zkRAWpiV4m-R8U,"JMVV+78 Dinajpur, Bangladesh",7MQCJMVV+78
Community Health Center,25.6329804,88.6874707,5,1,"['hospital', 'health', 'point_of_interest', 'establishment']",Unnamed Road,ChIJ1XZLcxpT-zkRLRbbPrQpusY,"JMMP+5X Dighon, Bangladesh",7MQCJMMP+5X
Community Health Clinic,25.6341961,88.6860223,5,1,"['hospital', 'health', 'point_of_interest', 'establishment']",Dinajpur Sadar Upazila,ChIJm7VRhJBT-zkRLoC9UoY-RZA,"JMMP+MC Dighon, Bangladesh",7MQCJMMP+MC
Dagarbari Community Clinic,25.7247817,88.8402565,4,3,"['hospital', 'health', 'point_of_interest', 'establishment']","Chirirbandar Upazila, চিরিরবন্দর",ChIJ2UbelUFV4zkRmWiVyxehTpI,"PRFR+W4 Nowkhair, Bangladesh",7MQCPRFR+W4
"Past RDNS Research office, icddr,b",25.6600474,88.883386,5,1,"['hospital', 'health', 'point_of_interest', 'establishment']",Parbatipur Upazila,ChIJO6dlmEpT4zkR1b-QVgQCg98,"MV6M+29 Rajabasor, Bangladesh",7MQCMV6M+29
মুনসীপারা মোর,25.6624716,88.8834256,not found,not found,"['hospital', 'health', 'point_of_interest', 'establishment']",Lamb Hospital - Choitapara Road,ChIJYVShclhT4zkRxES4FgrRf1s,"MV6M+X9 Rajabasor, Bangladesh",7MQCMV6M+X9
Mostafapur Community Clinic,25.5723045,88.8407841,2,2,"['hospital', 'health', 'point_of_interest', 'establishment']",Parbatipur Upazila,ChIJE4Ssf9yr_DkRrXBIlE0ZPcY,"HRCR+W8 Ambari Bazar, Bangladesh",7MQCHRCR+W8
Daglagonj Sub Health Centre (Hospital),25.7066032,88.8694124,5,1,"['hospital', 'health', 'point_of_interest', 'establishment']",Daglagonj,ChIJaVBhBTFT4zkR9tHzed4OfDw,"PV49+JQ Baghachora, Bangladesh",7MQCPV49+JQ
JANATA PHARMACY,25.7081181,88.8145676,not found,not found,"['hospital', 'health', 'point_of_interest', 'establishment']",Chirirbandar Upazila,ChIJ35iFq6dV4zkRmGQ0su2Zeuc,"PR57+6R Digharan, Bangladesh",7MQCPR57+6R
Dagarbari Community Clinic,25.7247817,88.8402565,4,3,"['hospital', 'health', 'point_of_interest', 'establishment']","Chirirbandar Upazila, চিরিরবন্দর",ChIJ2UbelUFV4zkRmWiVyxehTpI,"PRFR+W4 Nowkhair, Bangladesh",7MQCPRFR+W4
"Healthy Village Community Health Center, BRIF",25.807058,88.7763709,5,4,"['hospital', 'health', 'point_of_interest', 'establishment']","Khansama Upazila, BRIF Campus",ChIJFWmBDv6p5DkRGW5ReAHY5R4,"RQ4G+RG Ranir Bandar, Bangladesh",7MQCRQ4G+RG
Shibpur govt. health complex,25.7424625,88.6893594,not found,not found,"['hospital', 'health', 'point_of_interest', 'establishment']",Dinajpur Sadar Upazila,ChIJ3ztY_iKs5DkR5QSiC14psNY,"PMRQ+XP Sundarban, Bangladesh",7MQCPMRQ+XP
EVERGREEN CLINIC AND DIAGNOSTIC CENTER,25.65762,88.77202,4.7,3,"['hospital', 'health', 'point_of_interest', 'establishment']","দিনাজপুর - চিরিরবন্দর রোড, Dinajpur",ChIJk6bANEtV-zkRAC_W_8fwez0,"MQ5C+2R Chirirbandar, Bangladesh",7MQCMQ5C+2R
Chirirbandar Digital Diagnostic center and doctors chamber,25.6575503,88.7766985,not found,not found,"['hospital', 'health', 'point_of_interest', 'establishment']",Chirirbandar,ChIJPcbV1txV-zkRwS0hp3fDxxY,"MQ5G+2M Chirirbandar, Bangladesh",7MQCMQ5G+2M
Chirirbandar Diabetic Centre,25.6575425,88.776226,5,4,"['hospital', 'doctor', 'health', 'point_of_interest', 'establishment']","Dinajpur - Parbatipur Road, Chirirbandar",ChIJJ_5fLE1V-zkRraAAsnG8K_M,"MQ5G+2F Chirirbandar, Bangladesh",7MQCMQ5G+2F
Abdulpur Community Clinic ( আব্দুলপুর কমউনিটি ক্লিনিক ),25.6601071,88.8075559,not found,not found,"['hospital', 'health', 'point_of_interest', 'establishment']",Chirirbandar Upazila,ChIJmd-o2gtV4zkRxwaiH_lH98I,"MR65+22 Abdulpur Hajipara, Bangladesh",7MQCMR65+22
Chirirbandar Upazila Health Complex,25.6507533,88.773061,4,4,"['hospital', 'health', 'point_of_interest', 'establishment']","Hospital Road, Chirirbandar, Chirirbandar",ChIJJwLBTklV-zkRi5YKpt-5VRw,"MQ2F+86 Chirirbandar, Bangladesh",7MQCMQ2F+86
Ma Pharmacy,25.6503373,88.7770522,not found,not found,"['hospital', 'health', 'point_of_interest', 'establishment']","hospital gate, Chirirbandar",ChIJYUb8jI5V-zkRa8OCZuxbKtU,"MQ2G+4R Chirirbandar, Bangladesh",7MQCMQ2G+4R
Daglagonj Sub Health Centre (Hospital),25.7066032,88.8694124,5,1,"['hospital', 'health', 'point_of_interest', 'establishment']",Daglagonj,ChIJaVBhBTFT4zkR9tHzed4OfDw,"PV49+JQ Baghachora, Bangladesh",7MQCPV49+JQ
Abdulpur Community Clinic ( আব্দুলপুর কমউনিটি ক্লিনিক ),25.6532802,88.8064619,not found,not found,"['hospital', 'health', 'point_of_interest', 'establishment']",Chirirbandar Upazila,ChIJBTbSfk6r_DkR_-UkvRNXlzU,"MR34+8H Abdulpur Hajipara, Bangladesh",7MQCMR34+8H
S.M.TOWER,25.7590727,88.6736912,not found,not found,"['hospital', 'health', 'point_of_interest', 'establishment']","Dhaka - Rangpur Highway, Beldanga",ChIJtddOEbav5DkRJUPUC0ct0Ik,"QM5F+JF Beldanga, Bangladesh",7MQCQM5F+JF
Altafun Nesa General Hospital,25.7458078,88.6713808,4.3,3,"['hospital', 'health', 'point_of_interest', 'establishment']",Dhaka - Dinajpur Highway,ChIJyw0JNoiu5DkRmH4V7gZQQII,"PMWC+8H Beldanga, Bangladesh",7MQCPMWC+8H
বেনীর হাট হাসপাতাল,25.7400706,88.8911039,not found,not found,"['hospital', 'health', 'point_of_interest', 'establishment']",Benir Hat Road,ChIJo3Q5wttT4zkRcKNvuHCeLTg,"PVRR+2C Saidpur, Bangladesh",7MQCPVRR+2C
Saidpur 100 bed Hospital,25.7756326,88.884989,5,1,"['hospital', 'health', 'point_of_interest', 'establishment']",Dhaka - Rangpur Highway,ChIJSZFMgvpR4zkR--YeOsRKmvM,"QVGM+7X Saidpur, Bangladesh",7MQCQVGM+7X
Saidpur 200 bed Hospital,25.7761729,88.8848066,3.8,4,"['hospital', 'health', 'point_of_interest', 'establishment']","Kundol, Saidpur",ChIJpYv7uWpR4zkRKFSjiBrF92w,"QVGM+FW Saidpur, Bangladesh",7MQCQVGM+FW
Sayedpur 100 Bed Hospital,25.7759767,88.8850325,3,2,"['hospital', 'health', 'point_of_interest', 'establishment']","Kundol, Saidpur",ChIJ5VqOuGpR4zkRy8DGpRiKqRg,"QVGP+92 Saidpur, Bangladesh",7MQCQVGP+92
syedpur 100 hospital,25.7759806,88.8850402,not found,not found,"['hospital', 'health', 'point_of_interest', 'establishment']",Dhaka - Rangpur Highway,ChIJ_V4wBOJR4zkRIuS0tvhxfOA,"QVGP+92 Saidpur, Bangladesh",7MQCQVGP+92
১০০ শয্য বিশিষ্ট হাসপাতাল,25.7758432,88.8852528,4.5,2,"['hospital', 'health', 'point_of_interest', 'establishment']","Kundol, Saidpur",ChIJXTHP-fRR4zkRuZPHIi_Wu6U,"QVGP+84 Saidpur, Bangladesh",7MQCQVGP+84
Dinajpur General Hospital,25.6258212,88.6368759,4.4,47,"['hospital', 'health', 'point_of_interest', 'establishment']","Hospital Road, Dinajpur",ChIJAxyfEZxS-zkR0gSYIQrdna4,"JJGP+8Q Dinajpur, Bangladesh",7MQCJJGP+8Q
"M. Abdur Rahim Medical College Hospital, Dinajpur",25.611899,88.653979,4.4,136,"['hospital', 'health', 'point_of_interest', 'establishment']",Dinajpur,ChIJBzHNMfVS-zkRXJtttwzc5mk,"JM63+QH Dinajpur, Bangladesh",7MQCJM63+QH
Zia Heart Foundation Hospital & Research Institute,25.6198077,88.6462561,4.1,61,"['hospital', 'health', 'point_of_interest', 'establishment']","N585, Dinajpur",ChIJe3PMN45S-zkRAZxm7dQkcb4,"JJ9W+WG Dinajpur, Bangladesh",7MQCJJ9W+WG
HSTU Medical Center,25.6989597,88.6539417,4.4,20,"['hospital', 'health', 'point_of_interest', 'establishment']",N508,ChIJ91BgQwut5DkRzarEYff7qW8,"MMX3+HH Karnai, Bangladesh",7MQCMMX3+HH
Dinajpur Diabetes O Swasthoseba Hospital,25.6198836,88.6472738,4.6,13,"['hospital', 'health', 'point_of_interest', 'establishment']","Block # 1, দিনাজপুর",ChIJ41ZUFY5S-zkRGGfHtGTryyM,"JJ9W+XW Dinajpur, Bangladesh",7MQCJJ9W+XW
Veterinary Teaching Hospital,25.6958164,88.6557949,3.8,6,"['hospital', 'health', 'point_of_interest', 'establishment']",Zia Hall - Veterinary Road,ChIJEQ2zUAyt5DkRcELU4eXH4eE,"MMW4+88 Karnai, Bangladesh",7MQCMMW4+88
"M Abdur Rahim Medical College, Dinajpur",25.6108563,88.6554452,4.5,104,"['hospital', 'university', 'health', 'point_of_interest', 'establishment']",Dinajpur,ChIJcVxsePVS-zkRekO_6ld1oG8,"JM64+85 Dinajpur, Bangladesh",7MQCJM64+85
উপজেলা প্রাণিসম্পদ অফিস দিনাজপুর,25.6438347,88.6470455,not found,not found,"['hospital', 'health', 'point_of_interest', 'establishment']","Dinajpur - Phulbari Rd, Ambari Bazar",ChIJWXDsZvZT-zkRXDfROp0DsxI,"JJVW+GR Dinajpur, Bangladesh",7MQCJJVW+GR
Surjar Hasi Clinic,25.643248,88.6441031,5,2,"['hospital', 'health', 'point_of_interest', 'establishment']","Mirzapur Road, Dinajpur",ChIJy2j1x7pS-zkRd_SBC7N0Xdc,"JJVV+7J Dinajpur, Bangladesh",7MQCJJVV+7J
Dinajpur Homeopathy Medical College & Hospital,25.6461008,88.6415435,4.4,8,"['hospital', 'university', 'health', 'point_of_interest', 'establishment']",Dinajpur,ChIJJ8dqmK9S-zkRbAhdGPLLfb0,"JJWR+CJ Dinajpur, Bangladesh",7MQCJJWR+CJ
Paralysis And Disabled Rehabilitation Hospital,25.6595284,88.6484483,not found,not found,"['hospital', 'health', 'point_of_interest', 'establishment']",Dinajpur Sadar Upazila,ChIJGUFNdWqt5DkRh4pRNG-xjLs,"MJ5X+R9 Dinajpur, Bangladesh",7MQCMJ5X+R9
Chest Disease Clinic,25.6370568,88.6392483,not found,not found,"['hospital', 'health', 'point_of_interest', 'establishment']","Kalitaola - Suihari Road, Dinajpur",ChIJk3TY3KNS-zkRuQUvHFhamhA,"JJPQ+RM Dinajpur, Bangladesh",7MQCJJPQ+RM
H.K.Mother Care Hospital,25.6361273,88.6384289,3,2,"['hospital', 'health', 'point_of_interest', 'establishment']",Dinajpur,ChIJs4KFfqFS-zkRCDbkf8247Ns,"JJPQ+F9 Dinajpur, Bangladesh",7MQCJJPQ+F9
H.K Mother Care Hospital,25.6361348,88.6381848,4.2,5,"['hospital', 'health', 'point_of_interest', 'establishment']","5200,, Dinajpur",ChIJZwF7eaFS-zkR63rw0laN0yc,"JJPQ+F7 Dinajpur, Bangladesh",7MQCJJPQ+F7
এইচ কে এম সি এইচ. মাদার কেয়ার,25.6362008,88.6380916,5,1,"['hospital', 'health', 'point_of_interest', 'establishment']","Kalitola - Charubabaur Mor Road, Dinajpur",ChIJlx3NBwBT-zkRdzBYrTEEEaw,"JJPQ+F6 Dinajpur, Bangladesh",7MQCJJPQ+F6
"মাদার কেয়ার হসপিটাল Mother Care Hospital,Dinajpur",25.6362304,88.6380668,not found,not found,"['hospital', 'health', 'point_of_interest', 'establishment']",Dinajpur Sadar Upazila,ChIJLTuutC1T-zkRqjnBV6FZuQQ,"JJPQ+F6 Dinajpur, Bangladesh",7MQCJJPQ+F6
H.K Mother Care Hospital & Diagnostic center.,25.6362313,88.6380564,not found,not found,"['hospital', 'health', 'point_of_interest', 'establishment']",Dinajpur Sadar Upazila,ChIJudmqvX9T-zkRV0lYPrpdXSs,"JJPQ+F6 Dinajpur, Bangladesh",7MQCJJPQ+F6
Aloha Sastha Seba Kendra & Hospital,25.6291438,88.643957,5,3,"['hospital', 'health', 'point_of_interest', 'establishment']","Balubari, Dinajpur",ChIJ1w8iqw1T-zkROuFq_rF-jXI,"JJHV+MH Dinajpur, Bangladesh",7MQCJJHV+MH
G.C. Memorial Hospital,25.6328601,88.6376846,not found,not found,"['hospital', 'health', 'point_of_interest', 'establishment']","Sangit College Road, Dinajpur",ChIJxVf54aFS-zkROF6xiw35x-s,"JJMQ+43 Dinajpur, Bangladesh",7MQCJJMQ+43
"মেরী স্টোপস রেফারাল ক্লিনিক, বালুবাড়ী, দিনাজপুর",25.6285283,88.6431311,not found,not found,"['hospital', 'health', 'point_of_interest', 'establishment']",Dinajpur,ChIJh4YK3plS-zkRXqxa0Q7zXcc,"JJHV+C7 Dinajpur, Bangladesh",7MQCJJHV+C7
Dinajpur General Hospital,25.6258212,88.6368759,4.4,47,"['hospital', 'health', 'point_of_interest', 'establishment']","Hospital Road, Dinajpur",ChIJAxyfEZxS-zkR0gSYIQrdna4,"JJGP+8Q Dinajpur, Bangladesh",7MQCJJGP+8Q
"M. Abdur Rahim Medical College Hospital, Dinajpur",25.611899,88.653979,4.4,136,"['hospital', 'health', 'point_of_interest', 'establishment']",Dinajpur,ChIJBzHNMfVS-zkRXJtttwzc5mk,"JM63+QH Dinajpur, Bangladesh",7MQCJM63+QH
Zia Heart Foundation Hospital & Research Institute,25.6198077,88.6462561,4.1,61,"['hospital', 'health', 'point_of_interest', 'establishment']","N585, Dinajpur",ChIJe3PMN45S-zkRAZxm7dQkcb4,"JJ9W+WG Dinajpur, Bangladesh",7MQCJJ9W+WG
Dinajpur Diabetes O Swasthoseba Hospital,25.6198836,88.6472738,4.6,13,"['hospital', 'health', 'point_of_interest', 'establishment']","Block # 1, দিনাজপুর",ChIJ41ZUFY5S-zkRGGfHtGTryyM,"JJ9W+XW Dinajpur, Bangladesh",7MQCJJ9W+XW
HSTU Medical Center,25.6989597,88.6539417,4.4,20,"['hospital', 'health', 'point_of_interest', 'establishment']",N508,ChIJ91BgQwut5DkRzarEYff7qW8,"MMX3+HH Karnai, Bangladesh",7MQCMMX3+HH
Veterinary Teaching Hospital,25.6958164,88.6557949,3.8,6,"['hospital', 'health', 'point_of_interest', 'establishment']",Zia Hall - Veterinary Road,ChIJEQ2zUAyt5DkRcELU4eXH4eE,"MMW4+88 Karnai, Bangladesh",7MQCMMW4+88
"M Abdur Rahim Medical College, Dinajpur",25.6108563,88.6554452,4.5,104,"['hospital', 'university', 'health', 'point_of_interest', 'establishment']",Dinajpur,ChIJcVxsePVS-zkRekO_6ld1oG8,"JM64+85 Dinajpur, Bangladesh",7MQCJM64+85
G.C. Memorial Hospital,25.6328601,88.6376846,not found,not found,"['hospital', 'health', 'point_of_interest', 'establishment']","Sangit College Road, Dinajpur",ChIJxVf54aFS-zkROF6xiw35x-s,"JJMQ+43 Dinajpur, Bangladesh",7MQCJJMQ+43
H.K.Mother Care Hospital,25.6361273,88.6384289,3,2,"['hospital', 'health', 'point_of_interest', 'establishment']",Dinajpur,ChIJs4KFfqFS-zkRCDbkf8247Ns,"JJPQ+F9 Dinajpur, Bangladesh",7MQCJJPQ+F9
H.K Mother Care Hospital,25.6361348,88.6381848,4.2,5,"['hospital', 'health', 'point_of_interest', 'establishment']","5200,, Dinajpur",ChIJZwF7eaFS-zkR63rw0laN0yc,"JJPQ+F7 Dinajpur, Bangladesh",7MQCJJPQ+F7
MOBILE HOSPITAL,25.63227,88.6363358,not found,not found,"['hospital', 'health', 'point_of_interest', 'establishment']","Nimtola - Modern Intersection, Dinajpur",ChIJCV2HAj1T-zkR5N8LZfaknwU,"JJJP+WG Dinajpur, Bangladesh",7MQCJJJP+WG
এইচ কে এম সি এইচ. মাদার কেয়ার,25.6362008,88.6380916,5,1,"['hospital', 'health', 'point_of_interest', 'establishment']","Kalitola - Charubabaur Mor Road, Dinajpur",ChIJlx3NBwBT-zkRdzBYrTEEEaw,"JJPQ+F6 Dinajpur, Bangladesh",7MQCJJPQ+F6
"মাদার কেয়ার হসপিটাল Mother Care Hospital,Dinajpur",25.6362304,88.6380668,not found,not found,"['hospital', 'health', 'point_of_interest', 'establishment']",Dinajpur Sadar Upazila,ChIJLTuutC1T-zkRqjnBV6FZuQQ,"JJPQ+F6 Dinajpur, Bangladesh",7MQCJJPQ+F6
H.K Mother Care Hospital & Diagnostic center.,25.6362313,88.6380564,not found,not found,"['hospital', 'health', 'point_of_interest', 'establishment']",Dinajpur Sadar Upazila,ChIJudmqvX9T-zkRV0lYPrpdXSs,"JJPQ+F6 Dinajpur, Bangladesh",7MQCJJPQ+F6
Chest Disease Clinic,25.6370568,88.6392483,not found,not found,"['hospital', 'health', 'point_of_interest', 'establishment']","Kalitaola - Suihari Road, Dinajpur",ChIJk3TY3KNS-zkRuQUvHFhamhA,"JJPQ+RM Dinajpur, Bangladesh",7MQCJJPQ+RM
FPAB Dinajpur,25.6332261,88.6350277,4,1,"['hospital', 'health', 'point_of_interest', 'establishment']","Goneshtola - Ghashipara Road, Dinajpur",ChIJg0QcIqBS-zkR6u_r5QJ0pw8,"JJMP+72 Dinajpur, Bangladesh",7MQCJJMP+72
Check Up Diagnostics And Hospital,25.6287381,88.6420083,4.5,8,"['hospital', 'health', 'point_of_interest', 'establishment']","Dinajpur - Phulbari Road, Dinajpur",ChIJ3SnHvplS-zkRPpV6Ks94ozs,"JJHR+FR Dinajpur, Bangladesh",7MQCJJHR+FR
মা ও শিশু কল্যাণ কেন্দ্র,25.6284083,88.6409269,3.5,2,"['hospital', 'health', 'point_of_interest', 'establishment']",Dinajpur,ChIJKw00dZlS-zkRF6Rg8j-PWPA,"JJHR+99 Dinajpur, Bangladesh",7MQCJJHR+99
Shodesh Diagnostic Centre,25.628271,88.6422916,not found,not found,"['hospital', 'health', 'point_of_interest', 'establishment']","Balubari, Dinajpur",ChIJSacHcuVT-zkRA2mRIWXs17o,"JJHR+8W Dinajpur, Bangladesh",7MQCJJHR+8W
Aloha Sastha Seba Kendra & Hospital,25.6291438,88.643957,5,3,"['hospital', 'health', 'point_of_interest', 'establishment']","Balubari, Dinajpur",ChIJ1w8iqw1T-zkROuFq_rF-jXI,"JJHV+MH Dinajpur, Bangladesh",7MQCJJHV+MH
ফিনিক্স বাড়ী,25.9250154,88.7313557,not found,not found,"['hospital', 'health', 'point_of_interest', 'establishment']","Bazar, Kumria",ChIJ1frU2F6n5DkREMT_IPjEjdE,"WPGJ+2G Khansama, Bangladesh",7MQCWPGJ+2G
খানসামা হাসপাতাল,25.930332,88.7263628,3,1,"['hospital', 'health', 'point_of_interest', 'establishment']",Khansama Upazila,ChIJYer_qRyn5DkRTsbQQi24qPs,"WPJG+4G Khansama, Bangladesh",7MQCWPJG+4G
kanshama Health complex 2,25.9306374,88.7261599,4,2,"['hospital', 'health', 'point_of_interest', 'establishment']",Khansama-Joygonj Bazar Road,ChIJJ9__jR2n5DkRzFwrEF-ifR4,"WPJG+7F Khansama, Bangladesh",7MQCWPJG+7F
Bibi kanchon eye hospital,25.938401,88.7118916,not found,not found,"['hospital', 'health', 'point_of_interest', 'establishment']","jharbari, Birganj, road",ChIJrS6YJ0-n5DkRCsFockoH84s,"WPQ6+9Q Basuli, Bangladesh",7MQCWPQ6+9Q
Bibi kanchon eye hospital.,25.9534999,88.7140561,5,1,"['hospital', 'health', 'point_of_interest', 'establishment']",Birganj Upazila,ChIJ91hjA4yh5DkR0P0NtnbQKq8,"XP37+9J Basuli, Bangladesh",7MQCXP37+9J
KCDF Hospital Karimpur,25.9480789,88.7058704,3.7,3,"['hospital', 'health', 'point_of_interest', 'establishment']",Debiganj-Birganj-Jharbari Road,ChIJAf20_rCj5DkRJjIzLatJKGw,"WPX4+68 Basuli, Bangladesh",7MQCWPX4+68
Fatematuz Zahura Hospital,25.9482175,88.7059656,not found,not found,"['hospital', 'health', 'point_of_interest', 'establishment']",Debiganj-Jharbari-Birganj Road,ChIJWd9sdSmj5DkRFJ8LatA7uq8,"WPX4+79 Basuli, Bangladesh",7MQCWPX4+79
সোহেল হোমিও হল,25.961316,88.7328842,not found,not found,"['hospital', 'health', 'point_of_interest', 'establishment']","Khansama-Joygonj Bazar Road, Basuli",ChIJ4QDY3gqh5DkRaWhEULdgerY,"XP6M+G5 Basuli, Bangladesh",7MQCXP6M+G5
"Bibi Kanchon Eye Hospital, Birganj",25.9576772,88.7059066,4.7,12,"['hospital', 'health', 'point_of_interest', 'establishment']",Debiganj-Birganj-Jharbari Road,ChIJwXM_Nfmj5DkRENiC3wyU-fo,"XP54+39 Basuli, Bangladesh",7MQCXP54+39
Union Health & Family Welfare Centre,25.9528071,88.7746504,5,1,"['hospital', 'health', 'point_of_interest', 'establishment']","Shialbari Graveyard, Dhaka",ChIJcwNL4TKh5DkRvqYaMSDI3ls,"XQ3F+4V Basuli, Bangladesh",7MQCXQ3F+4V
"উপজেলা স্বাস্থ্য কমপ্লেক্স, পাকেরহাট,খানসামা",25.8784815,88.7656547,not found,not found,"['hospital', 'health', 'point_of_interest', 'establishment']","Paker Hat, Pakerhat",ChIJ-UnrTf-n5DkRBT3RQV0XJqw,"VQH8+97 Pakerhat, Bangladesh",7MQCVQH8+97
Bhogdoma Community Clinic,25.8730337,88.7036731,not found,not found,"['hospital', 'health', 'point_of_interest', 'establishment']",Birganj Upazila,ChIJ5_idISKl5DkRagjHq4-nR94,"VPF3+6F Bhogdoma, Bangladesh",7MQCVPF3+6F
Baladangi Hat Community Center,25.9523212,88.6710868,not found,not found,"['hospital', 'health', 'point_of_interest', 'establishment']",Birganj Upazila,ChIJadfk5Zuj5DkR3bdDBizcXKY,"XM2C+WC Kumar Para, Bangladesh",7MQCXM2C+WC
Mankira Community Clinic,25.907221,88.6639273,not found,not found,"['hospital', 'health', 'point_of_interest', 'establishment']",Community Clinic,ChIJHdL-QuCl5DkR5ibBVay1nzY,"WM47+VH Mandol Para, Bangladesh",7MQCWM47+VH
মোঃফিরুজ আলী,25.8706397,88.7686382,not found,not found,"['hospital', 'health', 'point_of_interest', 'establishment']",Khansama Upazila,ChIJ87o4MGKn5DkRkcz1UhaV_nY,"VQC9+7F Pakerhat, Bangladesh",7MQCVQC9+7F
Bhogdoma Community Clinic,25.8582282,88.7012651,not found,not found,"['hospital', 'health', 'point_of_interest', 'establishment']",Birganj Upazila,ChIJU7YcJSil5DkRza7NSOONMng,"VP52+7G Sanka, Bangladesh",7MQCVP52+7G
"Upazila Health Complex, Pakerhat, Khansama",25.8684158,88.7812066,3.7,3,"['hospital', 'health', 'point_of_interest', 'establishment']",Paker Hat,ChIJD0dpBfOn5DkR-m8P8vRE1lM,"VQ9J+9F Pakerhat, Bangladesh",7MQCVQ9J+9F
Nijpara Comunity Clinic,25.8833039,88.6652453,not found,not found,"['hospital', 'health', 'point_of_interest', 'establishment']",Birganj Upazila,ChIJFyAGlk-l5DkRA4iCP-q9wvk,"VMM8+83 Birganj, Bangladesh",7MQCVMM8+83
"উপজেলা স্বাস্থ্য কমপ্লেক্স, পাকেরহাট,খানসামা",25.8677373,88.7811036,5,1,"['hospital', 'health', 'point_of_interest', 'establishment']",Paker Hat,ChIJM_r8Ecmn5DkRXEo8ANk_XJg,"VQ9J+3C Pakerhat, Bangladesh",7MQCVQ9J+3C
Nagorganj Community Clinic,25.967487,88.6642113,not found,not found,"['hospital', 'health', 'point_of_interest', 'establishment']",Nagorganj Bazaar,ChIJexr69jmj5DkR4d8Qx_DmnrY,"XM87+XM Basuli, Bangladesh",7MQCXM87+XM
pakerhat Daigonostic Centre,25.8632965,88.7827881,not found,not found,"['hospital', 'health', 'point_of_interest', 'establishment']","পাকের হাট, হাঁসহাটি, বাংলাদেশ।",ChIJz6bnNwOn5DkRqN_uFB9aJwI,"VQ7M+84 Pakerhat, Bangladesh",7MQCVQ7M+84
pakerhat hospital,25.8670535,88.7834953,5,3,"['hospital', 'health', 'point_of_interest', 'establishment']",Khansama Upazila,ChIJQ2WBcPSn5DkRYkd98xWpX_0,"VQ8M+R9 Pakerhat, Bangladesh",7MQCVQ8M+R9
"উপজেলা স্বাস্থ্য কমপ্লেক্স, পাকেরহাট,খানসামা",25.8677373,88.7811036,5,1,"['hospital', 'health', 'point_of_interest', 'establishment']",Paker Hat,ChIJM_r8Ecmn5DkRXEo8ANk_XJg,"VQ9J+3C Pakerhat, Bangladesh",7MQCVQ9J+3C
"Upazila Health Complex, Pakerhat, Khansama",25.8684158,88.7812066,3.7,3,"['hospital', 'health', 'point_of_interest', 'establishment']",Paker Hat,ChIJD0dpBfOn5DkR-m8P8vRE1lM,"VQ9J+9F Pakerhat, Bangladesh",7MQCVQ9J+9F
মোঃফিরুজ আলী,25.8706397,88.7686382,not found,not found,"['hospital', 'health', 'point_of_interest', 'establishment']",Khansama Upazila,ChIJ87o4MGKn5DkRkcz1UhaV_nY,"VQC9+7F Pakerhat, Bangladesh",7MQCVQC9+7F
"উপজেলা স্বাস্থ্য কমপ্লেক্স, পাকেরহাট,খানসামা",25.8784815,88.7656547,not found,not found,"['hospital', 'health', 'point_of_interest', 'establishment']","Paker Hat, Pakerhat",ChIJ-UnrTf-n5DkRBT3RQV0XJqw,"VQH8+97 Pakerhat, Bangladesh",7MQCVQH8+97
Boarder Hat Hospital,25.8497279,88.7539315,not found,not found,"['hospital', 'health', 'point_of_interest', 'establishment']",Kayempur - Boarder Hat Road,ChIJFxGi1NWn5DkRGT7Z4vW1slQ,"RQX3+VH Pakerhat, Bangladesh",7MQCRQX3+VH
"Healthy Village Community Health Center, BRIF",25.807058,88.7763709,5,4,"['hospital', 'health', 'point_of_interest', 'establishment']","Khansama Upazila, BRIF Campus",ChIJFWmBDv6p5DkRGW5ReAHY5R4,"RQ4G+RG Ranir Bandar, Bangladesh",7MQCRQ4G+RG
Bhogdoma Community Clinic,25.8730337,88.7036731,not found,not found,"['hospital', 'health', 'point_of_interest', 'establishment']",Birganj Upazila,ChIJ5_idISKl5DkRagjHq4-nR94,"VPF3+6F Bhogdoma, Bangladesh",7MQCVPF3+6F
Bhogdoma Community Clinic,25.8582282,88.7012651,not found,not found,"['hospital', 'health', 'point_of_interest', 'establishment']",Birganj Upazila,ChIJU7YcJSil5DkRza7NSOONMng,"VP52+7G Sanka, Bangladesh",7MQCVP52+7G
EPZ Medical Center,25.8576743,88.8642126,4,5,"['hospital', 'health', 'point_of_interest', 'establishment']",Nilphamari Sadar Upazila,ChIJRfqSoAJa4zkRkEw0VpuniPo,"VV57+3M Kazirhat, Bangladesh",7MQCVV57+3M
ফিনিক্স বাড়ী,25.9250154,88.7313557,not found,not found,"['hospital', 'health', 'point_of_interest', 'establishment']","Bazar, Kumria",ChIJ1frU2F6n5DkREMT_IPjEjdE,"WPGJ+2G Khansama, Bangladesh",7MQCWPGJ+2G
MIROOM,25.8810825,88.8657866,not found,not found,"['hospital', 'health', 'point_of_interest', 'establishment']",Darwani,ChIJMbqZcU9b4zkR6Ar54edrW3s,"VVJ8+C8 Darwani, Bangladesh",7MQCVVJ8+C8
Sangalshi Govt. Hospital,25.8469731,88.8679415,5,2,"['hospital', 'health', 'point_of_interest', 'establishment']","নীলফামারী সদর উপজেলা, 5300",ChIJ3YwTbqpQ4zkRyq_n2kntSek,"RVW9+Q5 Kazirhat, Bangladesh",7MQCRVW9+Q5
হিপোক্রিটাস্ মেডিকেল হল,25.8873279,88.8682486,5,2,"['hospital', 'health', 'point_of_interest', 'establishment']","Nilphamari Sadar Upazila, Saidpur - Nilphamari Rd",ChIJl1MIFCla4zkRPdLMqmQK2sk,"VVP9+W7 Darwani, Bangladesh",7MQCVVP9+W7
খানসামা হাসপাতাল,25.930332,88.7263628,3,1,"['hospital', 'health', 'point_of_interest', 'establishment']",Khansama Upazila,ChIJYer_qRyn5DkRTsbQQi24qPs,"WPJG+4G Khansama, Bangladesh",7MQCWPJG+4G
kanshama Health complex 2,25.9306374,88.7261599,4,2,"['hospital', 'health', 'point_of_interest', 'establishment']",Khansama-Joygonj Bazar Road,ChIJJ9__jR2n5DkRzFwrEF-ifR4,"WPJG+7F Khansama, Bangladesh",7MQCWPJG+7F
Mission General Hospital,25.8388454,88.8727959,5,3,"['hospital', 'health', 'point_of_interest', 'establishment']","Saidpur - Nilphamari Road, Saidpur",ChIJFXHqQQ1R4zkRVAGqs0qKmC4,"RVQF+G4 Kazirhat, Bangladesh",7MQCRVQF+G4
Lamb Nilphamary District Office,25.929226,88.8450326,not found,not found,"['hospital', 'health', 'point_of_interest', 'establishment']","Dhonipara Road, Nilphamari",ChIJP692Ec5Z4zkRukLcHSnNvxo,"WRHW+M2 Nilphamari, Bangladesh",7MQCWRHW+M2
"Adhunik Sadar Hospital, Nilphamari",25.9304607,88.8455249,4.4,18,"['hospital', 'health', 'point_of_interest', 'establishment']","Nilphamari Sadar Upazila, Nilphamari",ChIJbXg4uFRZ4zkRAYs4ZmN-7VY,"WRJW+56 Nilphamari, Bangladesh",7MQCWRJW+56
District Hospital,27.1425196,83.5389568,4.3,6,"['hospital', 'health', 'point_of_interest', 'establishment']","Rehman Road, Bismil Nagar, Maharajganj",ChIJ_UwfVG2pljkRbJhpnip7DK8,"4GVQ+2H Maharajganj, Uttar Pradesh, India",7MV54GVQ+2H
Midas khan,27.1446035,83.5621737,not found,not found,"['hospital', 'health', 'point_of_interest', 'establishment']",Maharajganj,ChIJQ8Qp4SWpljkRejOsMXNJIjw,"4HV6+RV Maharajganj, Uttar Pradesh, India",7MV54HV6+RV
Anurag Physiotherapy Center,27.1446035,83.5621737,5,1,"['hospital', 'health', 'point_of_interest', 'establishment']","ward no.19, Shastri Nagar, Maharajganj",ChIJy1uBiRupljkRwKi9Js_8Y4A,"4HV6+RV Maharajganj, Uttar Pradesh, India",7MV54HV6+RV
Al Shifa Hospital,27.1446035,83.5621737,4,1,"['hospital', 'health', 'point_of_interest', 'establishment']","Lohia Nagar, Bismil Nagar, Maharajganj",ChIJxdKtb72pljkRPnLwF6mjfz0,not found,not found
RAINBOW NEW LIFE HOSPITAL,27.1446035,83.5621737,not found,not found,"['hospital', 'health', 'point_of_interest', 'establishment']","opposite madarsa Jharkhand, tundi road, Maharajganj",ChIJx6_a56apljkRW6DOwM-Y-R0,"4HV6+RV Maharajganj, Uttar Pradesh, India",7MV54HV6+RV
Blood Bank,27.1446035,83.5621737,not found,not found,"['hospital', 'health', 'point_of_interest', 'establishment']","Govt. Blood Bank, District Combined Hospital",ChIJt93k-D6pljkR3r8bHoj4WEI,"4HV6+RV Maharajganj, Uttar Pradesh, India",7MV54HV6+RV
शिवा नर्सिंग होम,27.1446035,83.5621737,not found,not found,"['hospital', 'health', 'point_of_interest', 'establishment']",Maharajganj,ChIJ4fHsr1WpljkRW86t10oO5mE,"4HV6+RV Maharajganj, Uttar Pradesh, India",7MV54HV6+RV
r k hospital,27.1446035,83.5621737,not found,not found,"['hospital', 'health', 'point_of_interest', 'establishment']","Lohia Nagar, Bismil Nagar, Maharajganj",ChIJxdKtb72pljkRg7zWl6KIWec,not found,not found
BRIGHT DENTAL CLINIC,27.144604,83.562174,5,4,"['hospital', 'health', 'point_of_interest', 'establishment']","Post Office Road,Ward No. 12,Veer Bahadur",ChIJDeQyneqpljkRo6UBprXfR2U,"4HV6+RV Maharajganj, Uttar Pradesh, India",7MV54HV6+RV
GAYATRI HOSPITAL,27.1444369,83.5616028,not found,not found,"['hospital', 'health', 'point_of_interest', 'establishment']","FRONT OF NAMAN YAMAHA SHOWROOM ,PHARENDA ROAD",ChIJM_ytQr2pljkRh5pM80UMaPU,"4HV6+QJ Maharajganj, Uttar Pradesh, India",7MV54HV6+QJ
Eye Clinic. Dr.Masood,27.1440825,83.5618925,not found,not found,"['hospital', 'health', 'point_of_interest', 'establishment']","Main chawraha kotwali road, Nahar Colony, Maharajganj",ChIJX26neVGpljkR-Cq_34tHzNQ,"4HV6+JQ Maharajganj, Uttar Pradesh, India",7MV54HV6+JQ
Lucky nursing home,27.1438932,83.5622816,not found,not found,"['hospital', 'health', 'point_of_interest', 'establishment']","Post offiice, Maharajganj",ChIJY5UvuAWpljkRp_XmTpJj9UM,"4HV6+HW Maharajganj, Uttar Pradesh, India",7MV54HV6+HW
Hospital,27.1441256,83.5610304,not found,not found,"['hospital', 'health', 'point_of_interest', 'establishment']","State Highway 86, Lohia Nagar, Bismil Nagar, Maharajganj",ChIJkcEyJMOpljkRTWu0zhKoUwc,"4HV6+MC Maharajganj, Uttar Pradesh, India",7MV54HV6+MC
"महाराजगंज फ्रैक्चर एंड सर्जिकल हॉस्पिटल, फरेन्दा रोड महाराजगंज",27.1436387,83.5631832,2.5,2,"['hospital', 'health', 'point_of_interest', 'establishment']","Partawal Bazar, Anarutia, Maharajganj",ChIJ_axEKpapljkRke2GLPG6H9Q,"4HV7+F7 Maharajganj, Uttar Pradesh, India",7MV54HV7+F7
Kd Pandey Hospital,27.1464798,83.5638923,2,1,"['hospital', 'health', 'point_of_interest', 'establishment']","Anarutia, Maharajganj",ChIJY9uXs72pljkRErBnZPdGE8w,"4HW7+HH Maharajganj, Uttar Pradesh, India",7MV54HW7+HH
Sakshi Pathology,27.1466332,83.5642493,not found,not found,"['hospital', 'health', 'point_of_interest', 'establishment']","Mandi Parishad Road, Gala Market",ChIJ671ptb2pljkR_IExlBA7n_Y,"4HW7+MM Maharajganj, Uttar Pradesh, India",7MV54HW7+MM
anil verma,27.1421045,83.5646812,not found,not found,"['hospital', 'health', 'point_of_interest', 'establishment']","Padri, Maharajganj",ChIJ-8OZF52pljkRCtbEY7Jqi8I,"4HR7+RV Maharajganj, Uttar Pradesh, India",7MV54HR7+RV
Sakshi Pathology Mrj,27.1480768,83.5616429,not found,not found,"['hospital', 'health', 'point_of_interest', 'establishment']","Bismil Nagar, Maharajganj",ChIJAQAAwLypljkRJw1Mn3eVWx0,"4HX6+6M Maharajganj, Uttar Pradesh, India",7MV54HX6+6M
Raj eye hospital,27.1417632,83.5645997,1,1,"['hospital', 'health', 'point_of_interest', 'establishment']","Hanumangarhi, Maharajganj",ChIJw6ZBo76pljkRwaozMxMTIbM,"4HR7+PR Maharajganj, Uttar Pradesh, India",7MV54HR7+PR
Anurag Hospital,27.1422075,83.5653812,not found,not found,"['hospital', 'health', 'point_of_interest', 'establishment']","State Highway 81, Bismil Nagar, Maharajganj",ChIJv4bN7TipljkR7kZngXH4VJ4,"4HR8+V5 Maharajganj, Uttar Pradesh, India",7MV54HR8+V5
K H Memorial Hospital,25.3996126,89.1134166,not found,not found,"['hospital', 'health', 'point_of_interest', 'establishment']",Dolar dorga Bazar,ChIJAfBi2-vH_DkRmJRp3KqVkKg,"94X7+R9 Daudpur, Bangladesh",7MQF94X7+R9
Daudpur Union Health and Family Welfare Center,25.393549,89.1175965,not found,not found,"['hospital', 'health', 'point_of_interest', 'establishment']",Beparitola - Daudpur Road,ChIJ34SBUjnH_DkR7vpbsbn5uSA,"94V9+C2 Daudpur, Bangladesh",7MQF94V9+C2
রাফিদ,25.4017202,89.1101082,not found,not found,"['hospital', 'health', 'point_of_interest', 'establishment']","Unnamed Road, Daudpur",ChIJ5-h7UWbH_DkRey52McFy5K4,"C426+M2 Daudpur, Bangladesh",7MQFC426+M2
Nawabganj Upazila Health Complex,25.4181001,89.0814212,4.3,3,"['hospital', 'health', 'point_of_interest', 'establishment']",Nawabganj,ChIJVVVVVYq4_DkRiy4vjDZ1BJc,"C39J+6H Nawabganj, Bangladesh",7MQFC39J+6H
পুটিহার কমিউনিটিভ ক্লিনিক,25.3609093,89.131433,5,3,"['hospital', 'health', 'point_of_interest', 'establishment']",Nawabganj Upazila,ChIJs4N2i9jA_DkRVgnyphzr1CY,"946J+9H Putiher, Bangladesh",7MQF946J+9H
Beparitola Community Medical Clinic,25.3903021,89.0543202,not found,not found,"['hospital', 'health', 'point_of_interest', 'establishment']",Palash Bari Road,ChIJE7URqCe5_DkRrfiebvPK7t8,"93R3+4P Beparitola, Bangladesh",7MQF93R3+4P
Mahmudpur Union Health and Family Welfare Center,25.3729206,89.1721046,not found,not found,"['hospital', 'health', 'point_of_interest', 'establishment']",Daria,ChIJeek8twXD_DkRj52H81Jx0Ss,"95FC+5R Tukuria, Bangladesh",7MQF95FC+5R
ইউনিয়ন স্বাস্থ্য ও পরিবার কল্যাণ কেন্দ্র,25.3729049,89.1721449,not found,not found,"['hospital', 'health', 'point_of_interest', 'establishment']",Daria,ChIJKRMNRADD_DkRvEBXFV-bIzY,"95FC+5V Tukuria, Bangladesh",7MQF95FC+5V
বিশ্বস্ত হোমিও হল,25.3283868,89.1451763,4,1,"['hospital', 'health', 'point_of_interest', 'establishment']",Nawabganj Upazila,ChIJ9-6aY6fB_DkRF1mKJQhuP_0,"84HW+93 Moheshpur, Bangladesh",7MQF84HW+93
K.H. Health Technology Institute,25.3333158,89.0719195,5,1,"['hospital', 'health', 'point_of_interest', 'establishment']",Dalar Darga Bazar,ChIJKVs6kgu__DkRCwXVUtKnPHc,"83MC+8Q Palash Bari, Bangladesh",7MQF83MC+8Q
MA Pharmacy,25.3283368,89.1490159,not found,not found,"['hospital', 'health', 'point_of_interest', 'establishment']",R585,ChIJnTxe4HTB_DkRYi1b5jQtpow,"84HX+8J Moheshpur, Bangladesh",7MQF84HX+8J
Raghunathpur Community Hospital,25.4625281,89.0561585,not found,not found,"['hospital', 'health', 'point_of_interest', 'establishment']",Nawabganj Upazila,ChIJ-dBOkKi5_DkR2kfmTKwWYRg,"F374+2F Bara Raghunathpur, Bangladesh",7MQFF374+2F
Khalaspir Ma o Sisu Kollan Kendro,25.4076029,89.2085076,2,4,"['hospital', 'health', 'point_of_interest', 'establishment']",Madankhali,ChIJewh6n1jE_DkRUOFIC0HV2Mw,"C655+2C Madankhali, Bangladesh",7MQFC655+2C
"খালাশপীর মা ও শিশু কল্যাণ কেন্দ্র,পীরগঞ্জ,রংপুর",25.4076311,89.2093595,not found,not found,"['hospital', 'health', 'point_of_interest', 'establishment']",Madankhali,ChIJ4ZsUSxHF_DkR-HaWoq6lO-Q,"C655+3P Madankhali, Bangladesh",7MQFC655+3P
নন্দনপুর কমিউনিটি ক্লিনিক,25.472104,89.0649645,not found,not found,"['hospital', 'health', 'point_of_interest', 'establishment']",Nawabganj Upazila,ChIJXbnZLJG3_DkRVrtTWmPfttc,"F3C7+RX Bara Raghunathpur, Bangladesh",7MQFF3C7+RX
Atoshp community Hospital,25.3583034,89.2071905,not found,not found,"['hospital', 'health', 'point_of_interest', 'establishment']",Mollikpur,ChIJQyt5npvD_DkR0g4TeQvLPDI,"9654+8V Mollikpur, Bangladesh",7MQF9654+8V
জাংগই কমিউনিটি ক্লিনিক (Jangai Village Community Clinic),25.2999023,89.0974347,5,2,"['hospital', 'health', 'point_of_interest', 'establishment']",Jangai,ChIJbZCQurbB_DkRy2Zd0OVx0qw,"73XW+XX Baona, Bangladesh",7MQF73XW+XX
Chatshal Community Clinic,25.3060338,89.1582395,not found,not found,"['hospital', 'health', 'point_of_interest', 'establishment']",Chatsal,ChIJq4X5Ey_B_DkRlqFzaoUbMYM,"8545+C7 Chatsal, Bangladesh",7MQF8545+C7
জাফরপাড়া উপ-স্বাস্থ্য কেন্দ্র,25.4063288,89.22773,5,1,"['hospital', 'health', 'point_of_interest', 'establishment']","Pirgonj - Khalashpir Road, Madankhali",ChIJ-3AYqjzF_DkRS6_IiGOKGrs,"C64H+G3 Madankhali, Bangladesh",7MQFC64H+G3
Magura Community Clinic,25.4199243,89.2276408,not found,not found,"['hospital', 'health', 'point_of_interest', 'establishment']","Unnamed Road, Madankhali",ChIJ47BXYeHF_DkRXB6DRWfnuBQ,"C69H+X3 Madankhali, Bangladesh",7MQFC69H+X3
Chatshal Community Clinic,25.3060338,89.1582395,not found,not found,"['hospital', 'health', 'point_of_interest', 'establishment']",Chatsal,ChIJq4X5Ey_B_DkRlqFzaoUbMYM,"8545+C7 Chatsal, Bangladesh",7MQF8545+C7
মোস্তফা ফার্মেসী,25.2975938,89.2208301,5,2,"['hospital', 'health', 'point_of_interest', 'establishment']",Ghoraghat,ChIJU9lPCZHC_DkR1bNPN7-x_3E,"76XC+28 Ghoraghat, Bangladesh",7MQF76XC+28
শাহ্ ডেন্টাল কেয়ার,25.2973521,89.2214082,5,1,"['hospital', 'health', 'point_of_interest', 'establishment']","Ranigong Bazar, Ghoraghat",ChIJ3TeLRcbD_DkRO4UGkurRQZk,"76WC+WH Ghoraghat, Bangladesh",7MQF76WC+WH
Azad Medical store,25.2992115,89.2220021,not found,not found,"['hospital', 'health', 'point_of_interest', 'establishment']","Ranigong Bazar, Ghoraghat",ChIJfSp6kxDD_DkRe7aRPwE9Jp0,"76XC+MR Ghoraghat, Bangladesh",7MQF76XC+MR
MA Pharmacy,25.3283368,89.1490159,not found,not found,"['hospital', 'health', 'point_of_interest', 'establishment']",R585,ChIJnTxe4HTB_DkRYi1b5jQtpow,"84HX+8J Moheshpur, Bangladesh",7MQF84HX+8J
বিশ্বস্ত হোমিও হল,25.3283868,89.1451763,4,1,"['hospital', 'health', 'point_of_interest', 'establishment']",Nawabganj Upazila,ChIJ9-6aY6fB_DkRF1mKJQhuP_0,"84HW+93 Moheshpur, Bangladesh",7MQF84HW+93
Ghoraghat Upazila Health Complex,25.256138,89.2399243,4.1,9,"['hospital', 'health', 'point_of_interest', 'establishment']","Ghoraghat - Panchbibi Road, Osman Pur",ChIJcbKzG3Po_DkRg73rgDkaGfY,"764Q+FX Osman Pur, Bangladesh",7MQF764Q+FX
Chadpara Community Clinic,25.2871928,89.2541586,not found,not found,"['hospital', 'health', 'point_of_interest', 'establishment']",Unnamed Road,ChIJF-ZAoEXd_DkRRWXlWFjpejc,"77P3+VM Chatra, Bangladesh",7MQF77P3+VM
৩নং আলীহাট ইউনিয়ন সাস্থ্য সেবা কেন্দ্র,25.2735667,89.1010295,1,1,"['hospital', 'health', 'point_of_interest', 'establishment']",Hakimpur Upazila,ChIJtYHjcsfr_DkRPXMy1BQ0WL4,"74F2+CC Baona, Bangladesh",7MQF74F2+CC
জাংগই কমিউনিটি ক্লিনিক (Jangai Village Community Clinic),25.2999023,89.0974347,5,2,"['hospital', 'health', 'point_of_interest', 'establishment']",Jangai,ChIJbZCQurbB_DkRy2Zd0OVx0qw,"73XW+XX Baona, Bangladesh",7MQF73XW+XX
Atoshp community Hospital,25.3583034,89.2071905,not found,not found,"['hospital', 'health', 'point_of_interest', 'establishment']",Mollikpur,ChIJQyt5npvD_DkR0g4TeQvLPDI,"9654+8V Mollikpur, Bangladesh",7MQF9654+8V
Frongachi Community Clinic,25.2363462,89.2454719,not found,not found,"['hospital', 'health', 'point_of_interest', 'establishment']","Sagorpur Jalalpur Road, Sagorpur",ChIJ26FXv_np_DkRjtBKIJ0qDvo,"66PW+G5 Ghugura, Bangladesh",7MQF66PW+G5
পুটিহার কমিউনিটিভ ক্লিনিক,25.3609093,89.131433,5,3,"['hospital', 'health', 'point_of_interest', 'establishment']",Nawabganj Upazila,ChIJs4N2i9jA_DkRVgnyphzr1CY,"946J+9H Putiher, Bangladesh",7MQF946J+9H
ইউনিয়ন স্বাস্থ্য ও পরিবার কল্যাণ কেন্দ্র,25.3729049,89.1721449,not found,not found,"['hospital', 'health', 'point_of_interest', 'establishment']",Daria,ChIJKRMNRADD_DkRvEBXFV-bIzY,"95FC+5V Tukuria, Bangladesh",7MQF95FC+5V
Mahmudpur Union Health and Family Welfare Center,25.3729206,89.1721046,not found,not found,"['hospital', 'health', 'point_of_interest', 'establishment']",Daria,ChIJeek8twXD_DkRj52H81Jx0Ss,"95FC+5R Tukuria, Bangladesh",7MQF95FC+5R
Sathi Pharmacy,25.2248246,89.2490439,not found,not found,"['hospital', 'health', 'point_of_interest', 'establishment']","Goraghat, Sura Masjid Road",ChIJ_cZt4cvn_DkRTgF2CbodOYw,"66FX+WJ Baragaon, Bangladesh",7MQF66FX+WJ
Samiya Pharmacy,25.2248521,89.2491498,not found,not found,"['hospital', 'health', 'point_of_interest', 'establishment']",Jalalpur,ChIJH4qOFWHn_DkRcXcc_m7ktuw,"66FX+WM Baragaon, Bangladesh",7MQF66FX+WM
মারুপাড়া কমিউনিটি ক্লিনিক,25.3350555,89.275254,not found,not found,"['hospital', 'health', 'point_of_interest', 'establishment']","ঘোড়াঘাট উপজেলা, Maru Para,Ranigonj Bazar",ChIJpe5jrv_d_DkRYKRIpYCnjRc,"87PG+24 Chatra, Bangladesh",7MQF87PG+24
SS Medical Store,25.3331002,89.2785968,not found,not found,"['hospital', 'health', 'point_of_interest', 'establishment']","Unnamed Road, Chatra",ChIJB427Q7Td_DkRqPal2oWyChs,"87MH+6C Chatra, Bangladesh",7MQF87MH+6C
Akota Ultrasono & Dignostic Center,25.2386449,89.2819908,5,1,"['hospital', 'health', 'point_of_interest', 'establishment']",Ghoraghat Upazila,ChIJUd1D5tnn_DkR63P6mHv6IkA,"67QJ+FQ Noyapara, Bangladesh",7MQF67QJ+FQ
America Australia Bangladesh Friendship Hospital,25.3931081,88.9937479,3.4,5,"['hospital', 'health', 'point_of_interest', 'establishment']","MS Tower, Birampur Notun Bazar, Dinajpur, Rangpur",ChIJZQCCq5a7_DkRyodqQPVpKfE,"9XVV+6F Birampur, Bangladesh",7MQC9XVV+6F
Raiyan Health Care Hospital,25.3965242,88.9905191,4.3,6,"['hospital', 'health', 'point_of_interest', 'establishment']",Birampur,ChIJW4uimpe7_DkR4Y-_ch9IChU,"9XWR+J6 Birampur, Bangladesh",7MQC9XWR+J6
Nawabganj Upazila Health Complex,25.4181001,89.0814212,4.3,3,"['hospital', 'health', 'point_of_interest', 'establishment']",Nawabganj,ChIJVVVVVYq4_DkRiy4vjDZ1BJc,"C39J+6H Nawabganj, Bangladesh",7MQFC39J+6H
রাফিদ,25.4017202,89.1101082,not found,not found,"['hospital', 'health', 'point_of_interest', 'establishment']","Unnamed Road, Daudpur",ChIJ5-h7UWbH_DkRey52McFy5K4,"C426+M2 Daudpur, Bangladesh",7MQFC426+M2
Beparitola Community Medical Clinic,25.3903021,89.0543202,not found,not found,"['hospital', 'health', 'point_of_interest', 'establishment']",Palash Bari Road,ChIJE7URqCe5_DkRrfiebvPK7t8,"93R3+4P Beparitola, Bangladesh",7MQF93R3+4P
K H Memorial Hospital,25.3996126,89.1134166,not found,not found,"['hospital', 'health', 'point_of_interest', 'establishment']",Dolar dorga Bazar,ChIJAfBi2-vH_DkRmJRp3KqVkKg,"94X7+R9 Daudpur, Bangladesh",7MQF94X7+R9
Daudpur Union Health and Family Welfare Center,25.393549,89.1175965,not found,not found,"['hospital', 'health', 'point_of_interest', 'establishment']",Beparitola - Daudpur Road,ChIJ34SBUjnH_DkR7vpbsbn5uSA,"94V9+C2 Daudpur, Bangladesh",7MQF94V9+C2
Raghunathpur Community Hospital,25.4625281,89.0561585,not found,not found,"['hospital', 'health', 'point_of_interest', 'establishment']",Nawabganj Upazila,ChIJ-dBOkKi5_DkR2kfmTKwWYRg,"F374+2F Bara Raghunathpur, Bangladesh",7MQFF374+2F
নন্দনপুর কমিউনিটি ক্লিনিক,25.472104,89.0649645,not found,not found,"['hospital', 'health', 'point_of_interest', 'establishment']",Nawabganj Upazila,ChIJXbnZLJG3_DkRVrtTWmPfttc,"F3C7+RX Bara Raghunathpur, Bangladesh",7MQFF3C7+RX
পুটিহার কমিউনিটিভ ক্লিনিক,25.3609093,89.131433,5,3,"['hospital', 'health', 'point_of_interest', 'establishment']",Nawabganj Upazila,ChIJs4N2i9jA_DkRVgnyphzr1CY,"946J+9H Putiher, Bangladesh",7MQF946J+9H
Dr. Md. Aftab Uddin,25.3936073,88.9940965,not found,not found,"['hospital', 'health', 'point_of_interest', 'establishment']","719, Station Road, স্টেশন রোড, Birampur",ChIJ473HApS7_DkRNVfUBTY6uZM,"9XVV+CJ Birampur, Bangladesh",7MQC9XVV+CJ
রাইয়ান হেলথ কেয়ার সেন্টার & ক্লিনিক,25.3966321,88.9899002,4.6,5,"['hospital', 'health', 'point_of_interest', 'establishment']",Birampur,ChIJoy4MkJe7_DkRF7Dr-4aBgEQ,"9XWQ+MX Birampur, Bangladesh",7MQC9XWQ+MX
"হামদর্দ চিকিৎসা ও বিক্রয়কেন্দ্র, বিরামপুর",25.3909636,88.9917952,not found,not found,"['hospital', 'health', 'point_of_interest', 'establishment']",Purba Jagannathpur,ChIJ-w_n5yS7_DkR5eO1VS8emDM,"9XRR+9P Birampur, Bangladesh",7MQC9XRR+9P
স্বাস্থ্য সেবা ক্লিনিক অ্যান্ড ডায়াগনস্টিক সেন্টার,25.3949655,88.9896431,3,2,"['hospital', 'health', 'point_of_interest', 'establishment']",R585,ChIJsYEfse67_DkRc8vXKCDG9fs,"9XVQ+XV Birampur, Bangladesh",7MQC9XVQ+XV
Helth care clinic,25.395539,88.988879,not found,not found,"['hospital', 'health', 'point_of_interest', 'establishment']",Birampur,ChIJNVPo05m7_DkRQY8EphOhSbU,"9XWQ+6H Birampur, Bangladesh",7MQC9XWQ+6H
"উপজেলা প্রাণিসম্পদ দপ্তর, বিরামপুর।",25.397671,88.9872341,not found,not found,"['hospital', 'health', 'point_of_interest', 'establishment']",R585,ChIJWzzqIxW7_DkRp7wwZ9wT1Fs,"9XXP+3V Birampur, Bangladesh",7MQC9XXP+3V
Birampur Upazila Health Complex,25.3955426,88.9878342,4.4,17,"['hospital', 'health', 'point_of_interest', 'establishment']",Birampur,ChIJj8vqtpm7_DkReCu9jals-48,"9XWQ+64 Birampur, Bangladesh",7MQC9XWQ+64
"Mordern clinic,sarkarpara Birampur",25.3939758,88.987569,not found,not found,"['hospital', 'health', 'point_of_interest', 'establishment']",Birampur,ChIJX_pIeLO7_DkRQPw8QPCHPRc,"9XVQ+H2 Birampur, Bangladesh",7MQC9XVQ+H2
পপুলার ফিজিওথেরাপি সেন্টার,25.3882215,88.9893819,not found,not found,"['hospital', 'health', 'point_of_interest', 'establishment']",R585,ChIJ4yLIXje7_DkR7sR8AUVYZDw,"9XQQ+7Q Birampur, Bangladesh",7MQC9XQQ+7Q
Rony Diagnostic Center,25.387988,88.9888163,4.4,5,"['hospital', 'health', 'point_of_interest', 'establishment']","বিরামপুর উপজেলা, Old Sonali Bank Mor Bus Stop R585 বিরামপুর",ChIJXRIZpJq7_DkRAji1cQbH-ws,"9XQQ+5G Birampur, Bangladesh",7MQC9XQQ+5G
Bokultola Mosque,25.241304,89.2838683,not found,not found,"['mosque', 'hospital', 'place_of_worship', 'health', 'point_of_interest', 'establishment']",Ghoraghat Upazila,ChIJb43KHcHn_DkRzqD--LEBfgY,"67RM+GG Ghoraghat, Bangladesh",7MQF67RM+GG
Akota Ultrasono & Dignostic Center,25.2386449,89.2819908,5,1,"['hospital', 'health', 'point_of_interest', 'establishment']",Ghoraghat Upazila,ChIJUd1D5tnn_DkR63P6mHv6IkA,"67QJ+FQ Noyapara, Bangladesh",7MQF67QJ+FQ
আবুল কালাম কমিউনিটি হাসপাতাল এন্ড ডায়াগনস্টিক সেন্টার,25.2126201,89.2996027,not found,not found,"['hospital', 'health', 'point_of_interest', 'establishment']",Gobindaganj Upazila,ChIJg8ZrjxXn_DkRfM6jSAStS2s,"677X+2R Ghoraghat, Bangladesh",7MQF677X+2R
Frongachi Community Clinic,25.2363462,89.2454719,not found,not found,"['hospital', 'health', 'point_of_interest', 'establishment']","Sagorpur Jalalpur Road, Sagorpur",ChIJ26FXv_np_DkRjtBKIJ0qDvo,"66PW+G5 Ghugura, Bangladesh",7MQF66PW+G5
Samiya Pharmacy,25.2248521,89.2491498,not found,not found,"['hospital', 'health', 'point_of_interest', 'establishment']",Jalalpur,ChIJH4qOFWHn_DkRcXcc_m7ktuw,"66FX+WM Baragaon, Bangladesh",7MQF66FX+WM
Sathi Pharmacy,25.2248246,89.2490439,not found,not found,"['hospital', 'health', 'point_of_interest', 'establishment']","Goraghat, Sura Masjid Road",ChIJ_cZt4cvn_DkRTgF2CbodOYw,"66FX+WJ Baragaon, Bangladesh",7MQF66FX+WJ
Ghoraghat Upazila Health Complex,25.256138,89.2399243,4.1,9,"['hospital', 'health', 'point_of_interest', 'establishment']","Ghoraghat - Panchbibi Road, Osman Pur",ChIJcbKzG3Po_DkRg73rgDkaGfY,"764Q+FX Osman Pur, Bangladesh",7MQF764Q+FX
Chadpara Community Clinic,25.2871928,89.2541586,not found,not found,"['hospital', 'health', 'point_of_interest', 'establishment']",Unnamed Road,ChIJF-ZAoEXd_DkRRWXlWFjpejc,"77P3+VM Chatra, Bangladesh",7MQF77P3+VM
Mishon Hospital,25.1926377,89.3034695,not found,not found,"['hospital', 'health', 'point_of_interest', 'establishment']",Gobindaganj Upazila,ChIJu-S6fqXn_DkR3gzqg5V6bxc,"58V3+39 Balia, Bangladesh",7MQF58V3+39
মিশন হাসপাতাল,25.1925891,89.3034246,1,1,"['hospital', 'health', 'point_of_interest', 'establishment']",Gobindaganj Upazila,ChIJNQzToJPn_DkRG8V_VCKOdQ4,"58V3+29 Balia, Bangladesh",7MQF58V3+29
hospital,25.1831031,89.3217019,not found,not found,"['hospital', 'health', 'point_of_interest', 'establishment']",Gobindaganj Upazila,ChIJz8NOrA7l_DkRWn92E4X8ybQ,"58MC+6M Balia, Bangladesh",7MQF58MC+6M
Plashabari Animal Hospital,25.2829502,89.35072,4.4,5,"['hospital', 'health', 'point_of_interest', 'establishment']",Palashbari,ChIJB87FWZ3g_DkR8F-ypacBvSI,"79M2+57 Palashbari, Bangladesh",7MQF79M2+57
Sheba Health & Eye Care Center সেবা হেলথ এন্ড আই কেয়ার সেন্টার,25.2845322,89.351,4.8,4,"['hospital', 'health', 'point_of_interest', 'establishment']",Palashbari Upazila,ChIJlxAMrmff_DkRGka40tlzAvM,"79M2+R9 Palashbari, Bangladesh",7MQF79M2+R9
তাবাচ্ছুম মেডিসিন সেন্টার,25.2842339,89.3521076,not found,not found,"['hospital', 'health', 'point_of_interest', 'establishment']",Palashbari Upazila,ChIJcwDvc8vf_DkRgWt7nLCu6g4,"79M2+MR Palashbari, Bangladesh",7MQF79M2+MR
শাহ্ ডেন্টাল কেয়ার,25.2973521,89.2214082,5,1,"['hospital', 'health', 'point_of_interest', 'establishment']","Ranigong Bazar, Ghoraghat",ChIJ3TeLRcbD_DkRO4UGkurRQZk,"76WC+WH Ghoraghat, Bangladesh",7MQF76WC+WH
মোস্তফা ফার্মেসী,25.2975938,89.2208301,5,2,"['hospital', 'health', 'point_of_interest', 'establishment']",Ghoraghat,ChIJU9lPCZHC_DkR1bNPN7-x_3E,"76XC+28 Ghoraghat, Bangladesh",7MQF76XC+28
Azad Medical store,25.2992115,89.2220021,not found,not found,"['hospital', 'health', 'point_of_interest', 'establishment']","Ranigong Bazar, Ghoraghat",ChIJfSp6kxDD_DkRe7aRPwE9Jp0,"76XC+MR Ghoraghat, Bangladesh",7MQF76XC+MR
niramoy medical hall,25.3065149,89.3424048,5,2,"['hospital', 'health', 'point_of_interest', 'establishment']",Kabilpur,ChIJo2wJEEDe_DkRsA3bfKL9d3s,"884R+JX Kabilpur, Bangladesh",7MQF884R+JX
Clinic,25.2868051,89.3647775,not found,not found,"['hospital', 'health', 'point_of_interest', 'establishment']",R555,ChIJifRgSZPf_DkRFaXhCiWMKTE,"79P7+PW Palashbari, Bangladesh",7MQF79P7+PW
পলাশবাড়ি উপজেলা স্বাস্থ্য কেন্দ্র,25.2867614,89.3676669,3.7,6,"['hospital', 'health', 'point_of_interest', 'establishment']",Palashbari Upazila,ChIJx-Q_4Nbf_DkRoUihgiT0rMY,"79P9+P3 Palashbari, Bangladesh",7MQF79P9+P3
Ghoraghat Upazila Health Complex,25.256138,89.2399243,4.1,9,"['hospital', 'health', 'point_of_interest', 'establishment']","Ghoraghat - Panchbibi Road, Osman Pur",ChIJcbKzG3Po_DkRg73rgDkaGfY,"764Q+FX Osman Pur, Bangladesh",7MQF764Q+FX
Frongachi Community Clinic,25.2363462,89.2454719,not found,not found,"['hospital', 'health', 'point_of_interest', 'establishment']","Sagorpur Jalalpur Road, Sagorpur",ChIJ26FXv_np_DkRjtBKIJ0qDvo,"66PW+G5 Ghugura, Bangladesh",7MQF66PW+G5
Samiya Pharmacy,25.2248521,89.2491498,not found,not found,"['hospital', 'health', 'point_of_interest', 'establishment']",Jalalpur,ChIJH4qOFWHn_DkRcXcc_m7ktuw,"66FX+WM Baragaon, Bangladesh",7MQF66FX+WM
Sathi Pharmacy,25.2248246,89.2490439,not found,not found,"['hospital', 'health', 'point_of_interest', 'establishment']","Goraghat, Sura Masjid Road",ChIJ_cZt4cvn_DkRTgF2CbodOYw,"66FX+WJ Baragaon, Bangladesh",7MQF66FX+WJ
Chadpara Community Clinic,25.2871928,89.2541586,not found,not found,"['hospital', 'health', 'point_of_interest', 'establishment']",Unnamed Road,ChIJF-ZAoEXd_DkRRWXlWFjpejc,"77P3+VM Chatra, Bangladesh",7MQF77P3+VM
Akota Ultrasono & Dignostic Center,25.2386449,89.2819908,5,1,"['hospital', 'health', 'point_of_interest', 'establishment']",Ghoraghat Upazila,ChIJUd1D5tnn_DkR63P6mHv6IkA,"67QJ+FQ Noyapara, Bangladesh",7MQF67QJ+FQ
Bokultola Mosque,25.241304,89.2838683,not found,not found,"['mosque', 'hospital', 'place_of_worship', 'health', 'point_of_interest', 'establishment']",Ghoraghat Upazila,ChIJb43KHcHn_DkRzqD--LEBfgY,"67RM+GG Ghoraghat, Bangladesh",7MQF67RM+GG
শাহ্ ডেন্টাল কেয়ার,25.2973521,89.2214082,5,1,"['hospital', 'health', 'point_of_interest', 'establishment']","Ranigong Bazar, Ghoraghat",ChIJ3TeLRcbD_DkRO4UGkurRQZk,"76WC+WH Ghoraghat, Bangladesh",7MQF76WC+WH
মোস্তফা ফার্মেসী,25.2975938,89.2208301,5,2,"['hospital', 'health', 'point_of_interest', 'establishment']",Ghoraghat,ChIJU9lPCZHC_DkR1bNPN7-x_3E,"76XC+28 Ghoraghat, Bangladesh",7MQF76XC+28
Azad Medical store,25.2992115,89.2220021,not found,not found,"['hospital', 'health', 'point_of_interest', 'establishment']","Ranigong Bazar, Ghoraghat",ChIJfSp6kxDD_DkRe7aRPwE9Jp0,"76XC+MR Ghoraghat, Bangladesh",7MQF76XC+MR
আবুল কালাম কমিউনিটি হাসপাতাল এন্ড ডায়াগনস্টিক সেন্টার,25.2126201,89.2996027,not found,not found,"['hospital', 'health', 'point_of_interest', 'establishment']",Gobindaganj Upazila,ChIJg8ZrjxXn_DkRfM6jSAStS2s,"677X+2R Ghoraghat, Bangladesh",7MQF677X+2R
SS Medical Store,25.3331002,89.2785968,not found,not found,"['hospital', 'health', 'point_of_interest', 'establishment']","Unnamed Road, Chatra",ChIJB427Q7Td_DkRqPal2oWyChs,"87MH+6C Chatra, Bangladesh",7MQF87MH+6C
মারুপাড়া কমিউনিটি ক্লিনিক,25.3350555,89.275254,not found,not found,"['hospital', 'health', 'point_of_interest', 'establishment']","ঘোড়াঘাট উপজেলা, Maru Para,Ranigonj Bazar",ChIJpe5jrv_d_DkRYKRIpYCnjRc,"87PG+24 Chatra, Bangladesh",7MQF87PG+24
Mishon Hospital,25.1926377,89.3034695,not found,not found,"['hospital', 'health', 'point_of_interest', 'establishment']",Gobindaganj Upazila,ChIJu-S6fqXn_DkR3gzqg5V6bxc,"58V3+39 Balia, Bangladesh",7MQF58V3+39
মিশন হাসপাতাল,25.1925891,89.3034246,1,1,"['hospital', 'health', 'point_of_interest', 'establishment']",Gobindaganj Upazila,ChIJNQzToJPn_DkRG8V_VCKOdQ4,"58V3+29 Balia, Bangladesh",7MQF58V3+29
Chatshal Community Clinic,25.3060338,89.1582395,not found,not found,"['hospital', 'health', 'point_of_interest', 'establishment']",Chatsal,ChIJq4X5Ey_B_DkRlqFzaoUbMYM,"8545+C7 Chatsal, Bangladesh",7MQF8545+C7
Plashabari Animal Hospital,25.2829502,89.35072,4.4,5,"['hospital', 'health', 'point_of_interest', 'establishment']",Palashbari,ChIJB87FWZ3g_DkR8F-ypacBvSI,"79M2+57 Palashbari, Bangladesh",7MQF79M2+57
Sheba Health & Eye Care Center সেবা হেলথ এন্ড আই কেয়ার সেন্টার,25.2845322,89.351,4.8,4,"['hospital', 'health', 'point_of_interest', 'establishment']",Palashbari Upazila,ChIJlxAMrmff_DkRGka40tlzAvM,"79M2+R9 Palashbari, Bangladesh",7MQF79M2+R9
hospital,25.1831031,89.3217019,not found,not found,"['hospital', 'health', 'point_of_interest', 'establishment']",Gobindaganj Upazila,ChIJz8NOrA7l_DkRWn92E4X8ybQ,"58MC+6M Balia, Bangladesh",7MQF58MC+6M
তাবাচ্ছুম মেডিসিন সেন্টার,25.2842339,89.3521076,not found,not found,"['hospital', 'health', 'point_of_interest', 'establishment']",Palashbari Upazila,ChIJcwDvc8vf_DkRgWt7nLCu6g4,"79M2+MR Palashbari, Bangladesh",7MQF79M2+MR
LAMB Hospital,25.6620281,88.8839713,4.3,50,"['hospital', 'health', 'point_of_interest', 'establishment']","Dist, LAMB Hospital Road, P.O",ChIJacuhgTVT4zkRvmO9EWMI0g4,"MV6M+RH Rajabasor, Bangladesh",7MQCMV6M+RH
পার্বতীপুর গণস্বাস্থ্য কেন্দ্র,25.6543901,88.9162387,5,1,"['hospital', 'health', 'point_of_interest', 'establishment']","Tetultori bazar, পার্বতীপুর উপজেলা",ChIJjWyM1biz_DkRI7OMHGC0Ojc,not found,not found
INOVA HEALTH CARE,25.6531243,88.9182202,5,1,"['hospital', 'health', 'point_of_interest', 'establishment']","MAIN ROAD MOJAFFAR NAGAR NOTON BAZAR, পার্বতীপুর উপজেলা",ChIJ-8uF_Eet_DkRTV9m29EQno0,"MW39+67 Parbatipur, Bangladesh",7MQCMW39+67
Parbatipur Dental Care,25.6516561,88.918239,not found,not found,"['hospital', 'health', 'point_of_interest', 'establishment']","Parbatipur - Baro Pukuria Road, Parbatipur",ChIJb7KsIf-t_DkRDRW316bvbAQ,"MW29+M7 Parbatipur, Bangladesh",7MQCMW29+M7
Faryad Diagnostic & Health Care Center,25.655537,88.9202375,not found,not found,"['hospital', 'health', 'point_of_interest', 'establishment']","Gulshan Nagar, Parbatipur",ChIJtbQzzeyt_DkRubRDhTHbsf8,"MW4C+63 Parbatipur, Bangladesh",7MQCMW4C+63
Parbatipur Railway Hospital,25.6518347,88.9125903,4,5,"['hospital', 'health', 'point_of_interest', 'establishment']",Parbatipur,ChIJcegN4jGt_DkRwl_xd1zNJgs,"MW27+P2 Parbatipur, Bangladesh",7MQCMW27+P2
Mahin Medicine Store,25.6495287,88.9147179,not found,not found,"['hospital', 'health', 'point_of_interest', 'establishment']","Haldibari Road, Parbatipur",ChIJd1bKeEit_DkRhrkeE6WjZ14,"JWX7+RV Parbatipur, Bangladesh",7MQCJWX7+RV
Happy People Organisation,25.6600124,88.9095491,not found,not found,"['hospital', 'health', 'point_of_interest', 'establishment']","Puraton Bazar Road, Parbatipur",ChIJCdbECO1T4zkR5wlQs1Ro4oE,"MW65+2R Parbatipur, Bangladesh",7MQCMW65+2R
Lions Eye Hospital.,25.6635317,88.9148419,3,2,"['hospital', 'health', 'point_of_interest', 'establishment']",Parbatipur Upazila,ChIJff8-YSVT4zkRJQZQHBJAZNU,"MW77+CW Parbatipur, Bangladesh",7MQCMW77+CW
Dulal Zhumur Nursinghome,25.6611882,88.9085922,not found,not found,"['hospital', 'health', 'point_of_interest', 'establishment']","Puraton Bazar Road, Parbatipur",ChIJPT7KTAhT4zkR-d8JqoV06c0,"MW65+FC Parbatipur, Bangladesh",7MQCMW65+FC
Patients care diabetic hospital,25.6636765,88.9085672,not found,not found,"['hospital', 'health', 'point_of_interest', 'establishment']",Dinajpur - Parbatipur Road,ChIJwVPSh2pT4zkRvwvCc2ub2qM,"MW75+FC Parbatipur, Bangladesh",7MQCMW75+FC
Parbatipura creatures hospital,25.6665413,88.9026855,5,1,"['hospital', 'health', 'point_of_interest', 'establishment']",Parbatipur Upazila,ChIJzVSN2ylT4zkR_PpzhtxsCLQ,"MW83+J3 Parbatipur, Bangladesh",7MQCMW83+J3
Parbatipur Upazila Health Complex,25.6325889,88.9195327,4.5,19,"['hospital', 'health', 'point_of_interest', 'establishment']","Parbatipur - Baro Pukuria Road, Haldibari",ChIJtxmDqhWt_DkR2siV-B6tO5c,"JWM9+2R Haldibari, Bangladesh",7MQCJWM9+2R
Jahanabad community hospital,25.6380812,88.8980687,5,1,"['hospital', 'health', 'point_of_interest', 'establishment']",Parbatipur Upazila,ChIJu1YWK9ys_DkRtWYFIael7xM,"JVQX+66 Choitapara, Bangladesh",7MQCJVQX+66
"Past RDNS Research office, icddr,b",25.6600474,88.883386,5,1,"['hospital', 'health', 'point_of_interest', 'establishment']",Parbatipur Upazila,ChIJO6dlmEpT4zkR1b-QVgQCg98,"MV6M+29 Rajabasor, Bangladesh",7MQCMV6M+29
মুনসীপারা মোর,25.6624716,88.8834256,not found,not found,"['hospital', 'health', 'point_of_interest', 'establishment']",Lamb Hospital - Choitapara Road,ChIJYVShclhT4zkRxES4FgrRf1s,"MV6M+X9 Rajabasor, Bangladesh",7MQCMV6M+X9
উত্তর হরিরামপুর কমিউনিটি ক্লিনিক,25.7109581,88.8983564,not found,not found,"['hospital', 'health', 'point_of_interest', 'establishment']",Sundorpir Bazar - Bannirghat Road,ChIJQ3zgTKNT4zkRP6A_FQbEIz4,"PV6X+98 Sundorpir, Bangladesh",7MQCPV6X+98
Dr. Zaker,25.6670383,88.9812602,5,1,"['hospital', 'health', 'point_of_interest', 'establishment']","Badarganj - Parbatipur Road, Ramnathpur",ChIJXxB5RNZM4zkRGgArHoQCr-o,"MX8J+RG Ramnathpur, Bangladesh",7MQCMX8J+RG
MDS,25.6514751,88.9873159,4,1,"['hospital', 'health', 'point_of_interest', 'establishment']",Kholahati,ChIJY0oLWy6z_DkRjaeYw1NBUpE,"MX2P+HW Kholahati, Bangladesh",7MQCMX2P+HW
MDS,25.6491166,88.9873842,not found,not found,"['hospital', 'health', 'point_of_interest', 'establishment']",Kholahati,ChIJB2Deoi-z_DkROY3TpyJjCUo,"JXXP+JX Kholahati, Bangladesh",7MQCJXXP+JX
Raiyan Health Care Hospital,25.3965242,88.9905191,4.3,6,"['hospital', 'health', 'point_of_interest', 'establishment']",Birampur,ChIJW4uimpe7_DkR4Y-_ch9IChU,"9XWR+J6 Birampur, Bangladesh",7MQC9XWR+J6
Desh Medical Hall,25.4972264,88.9536984,not found,not found,"['hospital', 'health', 'point_of_interest', 'establishment']","Bazar Road, Phulbari",ChIJ98gIf8ex_DkRG_KgNkQfQOU,"FXW3+VF Phulbari, Bangladesh",7MQCFXW3+VF
One Diagnostic Center,25.4962913,88.9501673,not found,not found,"['hospital', 'health', 'point_of_interest', 'establishment']","প্রফেসর পাড়া রোড, Phulbari",ChIJgRzwpF2x_DkR4EPzzAXkzUQ,"FXW2+G3 Phulbari, Bangladesh",7MQCFXW2+G3
Phulbari Health Care Clinic,25.5000308,88.9525906,2.3,4,"['hospital', 'health', 'point_of_interest', 'establishment']","Dinajpur - Phulbari Road, Phulbari",ChIJUXd5bzuw_DkRS16r3p1I8f0,"GX23+22 Phulbari, Bangladesh",7MQCGX23+22
ডা.জাকারিয়া হাসান,25.4975124,88.9576074,not found,not found,"['hospital', 'health', 'point_of_interest', 'establishment']","কাটাবাড়িRoad, Phulbari",ChIJI-dtaXyx_DkRPBQ6XqlG4WI,"FXX5+22 Phulbari, Bangladesh",7MQCFXX5+22
Phulbari Upazila Health complex,25.5015095,88.9487077,4.2,25,"['hospital', 'health', 'point_of_interest', 'establishment']","R585, Phulbari",ChIJqRA6ViSw_DkRmosFZZQG7rA,"GW2X+JF Phulbari, Bangladesh",7MQCGW2X+JF
Upzaila Famaily Planining Office.Phulbari.Dinajpur,25.5019774,88.9485412,not found,not found,"['hospital', 'health', 'point_of_interest', 'establishment']",Dinajpur - Phulbari Road,ChIJc4GnGS2x_DkR_hIZAvEbq7g,"GW2X+QC Phulbari, Bangladesh",7MQCGW2X+QC
"Imdad-Sitara Khan Kidney Center, Dinajpur",25.5036019,88.9280047,5,2,"['hospital', 'health', 'point_of_interest', 'establishment']",Phulbari Upazila,ChIJ92xq6sWv_DkRzVyv9qV0ku0,"GW3H+C6 Phulbari, Bangladesh",7MQCGW3H+C6
T-M Healthcare and Imdad Sitara Khan Kidney Center,25.5036076,88.9279962,not found,not found,"['hospital', 'health', 'point_of_interest', 'establishment']",BGB Camp Road,ChIJm3p3_Xqv_DkRKcy6cYaBJrQ,"GW3H+C5 Phulbari, Bangladesh",7MQCGW3H+C5
চকবির c c,25.5300963,88.9374377,not found,not found,"['hospital', 'health', 'point_of_interest', 'establishment']","Sibnagor Road, চৌপথী বাজার",ChIJLUGejWWv_DkR9u2BETf6BiY,"GWJP+2X Sibnagor, Bangladesh",7MQCGWJP+2X
Saidpur CC,25.4381054,88.9288902,4.5,2,"['hospital', 'health', 'point_of_interest', 'establishment']","Warehouse, Madilahat",ChIJT7putzul_DkREGsnClbLvP4,"CWQH+6H Madilahat, Bangladesh",7MQCCWQH+6H
Mohespur cc,25.4474547,88.9091466,5,2,"['hospital', 'health', 'point_of_interest', 'establishment']","Phulbari Upazila, 5260",ChIJR92bFHOl_DkR33FppLz_GpM,"CWW5+XM Madilahat, Bangladesh",7MQCCWW5+XM
ধুলা উদাল বাজার,25.5590408,88.986132,5,1,"['hospital', 'health', 'point_of_interest', 'establishment']",Parbatipur Upazila,ChIJGwk3aI2x_DkRamcVzwcLM4c,"HX5P+JF Barnamala, Bangladesh",7MQCHX5P+JF
হামিদপুর নিরাপদ প্রসব কেন্দ্র,25.5592098,88.9861957,5,1,"['hospital', 'health', 'point_of_interest', 'establishment']",Parbatipur Upazila,ChIJW71rEx-x_DkRjOjdFFbgnuo,"HX5P+MF Barnamala, Bangladesh",7MQCHX5P+MF
FWC,25.4366458,88.9109715,5,1,"['hospital', 'health', 'point_of_interest', 'establishment']","ফুলবাড়ী উপজেলা, 5260",ChIJWyjksg-l_DkRyynqRFUFIuw,"CWP6+M9 Madilahat, Bangladesh",7MQCCWP6+M9
চিন্তামন উপঃ সাস্থ্য ও পরিবার কল্যাণ কেন্দ্র,25.4364372,88.9109853,5,3,"['hospital', 'health', 'point_of_interest', 'establishment']",Phulbari Upazila,ChIJ98c1gmGl_DkRdHGQjb-Jdoc,"CWP6+H9 Madilahat, Bangladesh",7MQCCWP6+H9
মা ফার্মেসি,25.4263777,88.9213999,not found,not found,"['hospital', 'health', 'point_of_interest', 'establishment']",Unnamed Road,ChIJJ_HsaR-l_DkRitl0kRcM0-M,"CWGC+HH Madilahat, Bangladesh",7MQCCWGC+HH
Imam Hosain (a.s) Medical Center,25.5636734,89.0043482,not found,not found,"['hospital', 'health', 'point_of_interest', 'establishment']",বাজার রোড,ChIJ7ZdszI2x_DkRLTIqkA0zUT0,"H273+FP পাটিকা ঘাট, Bangladesh",7MQFH273+FP
BRAC Healthcare Center,25.5804136,88.9466831,not found,not found,"['hospital', 'health', 'point_of_interest', 'establishment']","Parbatipur Upazila, Bhowanipur Bazar",ChIJkw70yA6y_DkRNeB9n59QnRw,"HWJW+5M ভবানীপুর, Bangladesh",7MQCHWJW+5M
Parmanu And Dental Homio Hol,25.5823157,88.9419027,not found,not found,"['hospital', 'health', 'point_of_interest', 'establishment']",Bhawanipur Bazaar,ChIJTXvHb_yz_DkRzv21A7GNdM4,"HWJR+WQ ভবানীপুর, Bangladesh",7MQCHWJR+WQ
খালাসউদ্দীন চৌধরী স্বাস্থ্যসেবা কেন্দ্র,25.7968062,88.4639951,5,2,"['hospital', 'health', 'point_of_interest', 'establishment']",Bochaganj,ChIJkdWrsjTI5DkRvR6-pd7bwI4,"QFW7+PH Bochaganj, Bangladesh",7MQCQFW7+PH
Bochaganj Hospital,25.7995323,88.4665084,2.8,6,"['hospital', 'health', 'point_of_interest', 'establishment']",Bochaganj,ChIJh8NHBjPI5DkRY1t7H7Oz18M,"QFX8+RJ Bochaganj, Bangladesh",7MQCQFX8+RJ
Shorkar Madinicn Mart,25.8040188,88.4598707,not found,not found,"['hospital', 'health', 'point_of_interest', 'establishment']","Unnamed Road, Bochaganj",ChIJZxLNDgjJ5DkRV0sBMvsow2U,"RF35+JW Bochaganj, Bangladesh",7MQCRF35+JW
Salma Homeo Pharmacy,25.8041307,88.4582978,4.5,2,"['hospital', 'health', 'point_of_interest', 'establishment']",Bochaganj,ChIJveUcvknI5DkR_IqmE1nIHbs,"RF35+M8 Bochaganj, Bangladesh",7MQCRF35+M8
BulBul Pharmaci,25.8059707,88.460522,not found,not found,"['hospital', 'health', 'point_of_interest', 'establishment']","Road, Bochaganj",ChIJDc-PezLJ5DkRDaPf8ch3u2A,"RF46+96 Bochaganj, Bangladesh",7MQCRF46+96
Mariestopes,25.7965318,88.4403307,5,1,"['hospital', 'health', 'point_of_interest', 'establishment']",Bochaganj Upazila,ChIJ_______I5DkRRLd0R8YMlmA,"QCWR+J4 Bochaganj, Bangladesh",7MQCQCWR+J4
"কেরামতিয়া উচ্চ বিদ্যালয়,",25.844902,88.4343487,not found,not found,"['hospital', 'health', 'point_of_interest', 'establishment']",Rangpur,ChIJ85sWtp_H5DkRzL1_VTW8UeQ,"RCVM+XP Phutkibari, Bangladesh",7MQCRCVM+XP
Jot Mokundapur Comunity Clenic,25.826871,88.5186066,not found,not found,"['hospital', 'health', 'point_of_interest', 'establishment']",Kaharole Upazila,ChIJFe9_vvW35DkRTcsITVqoNYM,"RGG9+PC Joynanda Hat, Bangladesh",7MQCRGG9+PC
বড় সুলতানপুর স্বাস্থ্য কমপ্লেক্স,25.8249459,88.40346,not found,not found,"['hospital', 'health', 'point_of_interest', 'establishment']",Sultanpur,ChIJWQg17EnJ5DkRQFNd9XH34lo,"RCF3+X9 Chairman Para, Bangladesh",7MQCRCF3+X9
ইউনিয়ন স্বাস্থ্য ও পরিবার কল্যাণ কেন্দ্র।,25.8249374,88.4034023,5,2,"['hospital', 'health', 'point_of_interest', 'establishment']",Bochaganj Upazila,ChIJWU9uAd_J5DkR93gN-Cuyy9k,"RCF3+X9 Chairman Para, Bangladesh",7MQCRCF3+X9
স্যাটেলাইট ক্লিনিক,25.8117048,88.5360138,not found,not found,"['hospital', 'health', 'point_of_interest', 'establishment']",Bonchaganj-Kaharole Road,ChIJVTjMGFa35DkRv8reEBYw2sg,"RG6P+MC Tarapur, Bangladesh",7MQCRG6P+MC
ভাদুয়ারী কমিউনিটি ক্লিনিক,25.7244684,88.4635856,not found,not found,"['hospital', 'health', 'point_of_interest', 'establishment']",Unnamed Road,ChIJU1aJhvvL5DkRRgBcffedVH4,"PFF7+QC Bandhugaon, Bangladesh",7MQCPFF7+QC
জাবরহাট হাসপাতাল Jabarhat Hospital,25.7740181,88.3682721,5,1,"['hospital', 'health', 'point_of_interest', 'establishment']",Pirganj Upazila,ChIJYdWX6LDP5DkRfLnYdUGHa0c,"Q9F9+J8 Jaborhat, Bangladesh",7MQCQ9F9+J8
5No up Hospital,25.708703,88.4594779,not found,not found,"['hospital', 'health', 'point_of_interest', 'establishment']",Dharapatie - Phulbari - Sankorpur Bazar,ChIJjYUcANTL5DkRZExPX7hndIs,"PF55+FQ Jonglipir, Bangladesh",7MQCPF55+FQ
ইউনিয়ন স্বাস্থ্য কমপ্লেক্স,25.7050197,88.4573454,not found,not found,"['hospital', 'health', 'point_of_interest', 'establishment']",Maherpur,ChIJq8BHjqjL5DkRh4PhKdFJ4Ps,"PF44+2W Jonglipir, Bangladesh",7MQCPF44+2W
Bairchuna Popular Digital Diagnostic Centre,25.7134027,88.4113034,not found,not found,"['hospital', 'health', 'point_of_interest', 'establishment']",Pirganj Upazila,ChIJPw-8SE_L5DkRJyGXEPzIQgI,"PC76+9G Rangaon, Bangladesh",7MQCPC76+9G
Khel Gaon Idgah Maidan,25.8206189,88.3495128,not found,not found,"['hospital', 'health', 'point_of_interest', 'establishment']",Kautgaon Road,ChIJG0tz6LzP5DkRjJLKGhbiEcc,"R8CX+6R Kautgaon, Bangladesh",7MQCR8CX+6R
PC store,25.8952651,88.4169532,5,1,"['hospital', 'health', 'point_of_interest', 'establishment']",Nakati-Ghughua Bypass Road,ChIJJ070fT3H5DkR0u4LI9pRdqs,"VCW8+4Q Bhabnaganj, Bangladesh",7MQCVCW8+4Q
Khalashuddin Chowdhury Swasthoseba Kendro,25.7970599,88.4639296,not found,not found,"['premise', 'hospital', 'health', 'point_of_interest', 'establishment']",Bochaganj,ChIJnUS6sjTI5DkRD4r1yH6euN4,not found,not found
Bochaganj Upazila Health Complex,25.7999526,88.4665782,not found,not found,"['hospital', 'premise', 'health', 'point_of_interest', 'establishment']",Bochaganj,ChIJs77gqTPI5DkRYVzcV0eU664,not found,not found
"মা ও শিশু কল্যান কেন্দ্র, বাদিয়াখালী",25.238012,89.545588,5,2,"['hospital', 'health', 'point_of_interest', 'establishment']",Gaibandha Sadar Upazila,ChIJyzaOeisY_TkRhKWsq6Emn7E,"6GQW+66 Badiakhali, Bangladesh",7MQF6GQW+66
Badiyakhali health center 1,25.2383681,89.5444905,4.7,3,"['hospital', 'health', 'point_of_interest', 'establishment']",Gaibandha Sadar Upazila,ChIJzzklhiwY_TkRr5qfZtpGL-4,"6GQV+8Q Badiakhali, Bangladesh",7MQF6GQV+8Q
Hiya Medicle Store,25.0855337,89.5698811,not found,not found,"['hospital', 'health', 'point_of_interest', 'establishment']",Saghata Upazila,ChIJqSW-vd0P_TkRzyzTR70IQn0,"3HP9+6X Saghata, Bangladesh",7MQF3HP9+6X
জননী রোগ নির্ণয় ও চিকিৎসা কেন্দ্র,25.1612287,89.526521,not found,not found,"['hospital', 'health', 'point_of_interest', 'establishment']",Bonarpara,ChIJ7xcVKJUb_TkRN_vIqhmKplc,"5G6G+FJ Bonarpara, Bangladesh",7MQF5G6G+FJ
Popular plus diagnostic centre,25.1624629,89.5253197,not found,not found,"['hospital', 'health', 'point_of_interest', 'establishment']","Road, Bonarpara",ChIJUwfgA_Yb_TkRchaqW-44cWo,"5G6G+X4 Bonarpara, Bangladesh",7MQF5G6G+X4
railway hospital,25.1640427,89.520126,5,1,"['hospital', 'health', 'point_of_interest', 'establishment']",Unnamed Road,ChIJB3NS7TEb_TkRBOJCTegam0A,"5G7C+J3 Bonarpara, Bangladesh",7MQF5G7C+J3
Beltail Community Clinic,25.1695045,89.551529,5,1,"['hospital', 'health', 'point_of_interest', 'establishment']",Muktinagor,ChIJP6HJin0R_TkRbJWYAYfNsbE,"5H92+RJ Bonarpara, Bangladesh",7MQF5H92+RJ
দলদলিয়া কমিউনিটি ক্লিনিক (মোল্লাপাড়া),25.167465,89.504594,5,1,"['hospital', 'health', 'point_of_interest', 'establishment']",Saghata Upazila,ChIJN-K66gQb_TkRH9I1Rs7Otz4,"5G83+XR Bonarpara, Bangladesh",7MQF5G83+XR
Dhanghora sastho complex,25.1486503,89.5536848,5,1,"['hospital', 'health', 'point_of_interest', 'establishment']",সুখছড়ি রোড,ChIJlTqR2tIR_TkRXilJgrWQVE4,"4HX3+FF বাংলা বাজার, Bangladesh",7MQF4HX3+FF
মুক্তি নগর স্বাস্থ্য ও পরিবার কল্যাণ কেন্দ্র,25.1480059,89.571643,not found,not found,"['hospital', 'health', 'point_of_interest', 'establishment']","সুখছড়ি রোড, Kachuahat",ChIJ7Sxq7ogR_TkRaV7jxDXoEms,"4HXC+6M Kachuahat, Bangladesh",7MQF4HXC+6M
গটিয়া মিয়াবাড়ি এতিমখানা ও দাতব্য চিকিৎসালয়,25.2004721,89.5641504,5,1,"['hospital', 'health', 'point_of_interest', 'establishment']",Saghata Upazila,ChIJh4-vgkUX_TkRsy9cb7V_LOk,"6H27+5M Saghata, Bangladesh",7MQF6H27+5M
বোচাদহ কমিউনিটি ক্লিনিক,25.1166278,89.5024764,5,1,"['hospital', 'health', 'point_of_interest', 'establishment']",Unnamed Road,ChIJi_0O-3Mb_TkRnqW8WcyeBro,"4G82+MX Bochadaha, Bangladesh",7MQF4G82+MX
Enamul Medical Store,25.1892187,89.5759062,3,1,"['hospital', 'health', 'point_of_interest', 'establishment']",Saghata Upazila,ChIJBW2u5voX_TkRaNbH5RQ-I3w,"5HQG+M9 Saghata, Bangladesh",7MQF5HQG+M9
S.S Medical Store,25.1891727,89.5805377,not found,not found,"['hospital', 'health', 'point_of_interest', 'establishment']",Saghata Upazila,ChIJiy9n3I4X_TkRiEJSSDJpnkQ,"5HQJ+M6 Saghata, Bangladesh",7MQF5HQJ+M6
Bonarpara Digital Hospital,25.1171412,89.5686271,not found,not found,"['hospital', 'health', 'point_of_interest', 'establishment']",Saghata Upazila,ChIJ_____z8Q_TkR2STOlKrL7tc,"4H89+VF Saghata, Bangladesh",7MQF4H89+VF
Tepa Padumsahar Hospital,25.2167147,89.5509211,not found,not found,"['hospital', 'health', 'point_of_interest', 'establishment']",Saghata Upazila,ChIJPcTCJlQX_TkRJnvyt_LcaZE,"6H82+M9 Badiakhali, Bangladesh",7MQF6H82+M9
The Jamuna lab,25.1917227,89.5912253,5,14,"['hospital', 'health', 'point_of_interest', 'establishment']",Unnamed Road,ChIJvxzJZtQW_TkR6M29ouwe6EI,"5HRR+MF Saghata, Bangladesh",7MQF5HRR+MF
Mahimaganj Government Hospital,25.107727,89.4887495,4,6,"['hospital', 'health', 'point_of_interest', 'establishment']",কোচাশহর - মহিমাগঞ্জ রোড,ChIJGV8-fEYb_TkRhINWNcBnIiU,"4F5Q+3F Mahimaganj, Bangladesh",7MQF4F5Q+3F
মোল্লা ডেন্টাল সাঘাটা,25.1127092,89.5809769,not found,not found,"['hospital', 'health', 'point_of_interest', 'establishment']","হাসপাতাল রোড, Saghata",ChIJS3Y2WYsR_TkRp8jQ08huLOk,"4H7J+39 Saghata, Bangladesh",7MQF4H7J+39
"Upazila Health Complex, Saghata",25.1131188,89.5818168,4.7,3,"['hospital', 'health', 'point_of_interest', 'establishment']","হাসপাতাল রোড, Saghata",ChIJ_-r0kzYQ_TkRs03RgCB_CcM,"4H7J+6P Saghata, Bangladesh",7MQF4H7J+6P
Hiya Medicle Store,25.0855337,89.5698811,not found,not found,"['hospital', 'health', 'point_of_interest', 'establishment']",Saghata Upazila,ChIJqSW-vd0P_TkRzyzTR70IQn0,"3HP9+6X Saghata, Bangladesh",7MQF3HP9+6X
"Upazila Health Complex, Saghata",25.1131188,89.5818168,4.7,3,"['hospital', 'health', 'point_of_interest', 'establishment']","হাসপাতাল রোড, Saghata",ChIJ_-r0kzYQ_TkRs03RgCB_CcM,"4H7J+6P Saghata, Bangladesh",7MQF4H7J+6P
মোল্লা ডেন্টাল সাঘাটা,25.1127092,89.5809769,not found,not found,"['hospital', 'health', 'point_of_interest', 'establishment']","হাসপাতাল রোড, Saghata",ChIJS3Y2WYsR_TkRp8jQ08huLOk,"4H7J+39 Saghata, Bangladesh",7MQF4H7J+39
Bonarpara Digital Hospital,25.1171412,89.5686271,not found,not found,"['hospital', 'health', 'point_of_interest', 'establishment']",Saghata Upazila,ChIJ_____z8Q_TkR2STOlKrL7tc,"4H89+VF Saghata, Bangladesh",7MQF4H89+VF
চিনির পটল কমিউনিটি স্বাস্হ্য কমপ্লেক্স,25.1001226,89.5839927,not found,not found,"['hospital', 'health', 'point_of_interest', 'establishment']",Saghata Upazila,ChIJgWKBzc4R_TkRMl7uFksQVmU,"4H2M+2H Saghata, Bangladesh",7MQF4H2M+2H
মুক্তি নগর স্বাস্থ্য ও পরিবার কল্যাণ কেন্দ্র,25.1480059,89.571643,not found,not found,"['hospital', 'health', 'point_of_interest', 'establishment']","সুখছড়ি রোড, Kachuahat",ChIJ7Sxq7ogR_TkRaV7jxDXoEms,"4HXC+6M Kachuahat, Bangladesh",7MQF4HXC+6M
Dhanghora sastho complex,25.1486503,89.5536848,5,1,"['hospital', 'health', 'point_of_interest', 'establishment']",সুখছড়ি রোড,ChIJlTqR2tIR_TkRXilJgrWQVE4,"4HX3+FF বাংলা বাজার, Bangladesh",7MQF4HX3+FF
Beltail Community Clinic,25.1695045,89.551529,5,1,"['hospital', 'health', 'point_of_interest', 'establishment']",Muktinagor,ChIJP6HJin0R_TkRbJWYAYfNsbE,"5H92+RJ Bonarpara, Bangladesh",7MQF5H92+RJ
জননী রোগ নির্ণয় ও চিকিৎসা কেন্দ্র,25.1612287,89.526521,not found,not found,"['hospital', 'health', 'point_of_interest', 'establishment']",Bonarpara,ChIJ7xcVKJUb_TkRN_vIqhmKplc,"5G6G+FJ Bonarpara, Bangladesh",7MQF5G6G+FJ
Popular plus diagnostic centre,25.1624629,89.5253197,not found,not found,"['hospital', 'health', 'point_of_interest', 'establishment']","Road, Bonarpara",ChIJUwfgA_Yb_TkRchaqW-44cWo,"5G6G+X4 Bonarpara, Bangladesh",7MQF5G6G+X4
S.S Medical Store,25.1891727,89.5805377,not found,not found,"['hospital', 'health', 'point_of_interest', 'establishment']",Saghata Upazila,ChIJiy9n3I4X_TkRiEJSSDJpnkQ,"5HQJ+M6 Saghata, Bangladesh",7MQF5HQJ+M6
Enamul Medical Store,25.1892187,89.5759062,3,1,"['hospital', 'health', 'point_of_interest', 'establishment']",Saghata Upazila,ChIJBW2u5voX_TkRaNbH5RQ-I3w,"5HQG+M9 Saghata, Bangladesh",7MQF5HQG+M9
The Jamuna lab,25.1917227,89.5912253,5,14,"['hospital', 'health', 'point_of_interest', 'establishment']",Unnamed Road,ChIJvxzJZtQW_TkR6M29ouwe6EI,"5HRR+MF Saghata, Bangladesh",7MQF5HRR+MF
railway hospital,25.1640427,89.520126,5,1,"['hospital', 'health', 'point_of_interest', 'establishment']",Unnamed Road,ChIJB3NS7TEb_TkRBOJCTegam0A,"5G7C+J3 Bonarpara, Bangladesh",7MQF5G7C+J3
বোচাদহ কমিউনিটি ক্লিনিক,25.1166278,89.5024764,5,1,"['hospital', 'health', 'point_of_interest', 'establishment']",Unnamed Road,ChIJi_0O-3Mb_TkRnqW8WcyeBro,"4G82+MX Bochadaha, Bangladesh",7MQF4G82+MX
Husneara Memorial Hospital,25.0725985,89.523541,not found,not found,"['hospital', 'health', 'point_of_interest', 'establishment']",Saghata Upazila,ChIJFbUO_jwF_TkRRYM1nCmHbDg,"3GFF+2C Pholia, Bangladesh",7MQF3GFF+2C
গটিয়া মিয়াবাড়ি এতিমখানা ও দাতব্য চিকিৎসালয়,25.2004721,89.5641504,5,1,"['hospital', 'health', 'point_of_interest', 'establishment']",Saghata Upazila,ChIJh4-vgkUX_TkRsy9cb7V_LOk,"6H27+5M Saghata, Bangladesh",7MQF6H27+5M
দলদলিয়া কমিউনিটি ক্লিনিক (মোল্লাপাড়া),25.167465,89.504594,5,1,"['hospital', 'health', 'point_of_interest', 'establishment']",Saghata Upazila,ChIJN-K66gQb_TkRH9I1Rs7Otz4,"5G83+XR Bonarpara, Bangladesh",7MQF5G83+XR
Mahimaganj Government Hospital,25.107727,89.4887495,4,6,"['hospital', 'health', 'point_of_interest', 'establishment']",কোচাশহর - মহিমাগঞ্জ রোড,ChIJGV8-fEYb_TkRhINWNcBnIiU,"4F5Q+3F Mahimaganj, Bangladesh",7MQF4F5Q+3F
উত্তর খোলাবাড়ি আমতলা বাজার ফুলছড়ি গাইবান্ধা'',25.189328,89.648423,not found,not found,"['hospital', 'health', 'point_of_interest', 'establishment']",Fulchhari Upazila,ChIJfbVdkXcV_TkRdNBfUokMyWQ,"5JQX+P9 Saghata, Bangladesh",7MQF5JQX+P9
"SKS Hospital, Gaibandha",25.3259361,89.5493315,4.2,31,"['hospital', 'health', 'point_of_interest', 'establishment']",Gaibandha,ChIJuYaOttQi_TkR20SitfR5_yg,"8GGX+9P Gaibandha, Bangladesh",7MQF8GGX+9P
Badiyakhali health center 1,25.2383681,89.5444905,4.7,3,"['hospital', 'health', 'point_of_interest', 'establishment']",Gaibandha Sadar Upazila,ChIJzzklhiwY_TkRr5qfZtpGL-4,"6GQV+8Q Badiakhali, Bangladesh",7MQF6GQV+8Q
"মা ও শিশু কল্যান কেন্দ্র, বাদিয়াখালী",25.238012,89.545588,5,2,"['hospital', 'health', 'point_of_interest', 'establishment']",Gaibandha Sadar Upazila,ChIJyzaOeisY_TkRhKWsq6Emn7E,"6GQW+66 Badiakhali, Bangladesh",7MQF6GQW+66
Mother & Child Care Center ( মাতৃসদন),25.3280992,89.548369,5,2,"['hospital', 'health', 'point_of_interest', 'establishment']",Gaibandha,ChIJ0ySiGdUi_TkRUSen3gAgwHE,"8GHX+68 Gaibandha, Bangladesh",7MQF8GHX+68
গাইবান্দা সরকারী মাতৃ সদন,25.3280259,89.5483378,5,1,"['hospital', 'health', 'point_of_interest', 'establishment']","Shohid Shohorawardi Road, Gaibandha",ChIJlV3Eh9Qj_TkRq2ilcP3nfrE,"8GHX+68 Gaibandha, Bangladesh",7MQF8GHX+68
Mother and Child Clinic ( Maatri Shadhon)Gaibanda,25.3280532,89.5483924,5,2,"['hospital', 'health', 'point_of_interest', 'establishment']","Bir Protik Khaled Soroni, Gaibandha",ChIJ53fgxMYj_TkRM9miD73bSdg,"8GHX+69 Gaibandha, Bangladesh",7MQF8GHX+69
খাঁ পাড়া পুরাতন হাসপাতাল লেন,25.3279883,89.5484421,not found,not found,"['hospital', 'health', 'point_of_interest', 'establishment']","Bir Protik Khaled Soroni, Gaibandha",ChIJGYM3yvcj_TkRnE7yZk9fNaw,"8GHX+59 Gaibandha, Bangladesh",7MQF8GHX+59
"মা ও শিশু কল্যাণ কেন্দ্র, গাইবান্ধা",25.3280929,89.5486935,not found,not found,"['hospital', 'health', 'point_of_interest', 'establishment']",Haspalal Ln,ChIJDynWpbIj_TkRJ-8v9kvATdE,"8GHX+6F Gaibandha, Bangladesh",7MQF8GHX+6F
মা ও শিশু টিকা দান কেন্দ্র পুরাতন হাসপাতাল,25.3280453,89.5489403,not found,not found,"['hospital', 'health', 'point_of_interest', 'establishment']",Gaibandha,ChIJXz9USpoj_TkRk4sLu3aBeNA,"8GHX+6H Gaibandha, Bangladesh",7MQF8GHX+6H
Tooth Planet Dental Care Gaibandha,25.3296928,89.5429652,not found,not found,"['hospital', 'health', 'point_of_interest', 'establishment']",Sador Hospital Road,ChIJqUjjqHcj_TkRUb_1dljsv10,"8GHV+V5 Gaibandha, Bangladesh",7MQF8GHV+V5
উপজেলা সাস্থ্য ও পঃ পঃ কর্মকর্তা কার্যালয় মা ও শিশু টিকাদান কেন্দ্র,25.3277212,89.5493753,5,2,"['hospital', 'health', 'point_of_interest', 'establishment']",Haspalal Ln,ChIJJxi7o4wj_TkR0MbpmGc-eic,"8GHX+3Q Gaibandha, Bangladesh",7MQF8GHX+3Q
Homeo Hall,25.331973,89.5503196,not found,not found,"['hospital', 'health', 'point_of_interest', 'establishment']","Park Road, Gaibandha",ChIJ2UD9N9U8_TkRrAtoN4-UnXg,"8HJ2+Q4 Gaibandha, Bangladesh",7MQF8HJ2+Q4
Nur Physiotherapy Center,25.3296169,89.5425807,not found,not found,"['hospital', 'health', 'point_of_interest', 'establishment']","College Rd, Thanapara Road, গাইবান্ধা",ChIJSdQ9Dl8j_TkRBAd-EGpOse0,"8GHV+R2 Gaibandha, Bangladesh",7MQF8GHV+R2
Pulse Clinic and Nursing Home,25.3260721,89.5485038,3.5,10,"['hospital', 'health', 'point_of_interest', 'establishment']",Gaibandha,ChIJq03I6tQi_TkReHXKqL8cLao,"8GGX+CC Gaibandha, Bangladesh",7MQF8GGX+CC
লাইফ কেয়ার ডায়াগনস্টিক সেন্টার,25.3260142,89.5486462,not found,not found,"['hospital', 'health', 'point_of_interest', 'establishment']",Gaibandha,ChIJVyfv7Csj_TkRmYuX80nGWyw,"8GGX+CF Gaibandha, Bangladesh",7MQF8GGX+CF
"SKS Hospital, Masterpara,Gaibandha",25.3261133,89.5493587,not found,not found,"['hospital', 'health', 'point_of_interest', 'establishment']",Gaibandha,ChIJQW7t_V0j_TkR_IDCazNzeOA,"8GGX+CP Gaibandha, Bangladesh",7MQF8GGX+CP
modern dianostic center,25.3296335,89.5399245,not found,not found,"['hospital', 'health', 'point_of_interest', 'establishment']",Gaibandha - Sadullahpur Road,ChIJL8bYaRcj_TkRwld5BXogcYI,"8GHQ+VX Gaibandha, Bangladesh",7MQF8GHQ+VX
মেরী স্টোপস ক্লিনিক,25.3284987,89.5390534,not found,not found,"['hospital', 'health', 'point_of_interest', 'establishment']",Gaibandha,ChIJvTw2vN8i_TkR3q-91uPhbEE,"8GHQ+9J Gaibandha, Bangladesh",7MQF8GHQ+9J
Apollo Hospital & Diagnostic Center,25.3287965,89.538937,not found,not found,"['hospital', 'health', 'point_of_interest', 'establishment']","Hospital road, Gaibandha",ChIJLxAp5nQj_TkRV7JQUjCE6E0,"8GHQ+GH Gaibandha, Bangladesh",7MQF8GHQ+GH
Digital Diagnostic Center,25.3267547,89.5395996,not found,not found,"['hospital', 'health', 'point_of_interest', 'establishment']","Sadar Hospital Road, Gaibandha",ChIJ38mRklMj_TkR7DXZbiudwZk,"8GGQ+PR Gaibandha, Bangladesh",7MQF8GGQ+PR
সরকারি ক্লিনিক হসপিটাল,25.1246315,89.4449568,not found,not found,"['hospital', 'health', 'point_of_interest', 'establishment']",Unnamed Road,ChIJSS5Fet8d_TkRoak0bzQDmAU,"4CFV+VX Araji Sahapur, Bangladesh",7MQF4CFV+VX
Shibpur Community Clinic,25.1246313,89.4450677,3,1,"['hospital', 'health', 'point_of_interest', 'establishment']",Gobindaganj Upazila,ChIJmYcRkeUc_TkRQXoQJdh-n-w,"4CFW+V2 Araji Sahapur, Bangladesh",7MQF4CFW+V2
Samriddhi Diagnostics,25.1342677,89.3917256,not found,not found,"['hospital', 'health', 'point_of_interest', 'establishment']","গোবিন্দগঞ্জ উপজেলা, Mahimaganj road",ChIJZztEl27j_DkR1Hq_gYMo9J8,"49MR+PM Gobindogonj, Bangladesh",7MQF49MR+PM
আলশিফা ক্লিনিক,25.1357439,89.3906346,not found,not found,"['hospital', 'health', 'point_of_interest', 'establishment']",Gobindogonj,ChIJ7QhDkL_j_DkR6E76OOkxL1M,"49PR+77 Gobindogonj, Bangladesh",7MQF49PR+77
Kochashar Audio And Noyon Telecom,25.0985592,89.4363775,not found,not found,"['hospital', 'health', 'point_of_interest', 'establishment']",Gobindaganj Upazila,ChIJ5Twjznkd_TkRgP8Pv0C3tgw,"3CXP+CH Araji Sahapur, Bangladesh",7MQF3CXP+CH
সুস্বাস্থ্য ডিজিটাল ডায়াগনস্টিক এন্ড কনসাল্টেশন সেন্টার,25.1350853,89.3904056,5,1,"['hospital', 'health', 'point_of_interest', 'establishment']","মহিমাগঞ্জ - গোবিন্দগঞ্জ রোড, Gobindogonj",ChIJDVZ2GVvj_DkRhRmCgPqJoy8,"49PR+25 Gobindogonj, Bangladesh",7MQF49PR+25
Radia General Hospital,25.1351737,89.3898566,not found,not found,"['hospital', 'health', 'point_of_interest', 'establishment']","মহিমাগঞ্জ - গোবিন্দগঞ্জ রোড, Gobindogonj",ChIJ1WG8EYbi_DkRRAwjhZmJqi0,"49PQ+3W Gobindogonj, Bangladesh",7MQF49PQ+3W
Poly Ultrasono and Diagonostic Center,25.1353789,89.3896132,not found,not found,"['hospital', 'health', 'point_of_interest', 'establishment']",Gobindogonj,ChIJ1y0FGobi_DkRbIcQVCdJv-A,"49PQ+5R Gobindogonj, Bangladesh",7MQF49PQ+5R
Radia General Hospital,25.1353211,89.389089,3,1,"['hospital', 'health', 'point_of_interest', 'establishment']",Gobindogonj,ChIJMTWNHYbi_DkRxCI-GsFsZFs,"49PQ+4J Gobindogonj, Bangladesh",7MQF49PQ+4J
Seba clinic & Diagnostic Centre,25.1351954,89.3890585,not found,not found,"['hospital', 'health', 'point_of_interest', 'establishment']",Mohimaganj Road,ChIJkSl5onfj_DkR6YMqsmgA2QI,"49PQ+3J Gobindogonj, Bangladesh",7MQF49PQ+3J
Eye hospital,25.1462977,89.3883236,4,5,"['hospital', 'health', 'point_of_interest', 'establishment']","Dhaka - Rangpur Highway, Gobindogonj",ChIJubDRqWTi_DkRvK4inaFnuTA,"49WQ+G8 Gobindogonj, Bangladesh",7MQF49WQ+G8
