Place Name,Latitude,Longitude,Rating,User_Total_Rating,Types,Address,Place_ID,Compound_Code,Global_Code
Komarvog Community Clinic,24.8480549,89.0288687,not found,not found,"['hospital', 'health', 'point_of_interest', 'establishment']","Shalgram Road, Chhatiangram",ChIJKd2CNndh_DkRK2DteYhj44Y,"R2XH+6G Chhatiangram, Bangladesh",7MPFR2XH+6G
Doctor Samraat Chamber,24.8766153,89.0010763,not found,not found,"['hospital', 'health', 'point_of_interest', 'establishment']",Tilakpur,ChIJjU4C0z9i_DkRJEP00sIvFlI,"V2G2+JC Tilakpur, Bangladesh",7MPFV2G2+JC
LABAID Diagnostic Naogaon,24.8164632,88.9392029,4.3,6,"['pharmacy', 'hospital', 'doctor', 'health', 'point_of_interest', 'store', 'establishment']","Ukil Para, Khan Mansion, House-04, Kazir Moar, Main Road, নওগাঁ",ChIJO1pYd618_DkR0yuueIhx8pA,"RW8Q+HM Naogaon, Bangladesh",7MPCRW8Q+HM
Dr. Sumon chember Rampura,24.7897912,89.0276372,not found,not found,"['hospital', 'health', 'point_of_interest', 'establishment']",Adamdighi Upazila,ChIJSVqxPgpn_DkRKwpgoFqGH78,"Q2QH+W3 Santahar, Bangladesh",7MPFQ2QH+W3
Upazila Health Complex,24.8216393,89.0400908,4,6,"['hospital', 'health', 'point_of_interest', 'establishment']","Bogra - Naogaon Highway, Adamdighi",ChIJH2y3oDth_DkRnYu77G74qOA,"R2CR+M2 Adamdighi, Bangladesh",7MPFR2CR+M2
Adamdighi Upazila Health Complex,24.8222349,89.044119,4,2,"['hospital', 'health', 'point_of_interest', 'establishment']",Adamdighi Upazila,ChIJ-w7GzEZh_DkRvVRuZUizcrU,"R2CV+VJ Adamdighi, Bangladesh",7MPFR2CV+VJ
Adamdighi (Gov) Hospital,24.8222674,89.0441308,5,1,"['hospital', 'health', 'point_of_interest', 'establishment']",Adamdighi,ChIJ6xvPWsVh_DkRDuMgWFKVTco,"R2CV+WM Adamdighi, Bangladesh",7MPFR2CV+WM
Adamdighi Hospital,24.8225404,89.0443789,5,2,"['hospital', 'health', 'point_of_interest', 'establishment']",Adamdighi,ChIJzYQrCzth_DkRYG_ggXy_IfI,"R2FV+2Q Adamdighi, Bangladesh",7MPFR2FV+2Q
Khan Pharmacy,24.8148881,89.0107988,5,1,"['hospital', 'health', 'point_of_interest', 'establishment']","Bogra - Naogaon Highway, Chhatiangram",ChIJHXK9CCtj_DkRJmWlmv3PBxQ,"R276+X8 Chhatiangram, Bangladesh",7MPFR276+X8
"সোহাগ হোমিও হল Shohag Homeo Hall, Dhaka Road (East), SANTAHAR, BOGRA",24.8146514,89.0094931,4.4,5,"['drugstore', 'pharmacy', 'hospital', 'health', 'point_of_interest', 'store', 'establishment']","Purbo Dhaka Road, Santahar, Chhatiangram",ChIJo5YgXvpj_DkR2G5fW_DIUlo,"R275+VQ Chhatiangram, Bangladesh",7MPFR275+VQ
Ferdusi Medical Store,24.8142714,89.0760162,not found,not found,"['hospital', 'health', 'point_of_interest', 'establishment']","Bazar, Nasratpur",ChIJ4_pC6gFh_DkRHVR06lhLOPk,"R37G+PC Nasratpur, Bangladesh",7MPFR37G+PC
Protiva clinic and diagnostic center,24.8140869,89.0023845,not found,not found,"['hospital', 'health', 'point_of_interest', 'establishment']",Chhatiangram,ChIJFyqBWENj_DkR_-BUWXjb3-w,"R272+JX Chhatiangram, Bangladesh",7MPFR272+JX
বোহার কমিনিটি ক্লিনিক,24.774194,89.0797509,5,1,"['hospital', 'health', 'point_of_interest', 'establishment']",Raninagar Upazila,ChIJDaDKSaNn_DkRxw31fqSQFKk,"Q3FH+MW Kundagram, Bangladesh",7MPFQ3FH+MW
Boha Hospital,24.7741496,89.0798086,not found,not found,"['hospital', 'health', 'point_of_interest', 'establishment']",Unnamed Road,ChIJ7c0paWNn_DkRfYVCT0uqvJI,"Q3FH+MW Kundagram, Bangladesh",7MPFQ3FH+MW
মন্ডল মেডিকেলএ্যান্ড কনসালটেশন সেন্টার,24.7762308,88.9940276,not found,not found,"['hospital', 'health', 'point_of_interest', 'establishment']","আদমদিঘী উপজেলা, Santahar Rd,Natore baipas",ChIJ6yEw0-1l_DkR-_nCrZO7ezc,"QXGV+FJ Santahar, Bangladesh",7MPCQXGV+FJ
Santahar Railway Hospital,24.8039447,88.9851487,3.7,6,"['hospital', 'health', 'point_of_interest', 'establishment']",Santahar Pouroshova,ChIJZ5ULOnlk_DkR5Yy6geaAFUw,"RX3P+H3 Santahar Pouroshova, Bangladesh",7MPCRX3P+H3
ভান্ডারগ্রাম সরকারি স্বাস্থ্য কেন্দ্র,24.7595076,89.0770844,not found,not found,"['hospital', 'health', 'point_of_interest', 'establishment']",Bhatohali - Bogarbari Bazar Road,ChIJ-2SYwINn_DkRAOJ3ftJGNPw,"Q35G+RR Champapur, Bangladesh",7MPFQ35G+RR
Mukta Medical Hall,24.8087895,88.9840107,1,1,"['hospital', 'health', 'point_of_interest', 'establishment']",Santahar Pouroshova,ChIJpevZTJlj_DkR5oheyK-xAns,"RX5M+GJ Santahar Pouroshova, Bangladesh",7MPCRX5M+GJ
Santaher Clinic,24.8067261,88.9794074,not found,not found,"['hospital', 'health', 'point_of_interest', 'establishment']","New Shahapur, Bogra - Santahar Road, সান্তাহার পৌরসভা",ChIJFXlJSQdj_DkRXd8BowJ-DQw,"RX4H+MQ Santahar Pouroshova, Bangladesh",7MPCRX4H+MQ
পালশাকমিউনিটিক্লিনিক,24.7511083,89.0095678,not found,not found,"['hospital', 'health', 'point_of_interest', 'establishment']",পশ্চিম,ChIJuUayVOhl_DkRLA84ZDjaBVk,"Q225+CR Santahar, Bangladesh",7MPFQ225+CR
Komarvog Community Clinic,24.8480549,89.0288687,not found,not found,"['hospital', 'health', 'point_of_interest', 'establishment']","Shalgram Road, Chhatiangram",ChIJKd2CNndh_DkRK2DteYhj44Y,"R2XH+6G Chhatiangram, Bangladesh",7MPFR2XH+6G
Doctor Samraat Chamber,24.8766153,89.0010763,not found,not found,"['hospital', 'health', 'point_of_interest', 'establishment']",Tilakpur,ChIJjU4C0z9i_DkRJEP00sIvFlI,"V2G2+JC Tilakpur, Bangladesh",7MPFV2G2+JC
Ferdusi Medical Store,24.8142714,89.0760162,not found,not found,"['hospital', 'health', 'point_of_interest', 'establishment']","Bazar, Nasratpur",ChIJ4_pC6gFh_DkRHVR06lhLOPk,"R37G+PC Nasratpur, Bangladesh",7MPFR37G+PC
শিব্বাটি কমিউনিটি ক্লিনিক,24.8025389,89.1065649,not found,not found,"['hospital', 'health', 'point_of_interest', 'establishment']",Tilach,ChIJMYi0ggtd_DkRi5VVRhidPnk,"R434+2J Kundagram, Bangladesh",7MPFR434+2J
Adamdighi Hospital,24.8225404,89.0443789,5,2,"['hospital', 'health', 'point_of_interest', 'establishment']",Adamdighi,ChIJzYQrCzth_DkRYG_ggXy_IfI,"R2FV+2Q Adamdighi, Bangladesh",7MPFR2FV+2Q
Adamdighi (Gov) Hospital,24.8222674,89.0441308,5,1,"['hospital', 'health', 'point_of_interest', 'establishment']",Adamdighi,ChIJ6xvPWsVh_DkRDuMgWFKVTco,"R2CV+WM Adamdighi, Bangladesh",7MPFR2CV+WM
Adamdighi Upazila Health Complex,24.8222349,89.044119,4,2,"['hospital', 'health', 'point_of_interest', 'establishment']",Adamdighi Upazila,ChIJ-w7GzEZh_DkRvVRuZUizcrU,"R2CV+VJ Adamdighi, Bangladesh",7MPFR2CV+VJ
Upazila Health Complex,24.8216393,89.0400908,4,6,"['hospital', 'health', 'point_of_interest', 'establishment']","Bogra - Naogaon Highway, Adamdighi",ChIJH2y3oDth_DkRnYu77G74qOA,"R2CR+M2 Adamdighi, Bangladesh",7MPFR2CR+M2
বোহার কমিনিটি ক্লিনিক,24.774194,89.0797509,5,1,"['hospital', 'health', 'point_of_interest', 'establishment']",Raninagar Upazila,ChIJDaDKSaNn_DkRxw31fqSQFKk,"Q3FH+MW Kundagram, Bangladesh",7MPFQ3FH+MW
Boha Hospital,24.7741496,89.0798086,not found,not found,"['hospital', 'health', 'point_of_interest', 'establishment']",Unnamed Road,ChIJ7c0paWNn_DkRfYVCT0uqvJI,"Q3FH+MW Kundagram, Bangladesh",7MPFQ3FH+MW
Dr. Sumon chember Rampura,24.7897912,89.0276372,not found,not found,"['hospital', 'health', 'point_of_interest', 'establishment']",Adamdighi Upazila,ChIJSVqxPgpn_DkRKwpgoFqGH78,"Q2QH+W3 Santahar, Bangladesh",7MPFQ2QH+W3
ভান্ডারগ্রাম সরকারি স্বাস্থ্য কেন্দ্র,24.7595076,89.0770844,not found,not found,"['hospital', 'health', 'point_of_interest', 'establishment']",Bhatohali - Bogarbari Bazar Road,ChIJ-2SYwINn_DkRAOJ3ftJGNPw,"Q35G+RR Champapur, Bangladesh",7MPFQ35G+RR
Khan Pharmacy,24.8148881,89.0107988,5,1,"['hospital', 'health', 'point_of_interest', 'establishment']","Bogra - Naogaon Highway, Chhatiangram",ChIJHXK9CCtj_DkRJmWlmv3PBxQ,"R276+X8 Chhatiangram, Bangladesh",7MPFR276+X8
"সোহাগ হোমিও হল Shohag Homeo Hall, Dhaka Road (East), SANTAHAR, BOGRA",24.8146514,89.0094931,4.4,5,"['drugstore', 'pharmacy', 'hospital', 'health', 'point_of_interest', 'store', 'establishment']","Purbo Dhaka Road, Santahar, Chhatiangram",ChIJo5YgXvpj_DkR2G5fW_DIUlo,"R275+VQ Chhatiangram, Bangladesh",7MPFR275+VQ
দেওড়া কমিউনিটি ক্লিনিক,24.8805773,89.0616231,not found,not found,"['hospital', 'health', 'point_of_interest', 'establishment']",Akkelpur Upazila,ChIJG6A7iDZg_DkR6cXE9NdhM0w,"V3J6+6J Punduria, Bangladesh",7MPFV3J6+6J
Protiva clinic and diagnostic center,24.8140869,89.0023845,not found,not found,"['hospital', 'health', 'point_of_interest', 'establishment']",Chhatiangram,ChIJFyqBWENj_DkR_-BUWXjb3-w,"R272+JX Chhatiangram, Bangladesh",7MPFR272+JX
Bappy Veterinary Store,24.8468669,88.9930008,not found,not found,"['hospital', 'health', 'point_of_interest', 'establishment']",Chhatiangram,ChIJWZCBL_xj_DkRx7YOSVinaVQ,"RXWV+P6 Chhatiangram, Bangladesh",7MPCRXWV+P6
ছাতিয়ানগ্রাম ইউনিয়ন স্বাস্থ্য সেবা কেন্দ্র,24.8456015,88.9915323,3,1,"['hospital', 'health', 'point_of_interest', 'establishment']",Chhatiangram,ChIJg2TOoLFj_DkRkcwE_B07-dE,"RXWR+6J Chhatiangram, Bangladesh",7MPCRXWR+6J
Santahar Railway Hospital,24.8039447,88.9851487,3.7,6,"['hospital', 'health', 'point_of_interest', 'establishment']",Santahar Pouroshova,ChIJZ5ULOnlk_DkR5Yy6geaAFUw,"RX3P+H3 Santahar Pouroshova, Bangladesh",7MPCRX3P+H3
মন্ডল মেডিকেলএ্যান্ড কনসালটেশন সেন্টার,24.7762308,88.9940276,not found,not found,"['hospital', 'health', 'point_of_interest', 'establishment']","আদমদিঘী উপজেলা, Santahar Rd,Natore baipas",ChIJ6yEw0-1l_DkR-_nCrZO7ezc,"QXGV+FJ Santahar, Bangladesh",7MPCQXGV+FJ
LABAID Diagnostic Naogaon,24.8164632,88.9392029,4.3,6,"['pharmacy', 'hospital', 'doctor', 'health', 'point_of_interest', 'store', 'establishment']","Ukil Para, Khan Mansion, House-04, Kazir Moar, Main Road, নওগাঁ",ChIJO1pYd618_DkR0yuueIhx8pA,"RW8Q+HM Naogaon, Bangladesh",7MPCRW8Q+HM
Komarvog Community Clinic,24.8480549,89.0288687,not found,not found,"['hospital', 'health', 'point_of_interest', 'establishment']","Shalgram Road, Chhatiangram",ChIJKd2CNndh_DkRK2DteYhj44Y,"R2XH+6G Chhatiangram, Bangladesh",7MPFR2XH+6G
Doctor Samraat Chamber,24.8766153,89.0010763,not found,not found,"['hospital', 'health', 'point_of_interest', 'establishment']",Tilakpur,ChIJjU4C0z9i_DkRJEP00sIvFlI,"V2G2+JC Tilakpur, Bangladesh",7MPFV2G2+JC
মন্ডল মেডিকেলএ্যান্ড কনসালটেশন সেন্টার,24.7762308,88.9940276,not found,not found,"['hospital', 'health', 'point_of_interest', 'establishment']","আদমদিঘী উপজেলা, Santahar Rd,Natore baipas",ChIJ6yEw0-1l_DkR-_nCrZO7ezc,"QXGV+FJ Santahar, Bangladesh",7MPCQXGV+FJ
Santahar Railway Hospital,24.8039447,88.9851487,3.7,6,"['hospital', 'health', 'point_of_interest', 'establishment']",Santahar Pouroshova,ChIJZ5ULOnlk_DkR5Yy6geaAFUw,"RX3P+H3 Santahar Pouroshova, Bangladesh",7MPCRX3P+H3
পালশাকমিউনিটিক্লিনিক,24.7511083,89.0095678,not found,not found,"['hospital', 'health', 'point_of_interest', 'establishment']",পশ্চিম,ChIJuUayVOhl_DkRLA84ZDjaBVk,"Q225+CR Santahar, Bangladesh",7MPFQ225+CR
Santaher Clinic,24.8067261,88.9794074,not found,not found,"['hospital', 'health', 'point_of_interest', 'establishment']","New Shahapur, Bogra - Santahar Road, সান্তাহার পৌরসভা",ChIJFXlJSQdj_DkRXd8BowJ-DQw,"RX4H+MQ Santahar Pouroshova, Bangladesh",7MPCRX4H+MQ
Dr. Sumon chember Rampura,24.7897912,89.0276372,not found,not found,"['hospital', 'health', 'point_of_interest', 'establishment']",Adamdighi Upazila,ChIJSVqxPgpn_DkRKwpgoFqGH78,"Q2QH+W3 Santahar, Bangladesh",7MPFQ2QH+W3
Mukta Medical Hall,24.8087895,88.9840107,1,1,"['hospital', 'health', 'point_of_interest', 'establishment']",Santahar Pouroshova,ChIJpevZTJlj_DkR5oheyK-xAns,"RX5M+GJ Santahar Pouroshova, Bangladesh",7MPCRX5M+GJ
Protiva clinic and diagnostic center,24.8140869,89.0023845,not found,not found,"['hospital', 'health', 'point_of_interest', 'establishment']",Chhatiangram,ChIJFyqBWENj_DkR_-BUWXjb3-w,"R272+JX Chhatiangram, Bangladesh",7MPFR272+JX
"সোহাগ হোমিও হল Shohag Homeo Hall, Dhaka Road (East), SANTAHAR, BOGRA",24.8146514,89.0094931,4.4,5,"['drugstore', 'pharmacy', 'hospital', 'health', 'point_of_interest', 'store', 'establishment']","Purbo Dhaka Road, Santahar, Chhatiangram",ChIJo5YgXvpj_DkR2G5fW_DIUlo,"R275+VQ Chhatiangram, Bangladesh",7MPFR275+VQ
Khan Pharmacy,24.8148881,89.0107988,5,1,"['hospital', 'health', 'point_of_interest', 'establishment']","Bogra - Naogaon Highway, Chhatiangram",ChIJHXK9CCtj_DkRJmWlmv3PBxQ,"R276+X8 Chhatiangram, Bangladesh",7MPFR276+X8
মন্ডল মেডিকেল এ্যান্ড কনসালটেশন সেন্টার,24.7402168,88.9691905,not found,not found,"['hospital', 'health', 'point_of_interest', 'establishment']","Raninagar Railway, সান্তাহার",ChIJ1XSq5m1l_DkRfYrlAP8w8to,"PXR9+3M Santahar, Bangladesh",7MPCPXR9+3M
উদয়ণ মাদকাসক্তি নিরাময় ও পুনর্বাসন কেন্দ্র,24.8150541,88.9728045,5,1,"['hospital', 'health', 'point_of_interest', 'establishment']",Naogaon Sadar Upazila,ChIJHRUWdDVj_DkR0iAZi_atLT8,"RX8F+24 Santahar Pouroshova, Bangladesh",7MPCRX8F+24
Udayn Drugs healing and rehabilitation center,24.8150388,88.9727264,not found,not found,"['hospital', 'health', 'point_of_interest', 'establishment']",Naogaon Sadar Upazila,ChIJCXgcTTFj_DkRmXjhaDVmb64,"RX8F+23 Santahar Pouroshova, Bangladesh",7MPCRX8F+23
Naogaon digital sishu hospital,24.8085655,88.9607515,not found,not found,"['hospital', 'health', 'point_of_interest', 'establishment']",Sadar Hospital Road,ChIJxRa1mE1j_DkRQKpgAe2y9sI,"RX56+C8 Naogaon, Bangladesh",7MPCRX56+C8
বিপু ল্যাব এন্ড হসপিটাল,24.7414466,88.9619053,2,1,"['hospital', 'health', 'point_of_interest', 'establishment']",Raninagar,ChIJe5bmsyxl_DkRJ3ex-p0NrUc,"PXR6+HQ Raninagar, Bangladesh",7MPCPXR6+HQ
Bipu Lab & Hospital,24.7414275,88.961909,not found,not found,"['hospital', 'health', 'point_of_interest', 'establishment']","Hospital get, Raninagar",ChIJKdyQl7Jl_DkRBBLvRcHLwOo,"PXR6+HQ Raninagar, Bangladesh",7MPCPXR6+HQ
বিপু ল্যাব এন্ড হসপিটাল,24.7413449,88.9619154,not found,not found,"['hospital', 'health', 'point_of_interest', 'establishment']",Raninagar,ChIJyfP9IIJl_DkRg6AxnqA9cdE,"PXR6+GQ Raninagar, Bangladesh",7MPCPXR6+GQ
RANINAGAR HOSPITAL,24.7420024,88.9609451,4.8,11,"['hospital', 'health', 'point_of_interest', 'establishment']","Naogaon - Natore Highway, Raninagar",ChIJ6dpEIhZl_DkRa6WwKwAXSdU,"PXR6+R9 Raninagar, Bangladesh",7MPCPXR6+R9
Army Medical College,24.7549718,89.3967631,5,13,"['hospital', 'health', 'point_of_interest', 'establishment']","ঢাকা - বগুড়া মহাসড়ক, Aria Bazar",ChIJAaStnNRS_DkR35sGFi1nw6M,"Q93W+XP Aria Bazar, Bangladesh",7MPFQ93W+XP
গ্রামীণ জিসি আই হসপিটাল,24.804879,89.3818149,4.6,57,"['hospital', 'health', 'point_of_interest', 'establishment']","Banani, Betgari, Bogura",ChIJ4YmS5F5T_DkRE-GJyTEkyk4,"R93J+XP Bogura, Bangladesh",7MPFR93J+XP
Hamdard Unani Medical College O Hospital,24.8087992,89.3830483,4.1,10,"['hospital', 'health', 'point_of_interest', 'establishment']","Near At Batgari Mor, Dhaka - Rangpur Highway, Bogura",ChIJpWOYkKBU_DkRM3tVU1tRqpg,"R95M+G6 Bogura, Bangladesh",7MPFR95M+G6
Matin Specialized Hospital,24.8327328,89.3755244,5,4,"['hospital', 'health', 'point_of_interest', 'establishment']","01 Sherpur Road, Bogura",ChIJVf3MWutU_DkRHSQKp-m48G4,"R9MG+36 Bogura, Bangladesh",7MPFR9MG+36
IBN SINA Diagnostic & Consultation Center,24.8393659,89.3739922,4.4,54,"['hospital', 'health', 'point_of_interest', 'establishment']","01 Sherpur Road, Bogura",ChIJN2pOwe5U_DkRbPmJLGip-HY,"R9QF+PH Bogura, Bangladesh",7MPFR9QF+PH
Saic General Hospital,24.8442479,89.3729661,3.4,5,"['hospital', 'health', 'point_of_interest', 'establishment']","Sherpur Road, Bogura",ChIJlUm_0ZRU_DkRk_-Zejqz100,"R9VF+M5 Bogura, Bangladesh",7MPFR9VF+M5
Bogra Autism Care Center,24.8449151,89.3676478,5,2,"['hospital', 'health', 'point_of_interest', 'establishment']","Abdul Bari Road, Bogura",ChIJya1GYPpU_DkRRQ6WvgLYuZg,"R9V9+X3 Bogura, Bangladesh",7MPFR9V9+X3
"Disabled service and support centers, Bogra",24.8546238,89.3769644,not found,not found,"['hospital', 'health', 'point_of_interest', 'establishment']","Dottobari Road, Bogura",ChIJ_yzozeFU_DkRkY2o4woF1Xc,"V93G+RQ Bogura, Bangladesh",7MPFV93G+RQ
Astha De-Addiction Center,24.8576632,89.3964921,4.8,17,"['hospital', 'health', 'point_of_interest', 'establishment']",Bogura,ChIJO7UCQumq_TkRDa6JdwOlO_M,"V95W+3H Bogura, Bangladesh",7MPFV95W+3H
"Astha de-addiction Center (আস্থা মাদকাসক্তি নিরাময় কেন্দ্র,বগুড়া)",24.8576789,89.3965238,5,16,"['hospital', 'health', 'point_of_interest', 'establishment']","Z5032, Bogura",ChIJOSS78CpV_DkROtnNf8rNkps,"V95W+3J Bogura, Bangladesh",7MPFV95W+3J
Max Care Clinick,24.7599552,89.3965244,5,1,"['hospital', 'health', 'point_of_interest', 'establishment']","Dhaka - Rangpur Highway, Majhira",ChIJr-k4etVS_DkRpjuOwszSeuQ,"Q95W+XJ Majhira, Bangladesh",7MPFQ95W+XJ
CMH Combined Military Hospital Bogra,24.7562627,89.3934788,4.2,30,"['hospital', 'health', 'point_of_interest', 'establishment']","Shahjahanpur, Majhira",ChIJ3dXTmNZS_DkRIjYuUm7Mx1k,"Q94V+G9 Majhira, Bangladesh",7MPFQ94V+G9
Rozina Clinic,24.7553323,89.3968463,not found,not found,"['hospital', 'health', 'point_of_interest', 'establishment']","Dhaka - Rangpur Highway, Aria Bazar",ChIJgbGQmtRS_DkR0h2ZvL2atVQ,"Q94W+4P Aria Bazar, Bangladesh",7MPFQ94W+4P
Janoni Care Hospital and Diagnostic Centre,24.7550595,89.3977046,5,1,"['hospital', 'health', 'point_of_interest', 'establishment']","B-Block - Kamarpara Road, Majhira",ChIJgdMZpNRS_DkR6At6tm6-XvE,"Q94X+23 Aria Bazar, Bangladesh",7MPFQ94X+23
Karotoa General Hospital,24.7524502,89.397309,not found,not found,"['hospital', 'health', 'point_of_interest', 'establishment']",Majhira,ChIJtX36F9NS_DkRTho5S_jlrms,"Q92W+XW Aria Bazar, Bangladesh",7MPFQ92W+XW
21 Field Ambulance,24.768709,89.3954393,3.7,3,"['hospital', 'health', 'point_of_interest', 'establishment']",Majhira,ChIJ2aSDRSxT_DkR-faJAiK2RLg,"Q99W+F5 Majhira, Bangladesh",7MPFQ99W+F5
বসুন্ধরা হাসপাতাল,24.7463533,89.3974236,not found,not found,"['hospital', 'health', 'point_of_interest', 'establishment']","C-Block, Majhira Cantt, Aria Bazar",ChIJq3si9uhT_DkRIx6-R9zsrts,"P9WW+GX Aria Bazar, Bangladesh",7MPFP9WW+GX
Army Medical College Bogura New Parmenent Campus,24.7457869,89.3928009,not found,not found,"['hospital', 'health', 'point_of_interest', 'establishment']","B-Block - Firing Range Road, Aria Bazar",ChIJX6ma9phT_DkR4ZHdc0l5ihs,"P9WV+84 Aria Bazar, Bangladesh",7MPFP9WV+84
Army Medical College Bogra Permanent Campus,24.7441931,89.3910414,4.5,4,"['hospital', 'health', 'point_of_interest', 'establishment']","B-Block - Firing Range Road, Aria Bazar",ChIJb0pyIs9S_DkR2uFKEIeuTqM,"P9VR+MC Majhira, Bangladesh",7MPFP9VR+MC
Upazilla Health Complex,24.7454075,89.3778978,not found,not found,"['hospital', 'health', 'point_of_interest', 'establishment']","Firing Range Road, Majhira",ChIJ9_BDsulS_DkRGDgZD-clqJA,"P9WH+55 Majhira, Bangladesh",7MPFP9WH+55
Saic General Hospital,24.8442479,89.3729661,3.4,5,"['hospital', 'health', 'point_of_interest', 'establishment']","Sherpur Road, Bogura",ChIJlUm_0ZRU_DkRk_-Zejqz100,"R9VF+M5 Bogura, Bangladesh",7MPFR9VF+M5
Bogra Autism Care Center,24.8449151,89.3676478,5,2,"['hospital', 'health', 'point_of_interest', 'establishment']","Abdul Bari Road, Bogura",ChIJya1GYPpU_DkRRQ6WvgLYuZg,"R9V9+X3 Bogura, Bangladesh",7MPFR9V9+X3
"Disabled service and support centers, Bogra",24.8546238,89.3769644,not found,not found,"['hospital', 'health', 'point_of_interest', 'establishment']","Dottobari Road, Bogura",ChIJ_yzozeFU_DkRkY2o4woF1Xc,"V93G+RQ Bogura, Bangladesh",7MPFV93G+RQ
IBN SINA Diagnostic & Consultation Center,24.8393659,89.3739922,4.4,54,"['hospital', 'health', 'point_of_interest', 'establishment']","01 Sherpur Road, Bogura",ChIJN2pOwe5U_DkRbPmJLGip-HY,"R9QF+PH Bogura, Bangladesh",7MPFR9QF+PH
Matin Specialized Hospital,24.8327328,89.3755244,5,4,"['hospital', 'health', 'point_of_interest', 'establishment']","01 Sherpur Road, Bogura",ChIJVf3MWutU_DkRHSQKp-m48G4,"R9MG+36 Bogura, Bangladesh",7MPFR9MG+36
Astha De-Addiction Center,24.8576632,89.3964921,4.8,17,"['hospital', 'health', 'point_of_interest', 'establishment']",Bogura,ChIJO7UCQumq_TkRDa6JdwOlO_M,"V95W+3H Bogura, Bangladesh",7MPFV95W+3H
"Astha de-addiction Center (আস্থা মাদকাসক্তি নিরাময় কেন্দ্র,বগুড়া)",24.8576789,89.3965238,5,16,"['hospital', 'health', 'point_of_interest', 'establishment']","Z5032, Bogura",ChIJOSS78CpV_DkROtnNf8rNkps,"V95W+3J Bogura, Bangladesh",7MPFV95W+3J
Hamdard Unani Medical College O Hospital,24.8087992,89.3830483,4.1,10,"['hospital', 'health', 'point_of_interest', 'establishment']","Near At Batgari Mor, Dhaka - Rangpur Highway, Bogura",ChIJpWOYkKBU_DkRM3tVU1tRqpg,"R95M+G6 Bogura, Bangladesh",7MPFR95M+G6
গ্রামীণ জিসি আই হসপিটাল,24.804879,89.3818149,4.6,57,"['hospital', 'health', 'point_of_interest', 'establishment']","Banani, Betgari, Bogura",ChIJ4YmS5F5T_DkRE-GJyTEkyk4,"R93J+XP Bogura, Bangladesh",7MPFR93J+XP
Army Medical College,24.7549718,89.3967631,5,13,"['hospital', 'health', 'point_of_interest', 'establishment']","ঢাকা - বগুড়া মহাসড়ক, Aria Bazar",ChIJAaStnNRS_DkR35sGFi1nw6M,"Q93W+XP Aria Bazar, Bangladesh",7MPFQ93W+XP
Rqkibul,24.848078,89.3729633,not found,not found,"['hospital', 'health', 'point_of_interest', 'establishment']",Bogura,ChIJq75qbXBV_DkRUjL037VS9_w,"R9XF+65 Bogura, Bangladesh",7MPFR9XF+65
Jangalpara Community Clinic,24.848078,89.3729633,not found,not found,"['hospital', 'health', 'point_of_interest', 'establishment']","Jangalprara, Kahaloo",ChIJ3e5IiTBV_DkR6PqXGyj8j3Y,"R9XF+65 Bogura, Bangladesh",7MPFR9XF+65
Health Ways Hospital,24.8467248,89.3718588,4.5,2,"['hospital', 'health', 'point_of_interest', 'establishment']","Gohail Road, Bogura",ChIJ27cp4-RU_DkRSb5swELv5To,"R9WC+MP Bogura, Bangladesh",7MPFR9WC+MP
দেশ হসপিটাল,24.8460052,89.3719751,not found,not found,"['hospital', 'health', 'point_of_interest', 'establishment']","Near At Bogura Edwa rd Paura Park, Brahma Shomaj Lane, Bogura",ChIJGfOdBOVU_DkRxHVQX3ZRwTM,"R9WC+CQ Bogura, Bangladesh",7MPFR9WC+CQ
Bogura Unani Medical Center,24.8457414,89.3729478,5,1,"['hospital', 'health', 'point_of_interest', 'establishment']","Sherpur Road, Bogura",ChIJOQqDzRRV_DkRfca-c7IaLBA,"R9WF+75 Bogura, Bangladesh",7MPFR9WF+75
Desh Hospital,24.8454365,89.3721892,3,2,"['hospital', 'health', 'point_of_interest', 'establishment']","Sutrapur, Bogura",ChIJQ_FGBOVU_DkREjJS3NsDnyY,"R9WC+5V Bogura, Bangladesh",7MPFR9WC+5V
Bogura Swasthoseba Hospital,24.8498744,89.3756155,3.7,6,"['hospital', 'health', 'point_of_interest', 'establishment']","Nawabbari Road, Bogura",ChIJxzIbTOFU_DkR6jdh9dwjkXY,"R9XG+W6 Bogura, Bangladesh",7MPFR9XG+W6
সারা হসপিটাল এন্ড ডায়াগনোষ্টিক সেন্টার,24.8508891,89.3710209,4,1,"['hospital', 'health', 'point_of_interest', 'establishment']","Badurtola, Bogura",ChIJWe34zRpV_DkRswnt2gDH2mw,"V92C+9C Bogura, Bangladesh",7MPFV92C+9C
Al Arafah Hospital,24.8442479,89.3729661,3.7,3,"['hospital', 'health', 'point_of_interest', 'establishment']","Sherpur Road, Bogura",ChIJ4bKuP-tU_DkRiYjc8MwUIX4,"R9VF+M5 Bogura, Bangladesh",7MPFR9VF+M5
Al Mamun,24.8510402,89.3697225,5,1,"['hospital', 'health', 'point_of_interest', 'establishment']",Bogra Sadar Upazila,ChIJK2sqWGhV_DkRtMiJ-pSbQNA,"V929+CV Bogura, Bangladesh",7MPFV929+CV
Dhunat upazila govt hospital,24.6927719,89.536053,5,1,"['hospital', 'health', 'point_of_interest', 'establishment']","Z5072, Dhunat Pouroshobha",ChIJUfF9eBOw_TkRFWrjpkaNevk,"MGVP+4C Dhunat, Bangladesh",7MPFMGVP+4C
Muzahid Pharmacy মুজাহিদ ফার্মেসী,24.6824056,89.5415104,not found,not found,"['hospital', 'health', 'point_of_interest', 'establishment']",Dhunat Pouroshobha,ChIJQ9V15TKx_TkROKb5u8bamcc,"MGJR+XJ Dhunat, Bangladesh",7MPFMGJR+XJ
Dhunat Hospital,24.6867678,89.5374199,5,1,"['hospital', 'health', 'point_of_interest', 'establishment']",Dhunat Pouroshobha,ChIJfZWSV2yw_TkRsumh4cQVNPk,"MGPP+PX Dhunat, Bangladesh",7MPFMGPP+PX
Belkuchi Community Hospital,24.6663351,89.5361793,2.5,2,"['hospital', 'health', 'point_of_interest', 'establishment']","Belkuchi Road, Belkuchi",ChIJVwskBmKw_TkROyPjaPoM_xM,"MG8P+GF Dhunat, Bangladesh",7MPFMG8P+GF
Dhunat Hospital,24.6915776,89.5361549,4,1,"['hospital', 'health', 'point_of_interest', 'establishment']","Thana Road, Dhunat Pouroshobha",ChIJp2BJTZax_TkRub6HgMH_Rcw,"MGRP+JF Dhunat, Bangladesh",7MPFMGRP+JF
"Union sub centre,sonamukhe",24.6506736,89.5670921,4.6,5,"['hospital', 'health', 'point_of_interest', 'establishment']",Sonamukhi Bridge,ChIJqxO_sGm6_TkRQNfZxShgo5Q,"MH28+7R Shonamukhi, Bangladesh",7MPFMH28+7R
Kaler Para Sub Helth Complex,24.7153614,89.5441596,5,1,"['hospital', 'health', 'point_of_interest', 'establishment']",Kaler Para,ChIJAQAAANCv_TkRGeyOFO7crrA,"PG8V+4M Kaler Para, Bangladesh",7MPFPG8V+4M
"Faruk al nasir welfare hospital,sonamukhi,kazipur",24.6517877,89.5702271,4.6,5,"['hospital', 'health', 'point_of_interest', 'establishment']",Kazipur Upazila,ChIJu1IxMmi6_TkRmWPHJl0ZdcE,"MH2C+P3 Chaukibari, Bangladesh",7MPFMH2C+P3
FARUK AL NASIR WELFARE HOSPITAL AND DIAGNOSTIC CENTRE,24.651586,89.5702959,5,4,"['hospital', 'health', 'point_of_interest', 'establishment']",Kazipur Upazila,ChIJIeomgUK6_TkRYlwLlecOa_M,"MH2C+J4 Chaukibari, Bangladesh",7MPFMH2C+J4
Kaler Para Helth Complex,24.7285117,89.535308,5,1,"['hospital', 'health', 'point_of_interest', 'establishment']",Kaler Para,ChIJ0c2KKemv_TkRjcvmCnp3jjI,"PGHP+C4 Kaler Para, Bangladesh",7MPFPGHP+C4
Chaukibari Union Helth Complex,24.6274276,89.5299783,5,4,"['hospital', 'health', 'point_of_interest', 'establishment']","Dhunat-Mathurapur Road, Dhunat",ChIJy_VQy8mw_TkRFfHYeBUoyp8,"JGGH+XX Chaukibari, Bangladesh",7MPFJGGH+XX
Coukibari Union Helth Complex,24.6274116,89.5299667,not found,not found,"['hospital', 'health', 'point_of_interest', 'establishment']","Dhunat-Mathurapur Road, Dhunat",ChIJyS9Fy8mw_TkRmW7pFsRtGdY,"JGGH+XX Chaukibari, Bangladesh",7MPFJGGH+XX
"Union Sub Centre,Chalitadanga Bazar",24.6596695,89.5969782,4,2,"['hospital', 'health', 'point_of_interest', 'establishment']",Kazipur Upazila,ChIJt6xq-KW7_TkR9Ro7bm-YwBI,"MH5W+VQ Kazipur, Bangladesh",7MPFMH5W+VQ
চরভানুডাংগা ঈদগা মাঠ,24.6254702,89.568624,not found,not found,"['hospital', 'health', 'point_of_interest', 'establishment']",চরভানুডাংগা কাজিপুর,ChIJ-UKKaCu7_TkRd0ZwV5tsI0A,"JHG9+5C Chaukibari, Bangladesh",7MPFJHG9+5C
"পরিবার পরিকল্পনা অফিস, চালিতাডাঙ্গা",24.6619871,89.6037502,not found,not found,"['hospital', 'health', 'point_of_interest', 'establishment']",Unnamed Road,ChIJ3WInhxe7_TkRbiS57Dm7GAA,"MJ63+QG Kazipur, Bangladesh",7MPFMJ63+QG
Government Hospital,24.6615943,89.6037616,not found,not found,"['hospital', 'health', 'point_of_interest', 'establishment']",Kazipur Upazila,ChIJDTJuGfK7_TkRmXylrgCRySc,"MJ63+JG Kazipur, Bangladesh",7MPFMJ63+JG
Chikashi Hospital,24.7382168,89.5663522,not found,not found,"['hospital', 'health', 'point_of_interest', 'establishment']",Dhunat Upazila,ChIJcw-BxP-l_TkRf17XIu6qm3g,"PHQ8+7G Chikashi, Bangladesh",7MPFPHQ8+7G
mohishura jame masque,24.610584,89.541898,not found,not found,"['hospital', 'health', 'point_of_interest', 'establishment']",Dhunat Upazila,ChIJax9-8FS3_TkRok59lM3n87E,"JG6R+6Q Chaukibari, Bangladesh",7MPFJG6R+6Q
CC,24.74849,89.547901,not found,not found,"['hospital', 'health', 'point_of_interest', 'establishment']","ধুনট উপজেলা, BORO CHAPRA",ChIJhdtEcA-v_TkRGHS3cw5HG6o,"PGXX+95 Chikashi, Bangladesh",7MPFPGXX+95
Joylajuan Bottola Bazar,24.6195189,89.4934538,5,4,"['hospital', 'health', 'point_of_interest', 'establishment']",Sherpur Upazila,ChIJcZ2BpNGx_TkR2pr7DuE-neA,"JF9V+R9 Chaukibari, Bangladesh",7MPFJF9V+R9
Army Medical College,24.7549718,89.3967631,5,13,"['hospital', 'health', 'point_of_interest', 'establishment']","ঢাকা - বগুড়া মহাসড়ক, Aria Bazar",ChIJAaStnNRS_DkR35sGFi1nw6M,"Q93W+XP Aria Bazar, Bangladesh",7MPFQ93W+XP
ABC Eye Hospital,24.6812983,89.4091777,4.8,8,"['hospital', 'health', 'point_of_interest', 'establishment']","Hazipur Road, Sherpur",ChIJ6dO-uMWy_TkRquFStRr8MDw,"MCJ5+GM Hazipur, Bangladesh",7MPFMCJ5+GM
ARHC Hospital/TS Turzo house,24.6792666,89.4106771,4.7,3,"['hospital', 'health', 'point_of_interest', 'establishment']","Thana Road, Sherpur",ChIJSdrL5sSy_TkRcTscQOkUCKI,"MCH6+P7 Sherpur, Bangladesh",7MPFMCH6+P7
Chardhunat cominiwti senter,24.6705368,89.4123676,not found,not found,"['hospital', 'health', 'point_of_interest', 'establishment']","Town Colony Road, Sherpur",ChIJ4RBl8gSz_TkR1AoRwof3_vs,"MCC6+6W Sherpur, Bangladesh",7MPFMCC6+6W
শেরপুর উপজেলা প্রাণিসম্পদ অফিসারের কার্যালয়,24.6728395,89.4147011,5,1,"['hospital', 'health', 'point_of_interest', 'establishment']",Sherpoor,ChIJU8vfiWez_TkR_wmzq-AB8L0,"MCF7+4V Sherpur, Bangladesh",7MPFMCF7+4V
Upazila Health Complex,24.666033,89.4155168,4.2,13,"['hospital', 'health', 'point_of_interest', 'establishment']",Sherpur,ChIJK0vHid-y_TkRluaaZt-dGcs,"MC88+C6 Sherpur, Bangladesh",7MPFMC88+C6
Seba Nursing Home,24.6738988,89.4171023,3.6,7,"['hospital', 'health', 'point_of_interest', 'establishment']",Sherpur,ChIJuY7shd2y_TkRwWtDEUzSyOw,"MCF8+HR Sherpur, Bangladesh",7MPFMCF8+HR
Sherpur Government Hospital,24.6658164,89.4156861,4.7,6,"['hospital', 'health', 'point_of_interest', 'establishment']","Hospital Road, Sherpur",ChIJQzHWh9-y_TkRBZ2sMSi79IY,"MC88+87 Sherpur, Bangladesh",7MPFMC88+87
Vision lab and Hospital,24.6657728,89.415959,not found,not found,"['hospital', 'health', 'point_of_interest', 'establishment']","Hospital Road, Sherpur",ChIJadNvebKz_TkRW_Zm1IfJ1Zc,"MC88+89 Sherpur, Bangladesh",7MPFMC88+89
AL-RAZI CLINIC,24.665863,89.4163262,5,3,"['hospital', 'health', 'point_of_interest', 'establishment']","Malek Road, Sherpur",ChIJoc7f9N-y_TkR-g9IgltxeuU,"MC88+8G Sherpur, Bangladesh",7MPFMC88+8G
Life Line General Hospital,24.6657725,89.4163781,1,1,"['hospital', 'health', 'point_of_interest', 'establishment']","Hospital Road, Sherpur",ChIJA6IT9d-y_TkRF9z8aFmh57U,"MC88+8H Sherpur, Bangladesh",7MPFMC88+8H
Orbit Hospital,24.665775,89.4165015,not found,not found,"['hospital', 'health', 'point_of_interest', 'establishment']","Hospital Road, Sherpur",ChIJGY5vdCCz_TkRQbkIF3Aat7M,"MC88+8J Sherpur, Bangladesh",7MPFMC88+8J
sejoan diagonostic clinic,24.6655206,89.4164335,not found,not found,"['hospital', 'health', 'point_of_interest', 'establishment']","Hospital Road, Sherpur",ChIJE2edDbiz_TkRRzV5RAstLjw,"MC88+6H Sherpur, Bangladesh",7MPFMC88+6H
শেরপুর মডেল ক্লিনিক,24.6658829,89.4171412,not found,not found,"['hospital', 'health', 'point_of_interest', 'establishment']","Hospital Road, Sherpur",ChIJqQ9lKdKz_TkRg7Rr8aJ50ts,"MC88+9V Sherpur, Bangladesh",7MPFMC88+9V
SATOTA HOSPITAL,24.6659118,89.4173669,not found,not found,"['hospital', 'health', 'point_of_interest', 'establishment']","Hospital Road, Sherpur",ChIJey-ZGQ2z_TkRRYLxmqd05ek,"MC88+9W Sherpur, Bangladesh",7MPFMC88+9W
আমিনা জেনারেল হাসপাতাল,24.6692044,89.418532,not found,not found,"['hospital', 'health', 'point_of_interest', 'establishment']","Bus Stand Road, Sherpur",ChIJ6b0CjeCy_TkRfawCZbLvpas,"MC99+MC Sherpur, Bangladesh",7MPFMC99+MC
এ্যডভান্স ক্লিনিক এন্ড ডায়াগনস্টিক সেন্টার,24.6658895,89.417682,5,1,"['hospital', 'health', 'point_of_interest', 'establishment']",Sherpoor,ChIJNwBDIiaz_TkR8AeKvablGb8,"MC89+93 Sherpur, Bangladesh",7MPFMC89+93
Burmon Health Care,24.6704951,89.4195633,4.5,4,"['hospital', 'health', 'point_of_interest', 'establishment']","Registry Office Road, Sherpur",ChIJZweg1-Cy_TkRNjQH9QVAA7E,"MCC9+5R Sherpur, Bangladesh",7MPFMCC9+5R
Meri clinic,24.6662871,89.4187338,not found,not found,"['hospital', 'health', 'point_of_interest', 'establishment']",Sherpoor,ChIJZTdLVoez_TkRxCM6ZQLrJVw,"MC89+GF Sherpur, Bangladesh",7MPFMC89+GF
VIP General Hospital,24.6656366,89.4185075,5,1,"['hospital', 'health', 'point_of_interest', 'establishment']","Hospital Road, Sherpur",ChIJMw8t4B-z_TkRmDRYlL8qMT8,"MC89+7C Sherpur, Bangladesh",7MPFMC89+7C
paschim alohali community clinic,24.8812002,89.177742,5,1,"['hospital', 'health', 'point_of_interest', 'establishment']","paschim, Dupchanchia",ChIJ-59iySJZ_DkR3TkOlJg78x4,"V5JH+F3 Dupchanchia, Bangladesh",7MPFV5JH+F3
Anannya Clinic & Diagnostic Center,24.8772398,89.1752384,not found,not found,"['hospital', 'health', 'point_of_interest', 'establishment']","R545, Dupchanchia",ChIJPayxHcpY_DkR7ZrLCBd9_3U,"V5GG+V3 Dupchanchia, Bangladesh",7MPFV5GG+V3
পারফেক্ট ডেন্টাল কেয়ার,24.876789,89.1725365,4,1,"['hospital', 'health', 'point_of_interest', 'establishment']",Dupchanchia - Akkelpur Road,ChIJ8_OL9GhZ_DkRFkGVdNT1_Gc,"V5GF+P2 Dupchanchia, Bangladesh",7MPFV5GF+P2
Zenith Hospital,24.8777111,89.1717142,5,2,"['hospital', 'health', 'point_of_interest', 'establishment']",504/1769 Dupchanchia - Akkelpur Road,ChIJ33I5Gftf_DkRMDoS-AmY6xk,"V5HC+3M Dupchanchia, Bangladesh",7MPFV5HC+3M
Dupchanchia Upazila Health Complex,24.8761591,89.1723974,4.1,24,"['hospital', 'health', 'point_of_interest', 'establishment']",Dupchanchia,ChIJabUY8MpY_DkRxw2GNkdq7YI,"V5GC+FX Dupchanchia, Bangladesh",7MPFV5GC+FX
20 Bedded Govt. Mother & Child Welfare Centre (MCWC),24.8741874,89.1804403,5,2,"['hospital', 'health', 'point_of_interest', 'establishment']","হাই স্কুল রোড, Dupchanchia",ChIJS8LTajlZ_DkRmu-XPePyqNk,"V5FJ+M5 Dupchanchia, Bangladesh",7MPFV5FJ+M5
Mother and Children welfare center,24.8741397,89.1803245,3.6,5,"['hospital', 'health', 'point_of_interest', 'establishment']","হাই স্কুল রোড, Dupchanchia",ChIJ1y7WIMZY_DkRPpzritFFpFM,"V5FJ+M4 Dupchanchia, Bangladesh",7MPFV5FJ+M4
Nirmolondo Hospital,24.8740155,89.1734769,not found,not found,"['hospital', 'health', 'point_of_interest', 'establishment']","5880 Upazila Way, Dupchanchia",ChIJL9kTo8tY_DkRTtcfGWMt1cw,"V5FF+J9 Dupchanchia, Bangladesh",7MPFV5FF+J9
Upazila Livestock Office-Dupchanchia,24.8726217,89.1773658,not found,not found,"['hospital', 'health', 'point_of_interest', 'establishment']",Dupchanchia,ChIJZ2c4ZQhZ_DkR4bjH_HDPjhg,"V5FG+2W Dupchanchia, Bangladesh",7MPFV5FG+2W
Naobo Jagoron Diabetics Hospital,24.8744496,89.1713386,not found,not found,"['hospital', 'health', 'point_of_interest', 'establishment']","Kacha Bazar, দুপচাঁচিয়া",ChIJ2_bSZ8BZ_DkR80_LQtZGxhg,"V5FC+QG Dupchanchia, Bangladesh",7MPFV5FC+QG
সুপ্রিম ডিজিটাল ডায়াগনস্টিক এন্ড জেনারেল হাসপাতাল,24.8694322,89.1664388,4.7,3,"['hospital', 'doctor', 'health', 'point_of_interest', 'establishment']",R545,ChIJUfgbLTJf_DkRjnaNm3EZ7iw,"V598+QH Dupchanchia, Bangladesh",7MPFV598+QH
paschim alohali community clinic,24.8497717,89.1843035,not found,not found,"['hospital', 'health', 'point_of_interest', 'establishment']","Z5052, Dupchanchia",ChIJO3FZtyZZ_DkR1fedP8r3VeM,"R5XM+WP Gayabandha, Bangladesh",7MPFR5XM+WP
চামরুল ইউ পি হাসপাতাল,24.92171,89.15835,not found,not found,"['hospital', 'health', 'point_of_interest', 'establishment']",Unnamed Road,ChIJnzAlqBL1_DkRKYVFa7lVuus,"W5C5+M8 Beragram, Bangladesh",7MPFW5C5+M8
ডায়োবেটিস্ক হসপিটাল,24.8337317,89.1834078,not found,not found,"['hospital', 'health', 'point_of_interest', 'establishment']",5880,ChIJgyGGki9Z_DkRB7oEGG8YVoY,"R5MM+F9 Gayabandha, Bangladesh",7MPFR5MM+F9
Talora Swasthoseba kendro,24.8336845,89.1832887,not found,not found,"['hospital', 'health', 'point_of_interest', 'establishment']",5880,ChIJgYJ2pXJZ_DkR6TJ6JamEEtU,"R5MM+F8 Gayabandha, Bangladesh",7MPFR5MM+F8
হসপিটাল,24.8336864,89.1833854,not found,not found,"['hospital', 'health', 'point_of_interest', 'establishment']",5880,ChIJAW7d87VZ_DkRtbGxx_F6694,"R5MM+F9 Gayabandha, Bangladesh",7MPFR5MM+F9
ডায়োবেটিস হসপিটাল,24.8335364,89.1834326,not found,not found,"['hospital', 'health', 'point_of_interest', 'establishment']","দুপচাঁচিয়া উপজেলা, Unnamed Road",ChIJaxc7g89Z_DkRQsjqVXAw4e4,"R5MM+C9 Gayabandha, Bangladesh",7MPFR5MM+C9
Karim Diagnostic,24.8242445,89.1815581,3.7,3,"['hospital', 'health', 'point_of_interest', 'establishment']","Talora - Dupchanchia Road, Dupchanchia, Rajshahi",ChIJEx6O3EVZ_DkRgxeR9WAI-5U,"R5FJ+MJ Talora, Bangladesh",7MPFR5FJ+MJ
করিম ডায়াগনোস্টিক এন্ড হসপিটাল,24.8221962,89.1787938,not found,not found,"['hospital', 'health', 'point_of_interest', 'establishment']",Dhupchanchia Upazila,ChIJ9zR2oUhZ_DkR6FPig2fgiIU,"R5CH+VG Talora, Bangladesh",7MPFR5CH+VG
কালাই ইউনিয়ন স্বাস্থ্য ও পরিবার কল্যাণ কেন্দ্র(পিলকুঞ্জ),24.9021068,89.2418374,5,2,"['hospital', 'health', 'point_of_interest', 'establishment']",Tindighi-Pilkunju Road,ChIJ7RAAbB1Z_DkRSYhYGo1Bxbo,"W62R+RP Pilkunja, Bangladesh",7MPFW62R+RP
Karim Diagnostic,24.8242445,89.1815581,3.7,3,"['hospital', 'health', 'point_of_interest', 'establishment']","Talora - Dupchanchia Road, Dupchanchia, Rajshahi",ChIJEx6O3EVZ_DkRgxeR9WAI-5U,"R5FJ+MJ Talora, Bangladesh",7MPFR5FJ+MJ
করিম ডায়াগনোস্টিক এন্ড হসপিটাল,24.8221962,89.1787938,not found,not found,"['hospital', 'health', 'point_of_interest', 'establishment']",Dhupchanchia Upazila,ChIJ9zR2oUhZ_DkR6FPig2fgiIU,"R5CH+VG Talora, Bangladesh",7MPFR5CH+VG
ডায়োবেটিস হসপিটাল,24.8335364,89.1834326,not found,not found,"['hospital', 'health', 'point_of_interest', 'establishment']","দুপচাঁচিয়া উপজেলা, Unnamed Road",ChIJaxc7g89Z_DkRQsjqVXAw4e4,"R5MM+C9 Gayabandha, Bangladesh",7MPFR5MM+C9
Talora Swasthoseba kendro,24.8336845,89.1832887,not found,not found,"['hospital', 'health', 'point_of_interest', 'establishment']",5880,ChIJgYJ2pXJZ_DkR6TJ6JamEEtU,"R5MM+F8 Gayabandha, Bangladesh",7MPFR5MM+F8
হসপিটাল,24.8336864,89.1833854,not found,not found,"['hospital', 'health', 'point_of_interest', 'establishment']",5880,ChIJAW7d87VZ_DkRtbGxx_F6694,"R5MM+F9 Gayabandha, Bangladesh",7MPFR5MM+F9
ডায়োবেটিস্ক হসপিটাল,24.8337317,89.1834078,not found,not found,"['hospital', 'health', 'point_of_interest', 'establishment']",5880,ChIJgyGGki9Z_DkRB7oEGG8YVoY,"R5MM+F9 Gayabandha, Bangladesh",7MPFR5MM+F9
paschim alohali community clinic,24.8497717,89.1843035,not found,not found,"['hospital', 'health', 'point_of_interest', 'establishment']","Z5052, Dupchanchia",ChIJO3FZtyZZ_DkR1fedP8r3VeM,"R5XM+WP Gayabandha, Bangladesh",7MPFR5XM+WP
Hoque Pharmecy,24.7857824,89.1799863,not found,not found,"['hospital', 'health', 'point_of_interest', 'establishment']",Unnamed Road,ChIJzbtLgvJb_DkRnlU405xaXFs,"Q5PH+8X Nimaidighi, Bangladesh",7MPFQ5PH+8X
সুপ্রিম ডিজিটাল ডায়াগনস্টিক এন্ড জেনারেল হাসপাতাল,24.8694322,89.1664388,4.7,3,"['hospital', 'doctor', 'health', 'point_of_interest', 'establishment']",R545,ChIJUfgbLTJf_DkRjnaNm3EZ7iw,"V598+QH Dupchanchia, Bangladesh",7MPFV598+QH
Upazila Livestock Office-Dupchanchia,24.8726217,89.1773658,not found,not found,"['hospital', 'health', 'point_of_interest', 'establishment']",Dupchanchia,ChIJZ2c4ZQhZ_DkR4bjH_HDPjhg,"V5FG+2W Dupchanchia, Bangladesh",7MPFV5FG+2W
Mother and Children welfare center,24.8741397,89.1803245,3.6,5,"['hospital', 'health', 'point_of_interest', 'establishment']","হাই স্কুল রোড, Dupchanchia",ChIJ1y7WIMZY_DkRPpzritFFpFM,"V5FJ+M4 Dupchanchia, Bangladesh",7MPFV5FJ+M4
20 Bedded Govt. Mother & Child Welfare Centre (MCWC),24.8741874,89.1804403,5,2,"['hospital', 'health', 'point_of_interest', 'establishment']","হাই স্কুল রোড, Dupchanchia",ChIJS8LTajlZ_DkRmu-XPePyqNk,"V5FJ+M5 Dupchanchia, Bangladesh",7MPFV5FJ+M5
Nirmolondo Hospital,24.8740155,89.1734769,not found,not found,"['hospital', 'health', 'point_of_interest', 'establishment']","5880 Upazila Way, Dupchanchia",ChIJL9kTo8tY_DkRTtcfGWMt1cw,"V5FF+J9 Dupchanchia, Bangladesh",7MPFV5FF+J9
Naobo Jagoron Diabetics Hospital,24.8744496,89.1713386,not found,not found,"['hospital', 'health', 'point_of_interest', 'establishment']","Kacha Bazar, দুপচাঁচিয়া",ChIJ2_bSZ8BZ_DkR80_LQtZGxhg,"V5FC+QG Dupchanchia, Bangladesh",7MPFV5FC+QG
Dupchanchia Upazila Health Complex,24.8761591,89.1723974,4.1,24,"['hospital', 'health', 'point_of_interest', 'establishment']",Dupchanchia,ChIJabUY8MpY_DkRxw2GNkdq7YI,"V5GC+FX Dupchanchia, Bangladesh",7MPFV5GC+FX
পারফেক্ট ডেন্টাল কেয়ার,24.876789,89.1725365,4,1,"['hospital', 'health', 'point_of_interest', 'establishment']",Dupchanchia - Akkelpur Road,ChIJ8_OL9GhZ_DkRFkGVdNT1_Gc,"V5GF+P2 Dupchanchia, Bangladesh",7MPFV5GF+P2
Anannya Clinic & Diagnostic Center,24.8772398,89.1752384,not found,not found,"['hospital', 'health', 'point_of_interest', 'establishment']","R545, Dupchanchia",ChIJPayxHcpY_DkR7ZrLCBd9_3U,"V5GG+V3 Dupchanchia, Bangladesh",7MPFV5GG+V3
Zenith Hospital,24.8777111,89.1717142,5,2,"['hospital', 'health', 'point_of_interest', 'establishment']",504/1769 Dupchanchia - Akkelpur Road,ChIJ33I5Gftf_DkRMDoS-AmY6xk,"V5HC+3M Dupchanchia, Bangladesh",7MPFV5HC+3M
paschim alohali community clinic,24.8812002,89.177742,5,1,"['hospital', 'health', 'point_of_interest', 'establishment']","paschim, Dupchanchia",ChIJ-59iySJZ_DkR3TkOlJg78x4,"V5JH+F3 Dupchanchia, Bangladesh",7MPFV5JH+F3
Bisher Para Community Clinic,24.7577126,89.1575398,not found,not found,"['hospital', 'health', 'point_of_interest', 'establishment']",Bisher Para,ChIJtaMrpJ5d_DkRY2eSBGFeRNU,"Q555+32 Champapur, Bangladesh",7MPFQ555+32
Saic General Hospital,24.8442479,89.3729661,3.4,5,"['hospital', 'health', 'point_of_interest', 'establishment']","Sherpur Road, Bogura",ChIJlUm_0ZRU_DkRk_-Zejqz100,"R9VF+M5 Bogura, Bangladesh",7MPFR9VF+M5
Bogra Autism Care Center,24.8449151,89.3676478,5,2,"['hospital', 'health', 'point_of_interest', 'establishment']","Abdul Bari Road, Bogura",ChIJya1GYPpU_DkRRQ6WvgLYuZg,"R9V9+X3 Bogura, Bangladesh",7MPFR9V9+X3
"Disabled service and support centers, Bogra",24.8546238,89.3769644,not found,not found,"['hospital', 'health', 'point_of_interest', 'establishment']","Dottobari Road, Bogura",ChIJ_yzozeFU_DkRkY2o4woF1Xc,"V93G+RQ Bogura, Bangladesh",7MPFV93G+RQ
IBN SINA Diagnostic & Consultation Center,24.8393659,89.3739922,4.4,54,"['hospital', 'health', 'point_of_interest', 'establishment']","01 Sherpur Road, Bogura",ChIJN2pOwe5U_DkRbPmJLGip-HY,"R9QF+PH Bogura, Bangladesh",7MPFR9QF+PH
Matin Specialized Hospital,24.8327328,89.3755244,5,4,"['hospital', 'health', 'point_of_interest', 'establishment']","01 Sherpur Road, Bogura",ChIJVf3MWutU_DkRHSQKp-m48G4,"R9MG+36 Bogura, Bangladesh",7MPFR9MG+36
Astha De-Addiction Center,24.8576632,89.3964921,4.8,17,"['hospital', 'health', 'point_of_interest', 'establishment']",Bogura,ChIJO7UCQumq_TkRDa6JdwOlO_M,"V95W+3H Bogura, Bangladesh",7MPFV95W+3H
"Astha de-addiction Center (আস্থা মাদকাসক্তি নিরাময় কেন্দ্র,বগুড়া)",24.8576789,89.3965238,5,16,"['hospital', 'health', 'point_of_interest', 'establishment']","Z5032, Bogura",ChIJOSS78CpV_DkROtnNf8rNkps,"V95W+3J Bogura, Bangladesh",7MPFV95W+3J
Hamdard Unani Medical College O Hospital,24.8087992,89.3830483,4.1,10,"['hospital', 'health', 'point_of_interest', 'establishment']","Near At Batgari Mor, Dhaka - Rangpur Highway, Bogura",ChIJpWOYkKBU_DkRM3tVU1tRqpg,"R95M+G6 Bogura, Bangladesh",7MPFR95M+G6
গ্রামীণ জিসি আই হসপিটাল,24.804879,89.3818149,4.6,57,"['hospital', 'health', 'point_of_interest', 'establishment']","Banani, Betgari, Bogura",ChIJ4YmS5F5T_DkRE-GJyTEkyk4,"R93J+XP Bogura, Bangladesh",7MPFR93J+XP
Army Medical College,24.7549718,89.3967631,5,13,"['hospital', 'health', 'point_of_interest', 'establishment']","ঢাকা - বগুড়া মহাসড়ক, Aria Bazar",ChIJAaStnNRS_DkR35sGFi1nw6M,"Q93W+XP Aria Bazar, Bangladesh",7MPFQ93W+XP
Rqkibul,24.848078,89.3729633,not found,not found,"['hospital', 'health', 'point_of_interest', 'establishment']",Bogura,ChIJq75qbXBV_DkRUjL037VS9_w,"R9XF+65 Bogura, Bangladesh",7MPFR9XF+65
Jangalpara Community Clinic,24.848078,89.3729633,not found,not found,"['hospital', 'health', 'point_of_interest', 'establishment']","Jangalprara, Kahaloo",ChIJ3e5IiTBV_DkR6PqXGyj8j3Y,"R9XF+65 Bogura, Bangladesh",7MPFR9XF+65
Health Ways Hospital,24.8467248,89.3718588,4.5,2,"['hospital', 'health', 'point_of_interest', 'establishment']","Gohail Road, Bogura",ChIJ27cp4-RU_DkRSb5swELv5To,"R9WC+MP Bogura, Bangladesh",7MPFR9WC+MP
দেশ হসপিটাল,24.8460052,89.3719751,not found,not found,"['hospital', 'health', 'point_of_interest', 'establishment']","Near At Bogura Edwa rd Paura Park, Brahma Shomaj Lane, Bogura",ChIJGfOdBOVU_DkRxHVQX3ZRwTM,"R9WC+CQ Bogura, Bangladesh",7MPFR9WC+CQ
Bogura Unani Medical Center,24.8457414,89.3729478,5,1,"['hospital', 'health', 'point_of_interest', 'establishment']","Sherpur Road, Bogura",ChIJOQqDzRRV_DkRfca-c7IaLBA,"R9WF+75 Bogura, Bangladesh",7MPFR9WF+75
Desh Hospital,24.8454365,89.3721892,3,2,"['hospital', 'health', 'point_of_interest', 'establishment']","Sutrapur, Bogura",ChIJQ_FGBOVU_DkREjJS3NsDnyY,"R9WC+5V Bogura, Bangladesh",7MPFR9WC+5V
Bogura Swasthoseba Hospital,24.8498744,89.3756155,3.7,6,"['hospital', 'health', 'point_of_interest', 'establishment']","Nawabbari Road, Bogura",ChIJxzIbTOFU_DkR6jdh9dwjkXY,"R9XG+W6 Bogura, Bangladesh",7MPFR9XG+W6
সারা হসপিটাল এন্ড ডায়াগনোষ্টিক সেন্টার,24.8508891,89.3710209,4,1,"['hospital', 'health', 'point_of_interest', 'establishment']","Badurtola, Bogura",ChIJWe34zRpV_DkRswnt2gDH2mw,"V92C+9C Bogura, Bangladesh",7MPFV92C+9C
Al Arafah Hospital,24.8442479,89.3729661,3.7,3,"['hospital', 'health', 'point_of_interest', 'establishment']","Sherpur Road, Bogura",ChIJ4bKuP-tU_DkRiYjc8MwUIX4,"R9VF+M5 Bogura, Bangladesh",7MPFR9VF+M5
Al Mamun,24.8510402,89.3697225,5,1,"['hospital', 'health', 'point_of_interest', 'establishment']",Bogra Sadar Upazila,ChIJK2sqWGhV_DkRtMiJ-pSbQNA,"V929+CV Bogura, Bangladesh",7MPFV929+CV
"Astha de-addiction Center (আস্থা মাদকাসক্তি নিরাময় কেন্দ্র,বগুড়া)",24.8576789,89.3965238,5,16,"['hospital', 'health', 'point_of_interest', 'establishment']","Z5032, Bogura",ChIJOSS78CpV_DkROtnNf8rNkps,"V95W+3J Bogura, Bangladesh",7MPFV95W+3J
Astha De-Addiction Center,24.8576632,89.3964921,4.8,17,"['hospital', 'health', 'point_of_interest', 'establishment']",Bogura,ChIJO7UCQumq_TkRDa6JdwOlO_M,"V95W+3H Bogura, Bangladesh",7MPFV95W+3H
হ্যানিম্যান হোমিও ফার্মেসি,24.9268506,89.4808849,not found,not found,"['hospital', 'health', 'point_of_interest', 'establishment']",Gabtali Upazila,ChIJLwVOqlwH_TkRHd2kGlLsYTo,"WFGJ+P9 Sukhanpukur, Bangladesh",7MPFWFGJ+P9
Telihata Comunity Hospital,24.938535,89.4760107,not found,not found,"['hospital', 'health', 'point_of_interest', 'establishment']","গাবতলী উপজেলা, Telihata Bazar",ChIJLQNWgzIH_TkRYId88seEZw8,"WFQG+CC Telihata, Bangladesh",7MPFWFQG+CC
বিপ্লব ফার্মেসি,24.9135874,89.4760305,3,1,"['hospital', 'health', 'point_of_interest', 'establishment']","গাবতলী উপজেলা, ডঙর সরকারি প্রাথমিক বিদ্যালয়",ChIJk5mX8lIH_TkRnrJi6Bu-dJ8,"WF7G+CC Sukhanpukur, Bangladesh",7MPFWF7G+CC
রিফা ফার্মেসি,24.9134701,89.4758662,3,1,"['hospital', 'health', 'point_of_interest', 'establishment']",ডঙর সড়ক,ChIJ8_Ou7VIH_TkRFqRC0ylZyl0,"WF7G+98 Sukhanpukur, Bangladesh",7MPFWF7G+98
Health Care Center(Clinic & Diagnostic),24.9395939,89.4918143,5,1,"['hospital', 'health', 'point_of_interest', 'establishment']","সোনাতলা উপজেলা, Syed Ahmed College",ChIJ-TFVtVEH_TkRUoE9-hImdf8,"WFQR+RP Telihata, Bangladesh",7MPFWFQR+RP
Jesmin Medical,24.9399699,89.4919681,not found,not found,"['hospital', 'health', 'point_of_interest', 'establishment']","Bottala Bus Stand,, সোনাতলা",ChIJF0mYuCIH_TkRItbfJtJY-Z4,"WFQR+XQ Telihata, Bangladesh",7MPFWFQR+XQ
কদমতলী কমিউনিটি ক্লিনিক,24.9050654,89.5032916,5,1,"['hospital', 'health', 'point_of_interest', 'establishment']",Kadamtali,ChIJB7bNEHoH_TkRn8-PunDtYKI,"WG43+28 Dhananjoy, Bangladesh",7MPFWG43+28
শাহীন হাউজ,24.9616623,89.4690534,5,1,"['hospital', 'health', 'point_of_interest', 'establishment']",Sonatola Upazila,ChIJm5UyHfEB_TkRAulJNh2YPdE,"XF69+MJ Baragharia, Bangladesh",7MPFXF69+MJ
Health centre,24.9327113,89.4391435,5,1,"['hospital', 'health', 'point_of_interest', 'establishment']",Gabtali Upazila,ChIJO368KfQA_TkRufHPuMlrtOs,"WCMQ+3M Jaguli, Bangladesh",7MPFWCMQ+3M
Jatholida Community Clinic,24.912261,89.5194406,not found,not found,"['hospital', 'health', 'point_of_interest', 'establishment']",Gabtali Upazila,ChIJiZpXtZYH_TkRwvbYloflzWk,"WG69+WQ Jatholida, Bangladesh",7MPFWG69+WQ
Sonarai Union Health Care Center,24.9480762,89.4438852,5,4,"['hospital', 'health', 'point_of_interest', 'establishment']",Gabtali Upazila,ChIJYRh3BP0A_TkRvCmM4HWaXN0,"WCXV+6H Jaguli, Bangladesh",7MPFWCXV+6H
মাদারী পাড়া ও কাতলাহার জামে মসজিদ,24.961945,89.461813,not found,not found,"['hospital', 'health', 'point_of_interest', 'establishment']",Unnamed Road,ChIJazePp9IB_TkRlm73yZ6KZw8,"XF66+QP Jamirbaria, Bangladesh",7MPFXF66+QP
দিঘলকান্দী কমিউনিটি ক্লিনিক,24.9656745,89.4902844,not found,not found,"['hospital', 'health', 'point_of_interest', 'establishment']",Sonatola Upazila,ChIJzVCQxDIH_TkRgI-b7JXTkGU,"XF8R+74 Baragharia, Bangladesh",7MPFXF8R+74
baoitona community clinic,24.88544,89.4780117,5,2,"['hospital', 'health', 'point_of_interest', 'establishment']",Gabtali Upazila,ChIJ4wYGCFqp_TkR36t5Vi_hYTQ,"VFPH+56 Gabtali, Bangladesh",7MPFVFPH+56
Baoitona Community Clinic,24.8854082,89.4779836,4.5,2,"['hospital', 'health', 'point_of_interest', 'establishment']",Gabtali Upazila,ChIJdypAHvSp_TkRc0bxyGLWYX8,"VFPH+55 Gabtali, Bangladesh",7MPFVFPH+55
নেপালতলী সূর্যের হাসি ক্নিলিক,24.8784318,89.4911508,not found,not found,"['hospital', 'health', 'point_of_interest', 'establishment']",Gabtali Upazila,ChIJ4x-ynaip_TkRZKDxQdKtQho,"VFHR+9F Nepaltali, Bangladesh",7MPFVFHR+9F
Habib Medical Store,24.8798759,89.461222,not found,not found,"['hospital', 'health', 'point_of_interest', 'establishment']",Gabtali Upazila,ChIJPzH-IRaq_TkRMOlMpscQKWE,"VFH6+XF Gabtali, Bangladesh",7MPFVFH6+XF
Nepaltali Community Clinic,24.8748466,89.4954202,not found,not found,"['hospital', 'health', 'point_of_interest', 'establishment']",Gabtali Upazila,ChIJKxVAtrOp_TkRUgE9nOvAhLg,"VFFW+W5 Nepaltali, Bangladesh",7MPFVFFW+W5
Bogra Autism Care Center,24.8449151,89.3676478,5,2,"['hospital', 'health', 'point_of_interest', 'establishment']","Abdul Bari Road, Bogura",ChIJya1GYPpU_DkRRQ6WvgLYuZg,"R9V9+X3 Bogura, Bangladesh",7MPFR9V9+X3
Saic General Hospital,24.8442479,89.3729661,3.4,5,"['hospital', 'health', 'point_of_interest', 'establishment']","Sherpur Road, Bogura",ChIJlUm_0ZRU_DkRk_-Zejqz100,"R9VF+M5 Bogura, Bangladesh",7MPFR9VF+M5
IBN SINA Diagnostic & Consultation Center,24.8393659,89.3739922,4.4,54,"['hospital', 'health', 'point_of_interest', 'establishment']","01 Sherpur Road, Bogura",ChIJN2pOwe5U_DkRbPmJLGip-HY,"R9QF+PH Bogura, Bangladesh",7MPFR9QF+PH
Matin Specialized Hospital,24.8327328,89.3755244,5,4,"['hospital', 'health', 'point_of_interest', 'establishment']","01 Sherpur Road, Bogura",ChIJVf3MWutU_DkRHSQKp-m48G4,"R9MG+36 Bogura, Bangladesh",7MPFR9MG+36
"Disabled service and support centers, Bogra",24.8546238,89.3769644,not found,not found,"['hospital', 'health', 'point_of_interest', 'establishment']","Dottobari Road, Bogura",ChIJ_yzozeFU_DkRkY2o4woF1Xc,"V93G+RQ Bogura, Bangladesh",7MPFV93G+RQ
গ্রামীণ জিসি আই হসপিটাল,24.804879,89.3818149,4.6,57,"['hospital', 'health', 'point_of_interest', 'establishment']","Banani, Betgari, Bogura",ChIJ4YmS5F5T_DkRE-GJyTEkyk4,"R93J+XP Bogura, Bangladesh",7MPFR93J+XP
Hamdard Unani Medical College O Hospital,24.8087992,89.3830483,4.1,10,"['hospital', 'health', 'point_of_interest', 'establishment']","Near At Batgari Mor, Dhaka - Rangpur Highway, Bogura",ChIJpWOYkKBU_DkRM3tVU1tRqpg,"R95M+G6 Bogura, Bangladesh",7MPFR95M+G6
"Upazila Health Complex,Kahaloo,Bogura.",24.8319344,89.2693498,4,9,"['hospital', 'health', 'point_of_interest', 'establishment']","Kahaloo - Dorgahat Road, Kahaloo",ChIJOYwe8hVX_DkRLHcOmKrOqzw,"R7J9+QP Kahaloo, Bangladesh",7MPFR7J9+QP
Kahaloo Hospital.,24.8317628,89.2701273,not found,not found,"['hospital', 'health', 'point_of_interest', 'establishment']",Kahaloo,ChIJ_cSb-xVX_DkRiO1WG_X86_E,"R7JC+P3 Kahaloo, Bangladesh",7MPFR7JC+P3
ওসমানিয়া মেডিক্যাল ষ্টোর,24.8326479,89.2652779,not found,not found,"['hospital', 'health', 'point_of_interest', 'establishment']",Unnamed Road,ChIJ5a6Z7aVX_DkRxw8YRvIG8i0,"R7M8+34 Kahaloo, Bangladesh",7MPFR7M8+34
Livestock Office,24.8306251,89.2622232,5,1,"['hospital', 'health', 'point_of_interest', 'establishment']",Kahaloo,ChIJexV03UFX_DkRNlRWUhjXyYY,"R7J6+7V Kahaloo, Bangladesh",7MPFR7J6+7V
"ব্র্যাক হেলথ সেন্টার,কাহালু( BRAC Health Center,Kahaloo)",24.8378336,89.2682733,5,1,"['hospital', 'health', 'point_of_interest', 'establishment']",Kahaloo,ChIJQfMjgxNX_DkRR4m8Nugq_M0,"R7Q9+48 Kahaloo, Bangladesh",7MPFR7Q9+48
Mohespur Community Hospital,24.8122476,89.2716066,5,1,"['hospital', 'health', 'point_of_interest', 'establishment']",Kahaloo Upazila,ChIJzXwU6jNX_DkRY9g0aHmRvIk,"R76C+VJ Pabohara, Bangladesh",7MPFR76C+VJ
জিয়াখুর কমিউনিটি ক্লিনিক,24.8150964,89.2974212,5,6,"['hospital', 'health', 'point_of_interest', 'establishment']",Kahaloo Upazila,ChIJd-OcE_dX_DkRYespOgil_F4,"R78W+2X Asekpur, Bangladesh",7MPFR78W+2X
Narhatta Health Complex,24.8669135,89.2582053,5,1,"['hospital', 'health', 'point_of_interest', 'establishment']","Narhatta, Kahaloo, বগুড়া",ChIJWx_veJBX_DkRzrjNsm8DZwc,"V785+Q7 Kahaloo, Bangladesh",7MPFV785+Q7
দোগাছি কমিউনিটি ক্লিনিক,24.8758064,89.3081325,not found,not found,"['hospital', 'health', 'point_of_interest', 'establishment']",Ward-1,ChIJk7SewH9X_DkRGTDIxbBYcbM,"V8G5+87 Erulia, Bangladesh",7MPFV8G5+87
তাহিম হাউজ,24.8287713,89.336117,not found,not found,"['hospital', 'health', 'point_of_interest', 'establishment']",Patitapara,ChIJBcb-clxV_DkRwDMZQTcSRrU,"R8HP+GC Fapore, Bangladesh",7MPFR8HP+GC
Nahid Medical Store (VET),24.8613176,89.3338608,5,5,"['hospital', 'health', 'point_of_interest', 'establishment']",Erulia,ChIJHXRmM45V_DkRkaQL_CsNVlg,"V86M+GG Erulia, Bangladesh",7MPFV86M+GG
Jamgram Health Complex,24.7595195,89.2504094,5,1,"['hospital', 'health', 'point_of_interest', 'establishment']",Kahaloo Upazila,ChIJwSVOTzxR_DkRZeoxJo9fAaQ,"Q752+R5 Gohail, Bangladesh",7MPFQ752+R5
Fapor U.P. Health Care Centre. ফাপোর ইউ.পি. স্বাস্থ কেন্দ্র,24.8463569,89.345423,4,1,"['hospital', 'health', 'point_of_interest', 'establishment']","Unnamed Road, Bogura",ChIJW3TFjMFV_DkRa3-diuaxvfg,"R8WW+G5 Bogura, Bangladesh",7MPFR8WW+G5
Brithe Dental Care,24.6456251,89.2479073,not found,not found,"['hospital', 'health', 'point_of_interest', 'establishment']",Nandigram Upazila,ChIJpazTGshP_DkRsLSGzSRbtjc,"J6WX+75 Nandigram, Bangladesh",7MPFJ6WX+75
উপ-স্বাস্থ্য কেন্দ্র,24.6457211,89.2491759,3,1,"['hospital', 'health', 'point_of_interest', 'establishment']","Thana Road, Nandigram",ChIJyd90Ys1P_DkRw30yux9NiIU,"J6WX+7M Nandigram, Bangladesh",7MPFJ6WX+7M
Nandigran 20 Bed Hospitl,24.6471676,89.2437556,not found,not found,"['hospital', 'health', 'point_of_interest', 'establishment']",নন্দিগ্রাম - কালিগঞ্জ রোড,ChIJRxrEBnVF_DkRJOZxcYQ8fC4,"J6WV+VG Nandigram, Bangladesh",7MPFJ6WV+VG
Master's Assistance House of Mohona,24.6499255,89.2495964,not found,not found,"['hospital', 'health', 'point_of_interest', 'establishment']",Nandigram,ChIJte5-18xP_DkRe34gV-KRaPs,"J6XX+XR Nandigram, Bangladesh",7MPFJ6XX+XR
ইসলাম লাইফ কেয়ার হাসপাতাল,24.6438309,89.2539958,5,1,"['hospital', 'health', 'point_of_interest', 'establishment']",রহমান নগর,ChIJs3FvAQRP_DkRYXy7OmXhRe0,"J7V3+GH Nandigram, Bangladesh",7MPFJ7V3+GH
Islam Life Care Hospital,24.6438411,89.2540424,5,2,"['hospital', 'health', 'point_of_interest', 'establishment']",Rajshahi - Bogra Highway,ChIJRdkdUIdP_DkRlT1oIP2u-AE,"J7V3+GJ Nandigram, Bangladesh",7MPFJ7V3+GJ
"ইসলাম ফার্মেসী, ইসলাম লাইফ কেয়ার হাসপাতাল",24.6438528,89.2540522,5,1,"['hospital', 'health', 'point_of_interest', 'establishment']",Nandigram,ChIJw_uUgOVP_DkRWjL8D8AYnhg,"J7V3+GJ Nandigram, Bangladesh",7MPFJ7V3+GJ
Fatema Clinic and Diagnostic Center,24.6470694,89.2559994,3.7,3,"['hospital', 'health', 'point_of_interest', 'establishment']","Samiruddin Market, Natore - Bogra Highway, College Gate",ChIJvd4lY2ZP_DkRGSmgXZwS3r4,"J7W4+R9 Nandigram, Bangladesh",7MPFJ7W4+R9
হিয়া ফার্মেছি,24.6556546,89.2020646,not found,not found,"['hospital', 'health', 'point_of_interest', 'establishment']",Nandigram Upazila,ChIJ-RZqqFFE_DkRKbr3FPRt7KE,"M642+7R Taratiya, Bangladesh",7MPFM642+7R
Kunder Hat Pharmacy,24.6794256,89.2849985,not found,not found,"['hospital', 'health', 'point_of_interest', 'establishment']",Nandigram Upazila,ChIJeYJguUlP_DkRvFTujpJJi1s,"M7HM+QX Gohail, Bangladesh",7MPFM7HM+QX
বুড়ইল ইউনিয়ন স্বাস্থ্য ও পরিবার কল‍্যাণ কেন্দ্র,24.6547384,89.3014636,not found,not found,"['hospital', 'health', 'point_of_interest', 'establishment']",Nandigram - Sherpur Road,ChIJ3VZKaGVP_DkR8TPN6WxUF18,"M832+VH Gohail, Bangladesh",7MPFM832+VH
Bizrul Hospital,24.71449,89.2591762,4.6,16,"['hospital', 'health', 'point_of_interest', 'establishment']","5860, Nandigram - Sherpur Road",ChIJS6bbrx1Q_DkRUuBNeI2VgEI,"P775+QM Bizrul, Bangladesh",7MPFP775+QM
Hospital Road,24.7170215,89.2593814,not found,not found,"['hospital', 'health', 'point_of_interest', 'establishment']",Nandigram Upazila,ChIJQQW4aRxQ_DkRZtQJusWYkM8,"P785+RQ Bizrul, Bangladesh",7MPFP785+RQ
Chodighi health center,24.6684808,89.1662655,not found,not found,"['hospital', 'health', 'point_of_interest', 'establishment']","Chodighi Road, Chodighi",ChIJHSWmN61D_DkRUWiXPfbqF6k,"M598+9G Chodighi, Bangladesh",7MPFM598+9G
থাওইল কমিউনিটি ক্লিনিক,24.6124441,89.1695418,1,1,"['hospital', 'health', 'point_of_interest', 'establishment']",Chou Pukuria,ChIJ37yCi1BB_DkRW2Ocpd1qmWY,"J569+XR Vagbajor, Bangladesh",7MPFJ569+XR
জয়া ডেন্টাল কেয়ার জামাদার পুকুর,24.7095075,89.3135788,not found,not found,"['hospital', 'health', 'point_of_interest', 'establishment']","Bogra - Natore Highway, Gohail",ChIJffNpC0tP_DkRoFNUBL-tvQk,"P857+RC Gohail, Bangladesh",7MPFP857+RC
জামতলী কমিউনিটি ক্লিনিক,24.559302,89.225893,not found,not found,"['hospital', 'health', 'point_of_interest', 'establishment']",জামতলী - রাণীরহাট রাস্তা,ChIJb_2Y3pZH_DkRO-zf0v66h9s,"H65G+P9 Bingaon, Bangladesh",7MPFH65G+P9
Shoair Hospital,24.5759234,89.1687469,not found,not found,"['hospital', 'health', 'point_of_interest', 'establishment']","Jamtoli - Ranirhat Road, Chowgram",ChIJ9QGbX-FB_DkRqVvzyhl480M,"H5G9+9F Shoair, Bangladesh",7MPFH5G9+9F
Alta Dighi Community Hospital,24.6781811,89.3594,5,1,"['hospital', 'health', 'point_of_interest', 'establishment']",Alta Dighi Fazil Madrasah Road,ChIJ4belw6dN_DkRKFQ8laYr9BM,"M9H5+7Q Gohail, Bangladesh",7MPFM9H5+7Q
Nandigram Upazila Health Complex,24.6476462,89.2438969,not found,not found,"['hospital', 'premise', 'health', 'point_of_interest', 'establishment']",not found,ChIJKTnweolF_DkRB5zwHaUnN00,not found,not found
ছাইহাটা কমিউনিটি ক্লিনীক,24.8183799,89.5466906,5,1,"['hospital', 'health', 'point_of_interest', 'establishment']",Sariakandi Upazila,ChIJUx-v76io_TkRX28_k-MNqTc,"RG9W+9M Chhaihatta, Bangladesh",7MPFRG9W+9M
Gossainbari union hospital,24.7391245,89.6041197,5,1,"['hospital', 'health', 'point_of_interest', 'establishment']",Gosainbari,ChIJUdRkMIOl_TkRU9_SYzl-pVE,"PJQ3+JJ Gosainbari, Bangladesh",7MPFPJQ3+JJ
Chagoldhara community clinic,24.8543017,89.5658566,5,1,"['hospital', 'health', 'point_of_interest', 'establishment']",Sariakandi Upazila,ChIJfVc76_an_TkRyMNsWinUQD8,"VH38+P8 Domkandi, Bangladesh",7MPFVH38+P8
ভেলাবাড়ি comunity ক্লিনিক,24.811868,89.5392022,not found,not found,"['hospital', 'health', 'point_of_interest', 'establishment']",Bhelabari,ChIJFc3kw1Op_TkRtuAac0ImW9U,"RG6Q+PM Chhaihatta, Bangladesh",7MPFRG6Q+PM
Chikashi Hospital,24.7382168,89.5663522,not found,not found,"['hospital', 'health', 'point_of_interest', 'establishment']",Dhunat Upazila,ChIJcw-BxP-l_TkRf17XIu6qm3g,"PHQ8+7G Chikashi, Bangladesh",7MPFPHQ8+7G
CC,24.74849,89.547901,not found,not found,"['hospital', 'health', 'point_of_interest', 'establishment']","ধুনট উপজেলা, BORO CHAPRA",ChIJhdtEcA-v_TkRGHS3cw5HG6o,"PGXX+95 Chikashi, Bangladesh",7MPFPGXX+95
Morichtola Bazer,24.7140301,89.6116778,not found,not found,"['hospital', 'health', 'point_of_interest', 'establishment']","vai vai pharmacy, Moris tola Bazar",ChIJxajwK-al_TkRNI2X5p3gWs0,"PJ76+JM Chikashi, Bangladesh",7MPFPJ76+JM
ভাই ভাই ফার্মেসি এন্ড বিকাশ সেন্টার,24.7140097,89.611652,not found,not found,"['hospital', 'health', 'point_of_interest', 'establishment']","ধুনট উপজেলা, মরিচতলা বাজার,ধনুট,বগুড়া।",ChIJY0KYEyGl_TkRSfBZ_MpiT84,"PJ76+JM Chikashi, Bangladesh",7MPFPJ76+JM
ভাই ভাই ফার্মেসি,24.7140058,89.6116386,not found,not found,"['hospital', 'health', 'point_of_interest', 'establishment']","ধুনট উপজেলা, Moris tola Bazar",ChIJd4rDgKel_TkRDlhgUa5Ng4w,"PJ76+JM Chikashi, Bangladesh",7MPFPJ76+JM
Rafi Pharmacy,24.7551221,89.5261905,not found,not found,"['hospital', 'health', 'point_of_interest', 'establishment']",Dhunat Upazila,ChIJwVvSyUqv_TkRdGjdwyXctOQ,"QG4G+2F Nimgachhi, Bangladesh",7MPFQG4G+2F
Sariakandi Upozila Health Complex,24.8881464,89.5710145,3,2,"['hospital', 'health', 'point_of_interest', 'establishment']","Thana Road, Sariakandi",ChIJO2MjqJOn_TkRMsxICiK-P3E,"VHQC+7C Sariakandi, Bangladesh",7MPFVHQC+7C
৫০ শয্যা বিশিষ্ট সারিয়াকান্দি সদর হাসপাতাল,24.8882394,89.5709622,3,2,"['hospital', 'health', 'point_of_interest', 'establishment']",Sariakandi,ChIJF195B5On_TkRUUEtRsSYkYc,"VHQC+79 Sariakandi, Bangladesh",7MPFVHQC+79
"Upazila Health Complex, Sariakandi, Bogra",24.8882778,89.571055,2,1,"['hospital', 'health', 'point_of_interest', 'establishment']",Sariakandi Upazila,ChIJ-Q8xu2an_TkR4PS5W7pv2VI,"VHQC+8C Sariakandi, Bangladesh",7MPFVHQC+8C
হাসপাতাল,24.8883322,89.5709015,not found,not found,"['hospital', 'health', 'point_of_interest', 'establishment']","Thana Road, Sariakandi",ChIJhwTmKkan_TkRQI4SC6e4tnc,"VHQC+89 Sariakandi, Bangladesh",7MPFVHQC+89
Kajla union,24.8887731,89.5709844,not found,not found,"['hospital', 'health', 'point_of_interest', 'establishment']",Sariakandi,ChIJKcwEHk-n_TkRZXcEz_c7K0k,"VHQC+G9 Sariakandi, Bangladesh",7MPFVHQC+G9
Alokito digital diagnostic centre,24.8887731,89.5709844,not found,not found,"['hospital', 'health', 'point_of_interest', 'establishment']","Girls school more, Sariakandi",ChIJMd9acomn_TkRu4Tkk8TpcmM,"VHQC+G9 Sariakandi, Bangladesh",7MPFVHQC+G9
Upazila health center,24.8889377,89.5710075,not found,not found,"['hospital', 'health', 'point_of_interest', 'establishment']","Gabtali - Shariakandi Road, Sariakandi",ChIJh2d5VZKn_TkRST-NHEI0smM,"VHQC+HC Sariakandi, Bangladesh",7MPFVHQC+HC
Nayon,24.8853915,89.5627145,not found,not found,"['hospital', 'health', 'point_of_interest', 'establishment']","BRAC University UB01, 66 Bir Uttam AK Khandakar Road, Dhaka",ChIJY239uaCn_TkRcj4-BzE1OCA,"VHP7+53 Sariakandi, Bangladesh",7MPFVHP7+53
Sariakandi sadar hospital,24.88883,89.569345,not found,not found,"['hospital', 'health', 'point_of_interest', 'establishment']","Thana Road, Sariakandi",ChIJN1Fpxxqn_TkR-Y41c08rhyM,"VHQ9+GP Sariakandi, Bangladesh",7MPFVHQ9+GP
Kaler Para Helth Complex,24.7285117,89.535308,5,1,"['hospital', 'health', 'point_of_interest', 'establishment']",Kaler Para,ChIJ0c2KKemv_TkRjcvmCnp3jjI,"PGHP+C4 Kaler Para, Bangladesh",7MPFPGHP+C4
Kajla union,24.8887731,89.5709844,not found,not found,"['hospital', 'health', 'point_of_interest', 'establishment']",Sariakandi,ChIJKcwEHk-n_TkRZXcEz_c7K0k,"VHQC+G9 Sariakandi, Bangladesh",7MPFVHQC+G9
Alokito digital diagnostic centre,24.8887731,89.5709844,not found,not found,"['hospital', 'health', 'point_of_interest', 'establishment']","Girls school more, Sariakandi",ChIJMd9acomn_TkRu4Tkk8TpcmM,"VHQC+G9 Sariakandi, Bangladesh",7MPFVHQC+G9
Upazila health center,24.8889377,89.5710075,not found,not found,"['hospital', 'health', 'point_of_interest', 'establishment']","Gabtali - Shariakandi Road, Sariakandi",ChIJh2d5VZKn_TkRST-NHEI0smM,"VHQC+HC Sariakandi, Bangladesh",7MPFVHQC+HC
হাসপাতাল,24.8883322,89.5709015,not found,not found,"['hospital', 'health', 'point_of_interest', 'establishment']","Thana Road, Sariakandi",ChIJhwTmKkan_TkRQI4SC6e4tnc,"VHQC+89 Sariakandi, Bangladesh",7MPFVHQC+89
"Upazila Health Complex, Sariakandi, Bogra",24.8882778,89.571055,2,1,"['hospital', 'health', 'point_of_interest', 'establishment']",Sariakandi Upazila,ChIJ-Q8xu2an_TkR4PS5W7pv2VI,"VHQC+8C Sariakandi, Bangladesh",7MPFVHQC+8C
৫০ শয্যা বিশিষ্ট সারিয়াকান্দি সদর হাসপাতাল,24.8882394,89.5709622,3,2,"['hospital', 'health', 'point_of_interest', 'establishment']",Sariakandi,ChIJF195B5On_TkRUUEtRsSYkYc,"VHQC+79 Sariakandi, Bangladesh",7MPFVHQC+79
Sariakandi Upozila Health Complex,24.8881464,89.5710145,3,2,"['hospital', 'health', 'point_of_interest', 'establishment']","Thana Road, Sariakandi",ChIJO2MjqJOn_TkRMsxICiK-P3E,"VHQC+7C Sariakandi, Bangladesh",7MPFVHQC+7C
Sariakandi sadar hospital,24.88883,89.569345,not found,not found,"['hospital', 'health', 'point_of_interest', 'establishment']","Thana Road, Sariakandi",ChIJN1Fpxxqn_TkR-Y41c08rhyM,"VHQ9+GP Sariakandi, Bangladesh",7MPFVHQ9+GP
Nayon,24.8853915,89.5627145,not found,not found,"['hospital', 'health', 'point_of_interest', 'establishment']","BRAC University UB01, 66 Bir Uttam AK Khandakar Road, Dhaka",ChIJY239uaCn_TkRcj4-BzE1OCA,"VHP7+53 Sariakandi, Bangladesh",7MPFVHP7+53
Lifebuoy Floating Hospital,24.9108824,89.5967674,3.5,4,"['hospital', 'health', 'point_of_interest', 'establishment']",Sariakandi Upazila,ChIJC8v9oNAJ_TkRTqRRy6KevyA,"WH6W+9P Sariakandi, Bangladesh",7MPFWH6W+9P
Chagoldhara community clinic,24.8543017,89.5658566,5,1,"['hospital', 'health', 'point_of_interest', 'establishment']",Sariakandi Upazila,ChIJfVc76_an_TkRyMNsWinUQD8,"VH38+P8 Domkandi, Bangladesh",7MPFVH38+P8
Mukti Medical Store,24.8781632,89.5315726,not found,not found,"['hospital', 'health', 'point_of_interest', 'establishment']",,ChIJYS3RIx2p_TkRs9ZgHzr2Wek,"VGHJ+7J Horina, Bangladesh",7MPFVGHJ+7J
Jatholida Community Clinic,24.912261,89.5194406,not found,not found,"['hospital', 'health', 'point_of_interest', 'establishment']",Gabtali Upazila,ChIJiZpXtZYH_TkRwvbYloflzWk,"WG69+WQ Jatholida, Bangladesh",7MPFWG69+WQ
কদমতলী কমিউনিটি ক্লিনিক,24.9050654,89.5032916,5,1,"['hospital', 'health', 'point_of_interest', 'establishment']",Kadamtali,ChIJB7bNEHoH_TkRn8-PunDtYKI,"WG43+28 Dhananjoy, Bangladesh",7MPFWG43+28
Nepaltali Community Clinic,24.8748466,89.4954202,not found,not found,"['hospital', 'health', 'point_of_interest', 'establishment']",Gabtali Upazila,ChIJKxVAtrOp_TkRUgE9nOvAhLg,"VFFW+W5 Nepaltali, Bangladesh",7MPFVFFW+W5
নেপালতলী সূর্যের হাসি ক্নিলিক,24.8784318,89.4911508,not found,not found,"['hospital', 'health', 'point_of_interest', 'establishment']",Gabtali Upazila,ChIJ4x-ynaip_TkRZKDxQdKtQho,"VFHR+9F Nepaltali, Bangladesh",7MPFVFHR+9F
ছাইহাটা কমিউনিটি ক্লিনীক,24.8183799,89.5466906,5,1,"['hospital', 'health', 'point_of_interest', 'establishment']",Sariakandi Upazila,ChIJUx-v76io_TkRX28_k-MNqTc,"RG9W+9M Chhaihatta, Bangladesh",7MPFRG9W+9M
ভেলাবাড়ি comunity ক্লিনিক,24.811868,89.5392022,not found,not found,"['hospital', 'health', 'point_of_interest', 'establishment']",Bhelabari,ChIJFc3kw1Op_TkRtuAac0ImW9U,"RG6Q+PM Chhaihatta, Bangladesh",7MPFRG6Q+PM
baoitona community clinic,24.88544,89.4780117,5,2,"['hospital', 'health', 'point_of_interest', 'establishment']",Gabtali Upazila,ChIJ4wYGCFqp_TkR36t5Vi_hYTQ,"VFPH+56 Gabtali, Bangladesh",7MPFVFPH+56
Baoitona Community Clinic,24.8854082,89.4779836,4.5,2,"['hospital', 'health', 'point_of_interest', 'establishment']",Gabtali Upazila,ChIJdypAHvSp_TkRc0bxyGLWYX8,"VFPH+55 Gabtali, Bangladesh",7MPFVFPH+55
Langolmora Hospital,24.5732204,89.5182486,5,11,"['hospital', 'health', 'point_of_interest', 'establishment']",Shohidul Bari Rd,ChIJ0-CjEAe3_TkR8tstkrOknjM,"HGF9+77 Chaukibari, Bangladesh",7MPFHGF9+77
Comfort Diagnostic & Consultation Center,24.5555612,89.5041048,5,1,"['hospital', 'health', 'point_of_interest', 'establishment']",Raiganj Upazila,ChIJQS1gDk-2_TkRN9LrhUVfi6g,"HG43+6J Chandaikona, Bangladesh",7MPFHG43+6J
Comfort Diagnostic & Consultation Center Chandaikona,24.5554611,89.5041774,not found,not found,"['hospital', 'health', 'point_of_interest', 'establishment']","রায়গঞ্জ উপজেলা, Comfort Diagnostic & Consultation Center Road",ChIJKYXolI-3_TkRUXFq_UE_Xug,"HG43+5M Chandaikona, Bangladesh",7MPFHG43+5M
Shornakunjo,24.5664337,89.4801249,not found,not found,"['hospital', 'health', 'point_of_interest', 'establishment']","শেরপুর উপজেলা, Dhankundi,পাঁচতলা,ফুডভিলেজ",ChIJT21-zfS3_TkRlDGrdACMiCg,"HF8J+H2 Dhankundi, Bangladesh",7MPFHF8J+H2
Shornakunjo,24.557291,89.475607,not found,not found,"['hospital', 'health', 'point_of_interest', 'establishment']","পাঁচতলা,ফুডভিলেজ, Dhankundi",ChIJdWFkPQm3_TkRp8qYA5YBz3A,"HF4G+W6 Dhankundi, Bangladesh",7MPFHF4G+W6
দেবরাজপুর কমিউনিটি ক্লিনিক,24.5429048,89.4813004,not found,not found,"['hospital', 'health', 'point_of_interest', 'establishment']",Unnamed Road,ChIJJ0dNOyC3_TkRVonglhhU010,"GFVJ+5G Nijhuri, Bangladesh",7MPFGFVJ+5G
শুভ ডেন্টাল হল,24.5295216,89.5450458,not found,not found,"['hospital', 'health', 'point_of_interest', 'establishment']","bazar, Nimgachi",ChIJ1aVYDYS3_TkRcTIrvENd6yw,"GGHW+R2 Raiganj, Bangladesh",7MPFGGHW+R2
Apex Hospital,24.5219888,89.5336992,not found,not found,"['hospital', 'health', 'point_of_interest', 'establishment']",Dhanghara Road,ChIJ45E0SB7I_TkRyA5lNLx-OXs,"GGCM+QF Raiganj, Bangladesh",7MPFGGCM+QF
mohishura jame masque,24.610584,89.541898,not found,not found,"['hospital', 'health', 'point_of_interest', 'establishment']",Dhunat Upazila,ChIJax9-8FS3_TkRok59lM3n87E,"JG6R+6Q Chaukibari, Bangladesh",7MPFJG6R+6Q
Dumrai community clinic,24.5223952,89.4914967,not found,not found,"['hospital', 'health', 'point_of_interest', 'establishment']",Unnamed Road,ChIJoeVF5N7J_TkRY_npESh1Oik,"GFCR+XH Nijhuri, Bangladesh",7MPFGFCR+XH
Dumrai community clinic,24.5189664,89.4942985,not found,not found,"['hospital', 'health', 'point_of_interest', 'establishment']",Raiganj Upazila,ChIJ60DG7SbJ_TkR67eIASWYKZ4,"GF9V+HP Raiganj, Bangladesh",7MPFGF9V+HP
Joylajuan Bottola Bazar,24.6195189,89.4934538,5,4,"['hospital', 'health', 'point_of_interest', 'establishment']",Sherpur Upazila,ChIJcZ2BpNGx_TkR2pr7DuE-neA,"JF9V+R9 Chaukibari, Bangladesh",7MPFJF9V+R9
শেহলিয়াবাড়ী কমিনিউটি ক্লিনিক,24.5768134,89.5796518,5,1,"['hospital', 'health', 'point_of_interest', 'establishment']",Dhunat Upazila,ChIJCbdr2a25_TkRZeIUyyK1t4E,"HHGH+PV Khatiamari, Bangladesh",7MPFHHGH+PV
Hasan/Bayzid Pharmacy,24.5492481,89.4552534,not found,not found,"['hospital', 'health', 'point_of_interest', 'establishment']","শেরপুর উপজেলা, Fokirtola.Bhobanipur",ChIJQZ7YDxi1_TkRZiH_C__bSE8,"GFX4+M4 Bhawanipur, Bangladesh",7MPFGFX4+M4
Coukibari Union Helth Complex,24.6274116,89.5299667,not found,not found,"['hospital', 'health', 'point_of_interest', 'establishment']","Dhunat-Mathurapur Road, Dhunat",ChIJyS9Fy8mw_TkRmW7pFsRtGdY,"JGGH+XX Chaukibari, Bangladesh",7MPFJGGH+XX
Chaukibari Union Helth Complex,24.6274276,89.5299783,5,4,"['hospital', 'health', 'point_of_interest', 'establishment']","Dhunat-Mathurapur Road, Dhunat",ChIJy_VQy8mw_TkRFfHYeBUoyp8,"JGGH+XX Chaukibari, Bangladesh",7MPFJGGH+XX
Raiganj Upazilla Health Complex,24.5046298,89.5271886,not found,not found,"['hospital', 'health', 'point_of_interest', 'establishment']",Raiganj Upazila,ChIJHdYhoPvJ_TkR6e1tpQx4ITM,"GG3G+VV Raiganj, Bangladesh",7MPFGG3G+VV
Raiganj Government Hospital,24.5045645,89.5270752,4.5,6,"['hospital', 'health', 'point_of_interest', 'establishment']",Dhanghara Road,ChIJedqpvj7I_TkRchUIZ2u5OqM,"GG3G+RR Raiganj, Bangladesh",7MPFGG3G+RR
খাটিয়ামারী কমিউনিটি ক্লিনিক,24.5875821,89.5890578,5,1,"['hospital', 'health', 'point_of_interest', 'establishment']",Khatiamari Road,ChIJy8gllgm5_TkRNyq_I_Mq5_4,"HHQQ+2J Khatiamari, Bangladesh",7MPFHHQQ+2J
"মা ও শিশুকল্যাণ কেন্দ্র, ব্রহ্মগাছা",24.545189,89.5923005,not found,not found,"['hospital', 'health', 'point_of_interest', 'establishment']",Raiganj Upazila,ChIJHXlfYBG5_TkRuqvei96xP1o,"GHWR+3W Brammogacha, Bangladesh",7MPFGHWR+3W
Saic General Hospital,24.8442479,89.3729661,3.4,5,"['hospital', 'health', 'point_of_interest', 'establishment']","Sherpur Road, Bogura",ChIJlUm_0ZRU_DkRk_-Zejqz100,"R9VF+M5 Bogura, Bangladesh",7MPFR9VF+M5
Bogra Autism Care Center,24.8449151,89.3676478,5,2,"['hospital', 'health', 'point_of_interest', 'establishment']","Abdul Bari Road, Bogura",ChIJya1GYPpU_DkRRQ6WvgLYuZg,"R9V9+X3 Bogura, Bangladesh",7MPFR9V9+X3
"Disabled service and support centers, Bogra",24.8546238,89.3769644,not found,not found,"['hospital', 'health', 'point_of_interest', 'establishment']","Dottobari Road, Bogura",ChIJ_yzozeFU_DkRkY2o4woF1Xc,"V93G+RQ Bogura, Bangladesh",7MPFV93G+RQ
IBN SINA Diagnostic & Consultation Center,24.8393659,89.3739922,4.4,54,"['hospital', 'health', 'point_of_interest', 'establishment']","01 Sherpur Road, Bogura",ChIJN2pOwe5U_DkRbPmJLGip-HY,"R9QF+PH Bogura, Bangladesh",7MPFR9QF+PH
Matin Specialized Hospital,24.8327328,89.3755244,5,4,"['hospital', 'health', 'point_of_interest', 'establishment']","01 Sherpur Road, Bogura",ChIJVf3MWutU_DkRHSQKp-m48G4,"R9MG+36 Bogura, Bangladesh",7MPFR9MG+36
Astha De-Addiction Center,24.8576632,89.3964921,4.8,17,"['hospital', 'health', 'point_of_interest', 'establishment']",Bogura,ChIJO7UCQumq_TkRDa6JdwOlO_M,"V95W+3H Bogura, Bangladesh",7MPFV95W+3H
"Astha de-addiction Center (আস্থা মাদকাসক্তি নিরাময় কেন্দ্র,বগুড়া)",24.8576789,89.3965238,5,16,"['hospital', 'health', 'point_of_interest', 'establishment']","Z5032, Bogura",ChIJOSS78CpV_DkROtnNf8rNkps,"V95W+3J Bogura, Bangladesh",7MPFV95W+3J
Hamdard Unani Medical College O Hospital,24.8087992,89.3830483,4.1,10,"['hospital', 'health', 'point_of_interest', 'establishment']","Near At Batgari Mor, Dhaka - Rangpur Highway, Bogura",ChIJpWOYkKBU_DkRM3tVU1tRqpg,"R95M+G6 Bogura, Bangladesh",7MPFR95M+G6
গ্রামীণ জিসি আই হসপিটাল,24.804879,89.3818149,4.6,57,"['hospital', 'health', 'point_of_interest', 'establishment']","Banani, Betgari, Bogura",ChIJ4YmS5F5T_DkRE-GJyTEkyk4,"R93J+XP Bogura, Bangladesh",7MPFR93J+XP
Army Medical College,24.7549718,89.3967631,5,13,"['hospital', 'health', 'point_of_interest', 'establishment']","ঢাকা - বগুড়া মহাসড়ক, Aria Bazar",ChIJAaStnNRS_DkR35sGFi1nw6M,"Q93W+XP Aria Bazar, Bangladesh",7MPFQ93W+XP
Rqkibul,24.848078,89.3729633,not found,not found,"['hospital', 'health', 'point_of_interest', 'establishment']",Bogura,ChIJq75qbXBV_DkRUjL037VS9_w,"R9XF+65 Bogura, Bangladesh",7MPFR9XF+65
Jangalpara Community Clinic,24.848078,89.3729633,not found,not found,"['hospital', 'health', 'point_of_interest', 'establishment']","Jangalprara, Kahaloo",ChIJ3e5IiTBV_DkR6PqXGyj8j3Y,"R9XF+65 Bogura, Bangladesh",7MPFR9XF+65
Health Ways Hospital,24.8467248,89.3718588,4.5,2,"['hospital', 'health', 'point_of_interest', 'establishment']","Gohail Road, Bogura",ChIJ27cp4-RU_DkRSb5swELv5To,"R9WC+MP Bogura, Bangladesh",7MPFR9WC+MP
দেশ হসপিটাল,24.8460052,89.3719751,not found,not found,"['hospital', 'health', 'point_of_interest', 'establishment']","Near At Bogura Edwa rd Paura Park, Brahma Shomaj Lane, Bogura",ChIJGfOdBOVU_DkRxHVQX3ZRwTM,"R9WC+CQ Bogura, Bangladesh",7MPFR9WC+CQ
Bogura Unani Medical Center,24.8457414,89.3729478,5,1,"['hospital', 'health', 'point_of_interest', 'establishment']","Sherpur Road, Bogura",ChIJOQqDzRRV_DkRfca-c7IaLBA,"R9WF+75 Bogura, Bangladesh",7MPFR9WF+75
Desh Hospital,24.8454365,89.3721892,3,2,"['hospital', 'health', 'point_of_interest', 'establishment']","Sutrapur, Bogura",ChIJQ_FGBOVU_DkREjJS3NsDnyY,"R9WC+5V Bogura, Bangladesh",7MPFR9WC+5V
Bogura Swasthoseba Hospital,24.8498744,89.3756155,3.7,6,"['hospital', 'health', 'point_of_interest', 'establishment']","Nawabbari Road, Bogura",ChIJxzIbTOFU_DkR6jdh9dwjkXY,"R9XG+W6 Bogura, Bangladesh",7MPFR9XG+W6
সারা হসপিটাল এন্ড ডায়াগনোষ্টিক সেন্টার,24.8508891,89.3710209,4,1,"['hospital', 'health', 'point_of_interest', 'establishment']","Badurtola, Bogura",ChIJWe34zRpV_DkRswnt2gDH2mw,"V92C+9C Bogura, Bangladesh",7MPFV92C+9C
Al Arafah Hospital,24.8442479,89.3729661,3.7,3,"['hospital', 'health', 'point_of_interest', 'establishment']","Sherpur Road, Bogura",ChIJ4bKuP-tU_DkRiYjc8MwUIX4,"R9VF+M5 Bogura, Bangladesh",7MPFR9VF+M5
Al Mamun,24.8510402,89.3697225,5,1,"['hospital', 'health', 'point_of_interest', 'establishment']",Bogra Sadar Upazila,ChIJK2sqWGhV_DkRtMiJ-pSbQNA,"V929+CV Bogura, Bangladesh",7MPFV929+CV
Army Medical College,24.7549718,89.3967631,5,13,"['hospital', 'health', 'point_of_interest', 'establishment']","ঢাকা - বগুড়া মহাসড়ক, Aria Bazar",ChIJAaStnNRS_DkR35sGFi1nw6M,"Q93W+XP Aria Bazar, Bangladesh",7MPFQ93W+XP
Pulse General Hospital,24.6567816,89.4236898,4.9,8,"['hospital', 'health', 'point_of_interest', 'establishment']","Hamsayapur Road, Sherpur",ChIJIUh7tRuz_TkR7fAwPCa28gI,"MC4F+PF Sherpur, Bangladesh",7MPFMC4F+PF
Sitton Pharmacy,24.658753,89.4266191,not found,not found,"['hospital', 'health', 'point_of_interest', 'establishment']","Alia Madrasha Mosque, Sherpur - Dhunat Road, Sherpur",ChIJg2qfThuz_TkRQ6ylLtP18DE,"MC5G+GJ Sherpur, Bangladesh",7MPFMC5G+GJ
Siddic Community Hospital,24.6543,89.4242625,not found,not found,"['hospital', 'health', 'point_of_interest', 'establishment']","Dhaka - Rangpur Highway, Sherpur",ChIJ-2eKexqz_TkR2iwR4lSG1QY,"MC3F+PP Sherpur, Bangladesh",7MPFMC3F+PP
Medilab Diagonistice Center,24.665213,89.4194513,4,1,"['hospital', 'health', 'point_of_interest', 'establishment']","Dhaka - Rangpur Highway, Sherpur",ChIJpZwO0R-z_TkRCsz0IiCmNZk,"MC89+3Q Sherpur, Bangladesh",7MPFMC89+3Q
Mahbub Clinic & Diagnostic,24.6653981,89.4192677,not found,not found,"['hospital', 'health', 'point_of_interest', 'establishment']","Khejurtola Road, Sherpur",ChIJD_1_KB6z_TkRjyNlGOsj8Uk,"MC89+5P Sherpur, Bangladesh",7MPFMC89+5P
Imran Physiotherapy Medical Center ফিজিওথেরাপী,24.665785,89.4190483,5,3,"['hospital', 'health', 'point_of_interest', 'establishment']",Sherpur,ChIJh0MSJ-Cy_TkRmcNo8MjBACE,"MC89+8J Sherpur, Bangladesh",7MPFMC89+8J
VIP General Hospital,24.6656366,89.4185075,5,1,"['hospital', 'health', 'point_of_interest', 'establishment']","Hospital Road, Sherpur",ChIJMw8t4B-z_TkRmDRYlL8qMT8,"MC89+7C Sherpur, Bangladesh",7MPFMC89+7C
Meri clinic,24.6662871,89.4187338,not found,not found,"['hospital', 'health', 'point_of_interest', 'establishment']",Sherpoor,ChIJZTdLVoez_TkRxCM6ZQLrJVw,"MC89+GF Sherpur, Bangladesh",7MPFMC89+GF
এ্যডভান্স ক্লিনিক এন্ড ডায়াগনস্টিক সেন্টার,24.6658895,89.417682,5,1,"['hospital', 'health', 'point_of_interest', 'establishment']",Sherpoor,ChIJNwBDIiaz_TkR8AeKvablGb8,"MC89+93 Sherpur, Bangladesh",7MPFMC89+93
SATOTA HOSPITAL,24.6659118,89.4173669,not found,not found,"['hospital', 'health', 'point_of_interest', 'establishment']","Hospital Road, Sherpur",ChIJey-ZGQ2z_TkRRYLxmqd05ek,"MC88+9W Sherpur, Bangladesh",7MPFMC88+9W
শেরপুর মডেল ক্লিনিক,24.6658829,89.4171412,not found,not found,"['hospital', 'health', 'point_of_interest', 'establishment']","Hospital Road, Sherpur",ChIJqQ9lKdKz_TkRg7Rr8aJ50ts,"MC88+9V Sherpur, Bangladesh",7MPFMC88+9V
sejoan diagonostic clinic,24.6655206,89.4164335,not found,not found,"['hospital', 'health', 'point_of_interest', 'establishment']","Hospital Road, Sherpur",ChIJE2edDbiz_TkRRzV5RAstLjw,"MC88+6H Sherpur, Bangladesh",7MPFMC88+6H
Orbit Hospital,24.665775,89.4165015,not found,not found,"['hospital', 'health', 'point_of_interest', 'establishment']","Hospital Road, Sherpur",ChIJGY5vdCCz_TkRQbkIF3Aat7M,"MC88+8J Sherpur, Bangladesh",7MPFMC88+8J
Life Line General Hospital,24.6657725,89.4163781,1,1,"['hospital', 'health', 'point_of_interest', 'establishment']","Hospital Road, Sherpur",ChIJA6IT9d-y_TkRF9z8aFmh57U,"MC88+8H Sherpur, Bangladesh",7MPFMC88+8H
AL-RAZI CLINIC,24.665863,89.4163262,5,3,"['hospital', 'health', 'point_of_interest', 'establishment']","Malek Road, Sherpur",ChIJoc7f9N-y_TkR-g9IgltxeuU,"MC88+8G Sherpur, Bangladesh",7MPFMC88+8G
Vision lab and Hospital,24.6657728,89.415959,not found,not found,"['hospital', 'health', 'point_of_interest', 'establishment']","Hospital Road, Sherpur",ChIJadNvebKz_TkRW_Zm1IfJ1Zc,"MC88+89 Sherpur, Bangladesh",7MPFMC88+89
Sherpur Government Hospital,24.6658164,89.4156861,4.7,6,"['hospital', 'health', 'point_of_interest', 'establishment']","Hospital Road, Sherpur",ChIJQzHWh9-y_TkRBZ2sMSi79IY,"MC88+87 Sherpur, Bangladesh",7MPFMC88+87
Upazila Health Complex,24.666033,89.4155168,4.2,13,"['hospital', 'health', 'point_of_interest', 'establishment']",Sherpur,ChIJK0vHid-y_TkRluaaZt-dGcs,"MC88+C6 Sherpur, Bangladesh",7MPFMC88+C6
আমিনা জেনারেল হাসপাতাল,24.6692044,89.418532,not found,not found,"['hospital', 'health', 'point_of_interest', 'establishment']","Bus Stand Road, Sherpur",ChIJ6b0CjeCy_TkRfawCZbLvpas,"MC99+MC Sherpur, Bangladesh",7MPFMC99+MC
Upazila Livestock Office,25.0005967,89.3203187,not found,not found,"['hospital', 'health', 'point_of_interest', 'establishment']",Shibganj,ChIJAQAAAP_7_DkRNZh6eV1emt8,"282C+64 Shibganj, Bangladesh",7MQF282C+64
Mahmud Clinic,25.0036439,89.3194015,not found,not found,"['hospital', 'health', 'point_of_interest', 'establishment']","Mohasthan - Shibgonj Road, Shibganj",ChIJv4yZNPn7_DkR7zZfW2WzLq4,"2839+FQ Shibganj, Bangladesh",7MQF2839+FQ
Shibganj Upazila Health Complex,25.0056577,89.316893,4,1,"['hospital', 'health', 'point_of_interest', 'establishment']",Shibganj,ChIJiy9eIdf7_DkRJpNlswZfIyw,"2848+7Q Shibganj, Bangladesh",7MQF2848+7Q
Sumaiya Mustakim Clinic,25.0062016,89.316837,not found,not found,"['hospital', 'health', 'point_of_interest', 'establishment']","Mohasthan - Shibgonj Road, Shibganj",ChIJoRTIi877_DkRLcIzy00AQWY,"2848+FP Shibganj, Bangladesh",7MQF2848+FP
রুহান ডেন্টাল কেয়ার,25.0218501,89.3174056,not found,not found,"['hospital', 'health', 'point_of_interest', 'establishment']",Shibganj Upazila,ChIJcdEzroz7_DkRC4lnFDGkm38,"28C8+PX Shibganj, Bangladesh",7MQF28C8+PX
Popy Digital Diagnostic & Consultation Center,25.0232019,89.3167729,not found,not found,"['hospital', 'health', 'point_of_interest', 'establishment']","Amtoli Bus Stand, Amtoli, জয়পুরহাট - মোকামতলা মহাসড়ক",ChIJe9Nih8L7_DkRlxdMHjo97a8,"28F8+7P Shibganj, Bangladesh",7MQF28F8+7P
সূর্যের হাসি ক্লিনিক,25.022997,89.314765,5,2,"['hospital', 'health', 'point_of_interest', 'establishment']",Shibganj Upazila,ChIJi2q5arj7_DkRWYS6_0q6fDI,"28F7+5W Shibganj, Bangladesh",7MQF28F7+5W
বিমর্ষি কমিউনিটি ক্লিনিক,25.0215057,89.3059225,not found,not found,"['hospital', 'health', 'point_of_interest', 'establishment']",Shibganj Upazila,ChIJnxaznLX7_DkRzbMFg-Rhe8A,"28C4+J9 Shibganj, Bangladesh",7MQF28C4+J9
হরিপুর কমিউনিটি ক্লিনিক,25.0295524,89.3525308,not found,not found,"['hospital', 'health', 'point_of_interest', 'establishment']",Harirampur,ChIJwduEqOv9_DkRUNzUASY4Ne8,"29H3+R2 Voria, Bangladesh",7MQF29H3+R2
হুদাবালা কমিউনিটি ক্লিনিক,25.0456109,89.3154255,not found,not found,"['hospital', 'health', 'point_of_interest', 'establishment']",Shibganj Upazila,ChIJr0ew3jj7_DkRcocTAGsHqsM,"28W8+65 Guzia, Bangladesh",7MQF28W8+65
Muradpur Community Hospital,25.0050579,89.3704064,5,1,"['hospital', 'health', 'point_of_interest', 'establishment']",Shibganj Upazila,ChIJF2KdDNr9_DkRbyNzTuumVV8,"294C+25 Mokamtola, Bangladesh",7MQF294C+25
Baulapara Community Hospital,24.9777773,89.3647767,not found,not found,"['hospital', 'health', 'point_of_interest', 'establishment']","Shibganj Upazila, 6",ChIJIRRcfT___DkRQ0EvgzoeWHc,"X9H7+4W Lahiri Para, Bangladesh",7MPFX9H7+4W
LJB Bricks Company Ltd.,25.0155117,89.368952,not found,not found,"['hospital', 'health', 'point_of_interest', 'establishment']",Dhaka - Rangpur Highway,ChIJAZ6SOXX9_DkRB2snp_F1jsQ,"2989+6H Mokamtola, Bangladesh",7MQF2989+6H
দি হোমিও অারোগ্য নিকেতন,25.0131879,89.3707772,not found,not found,"['hospital', 'health', 'point_of_interest', 'establishment']",Shibganj Upazila,ChIJY08fm8X9_DkRmYRXiQdeErg,"297C+78 Mokamtola, Bangladesh",7MQF297C+78
নামুজা স্বাস্থ্য ও পরিবার কল্যাণ কেন্দ্র,24.9521028,89.3128091,4.9,7,"['hospital', 'health', 'point_of_interest', 'establishment']",Bogra Sadar Upazila,ChIJGXm62yf5_DkRkDXKXDob-PU,"X827+R4 Namuja, Bangladesh",7MPFX827+R4
শংকরপুর কমিউনিটি ক্লিনিক,25.0208626,89.3766877,3,2,"['hospital', 'health', 'point_of_interest', 'establishment']",Shibganj Upazila,ChIJncj2j8D9_DkRSmr4lWxZxps,"29CG+8M Mokamtola, Bangladesh",7MQF29CG+8M
রুহান ডেন্টাল কেয়ার,25.0365971,89.2744336,3,2,"['hospital', 'health', 'point_of_interest', 'establishment']",Joypurhat - Mokamtola Highway,ChIJxWmWZVr6_DkReryfWfbYe4g,"27PF+JQ Kichak, Bangladesh",7MQF27PF+JQ
নিউ দিবা রাত্রী ফার্মেসী,25.0463542,89.281801,5,1,"['hospital', 'health', 'point_of_interest', 'establishment']",Shibganj Upazila,ChIJu_j3NBP7_DkRC9fNyFwb5Hw,"27WJ+GP Kichak, Bangladesh",7MQF27WJ+GP
Jamtola Health Complex,24.9733812,89.2579615,not found,not found,"['hospital', 'health', 'point_of_interest', 'establishment']","Bogra, Jamtola",ChIJR63ZnML5_DkR2-qyIrWLcJ4,"X7F5+95 Namuja, Bangladesh",7MPFX7F5+95
Vandari para community clinic,24.947606,89.272176,5,5,"['hospital', 'health', 'point_of_interest', 'establishment']",Unnamed Road,ChIJ8ZExrGr5_DkRWuz68T0Ud2s,"W7XC+2V Namuja, Bangladesh",7MPFW7XC+2V
Nogorpara hospital,25.021354,89.4748905,not found,not found,"['hospital', 'health', 'point_of_interest', 'establishment']",Baluahat,ChIJh9bZr8cF_TkRKmeXEVTNBcM,"2FCF+GX Baluahat, Bangladesh",7MQF2FCF+GX
Sonatala Upazila Health Complex,25.0370877,89.4972226,4.3,17,"['hospital', 'health', 'point_of_interest', 'establishment']",Sonatala,ChIJc9UvY1wE_TkRVqIB3Y_oeOA,"2FPW+RV Sonatala, Bangladesh",7MQF2FPW+RV
Alom Firmecy,25.0530571,89.447639,4.5,2,"['hospital', 'health', 'point_of_interest', 'establishment']",Unnamed Road,ChIJDbaw2NgD_TkRP7ekfWeZgm0,"3C3X+63 Sonatala, Bangladesh",7MQF3C3X+63
Eshita Clinic,25.0364021,89.5008778,not found,not found,"['hospital', 'health', 'point_of_interest', 'establishment']","সোনাতলা উপজেলা, Than mor",ChIJrXYodFgF_TkRY_4D5m4Mjt0,"2GP2+H9 Sonatala, Bangladesh",7MQF2GP2+H9
Firoza Homio Hall,25.0443099,89.4980568,5,1,"['hospital', 'health', 'point_of_interest', 'establishment']","পৌরসভা রোড, Sonatala",ChIJfxmNtVgE_TkR14sguy73xI8,"2FVX+P6 Sonatala, Bangladesh",7MQF2FVX+P6
টাটা ডিজিটাল ডায়াগনস্টিক কন্সালটেশন এন্ড ক্লিনিক,25.0435114,89.4987189,not found,not found,"['hospital', 'health', 'point_of_interest', 'establishment']",Sonatala,ChIJR5Iw_zYF_TkRb3VpZ8jc0UY,"2FVX+CF Sonatala, Bangladesh",7MQF2FVX+CF
দুলাল হাউজ,24.9886051,89.4690269,5,1,"['hospital', 'health', 'point_of_interest', 'establishment']",Unnamed Road,ChIJx6EG1_EB_TkRzd69yhr7-ZI,"XFQ9+CJ Baragharia, Bangladesh",7MPFXFQ9+CJ
দক্ষিণপাড়া ইউনিয়ন স্বাস্থ্য ও পরিবার কল্যাণ কেন্দ্র,25.0101715,89.4252596,not found,not found,"['hospital', 'health', 'point_of_interest', 'establishment']",Gabtali Upazila,ChIJi7S5zToC_TkRD_iAkkfYhxY,"2C6G+34 Langluhat, Bangladesh",7MQF2C6G+34
Union Health and Family Welfare center,25.0099494,89.42498,5,1,"['hospital', 'health', 'point_of_interest', 'establishment']",Unnamed Road,ChIJW3FbYXQD_TkRgAIpjSR2dJs,"2C5F+XX Langluhat, Bangladesh",7MQF2C5F+XX
ইউনিয়ন স্বাস্থ্য ও পরিবার পরিকল্পনা কেন্দ্র,24.9864147,89.5053349,5,1,"['hospital', 'health', 'point_of_interest', 'establishment']",Sonatola Upazila,ChIJL2obmv8H_TkR1BSO2JZ9auY,"XGP4+H4 Sonatala, Bangladesh",7MPFXGP4+H4
Community clinic,24.9853752,89.4271549,5,1,"['hospital', 'health', 'point_of_interest', 'establishment']",Uzgram-Kagoil Road,ChIJIz13lmoB_TkRwajjVKO-aEo,"XCPG+5V Uzgram, Bangladesh",7MPFXCPG+5V
Uzgrm community clinic,24.9853752,89.4271549,not found,not found,"['hospital', 'health', 'point_of_interest', 'establishment']",Uzgram-Kagoil Road,ChIJuWdX0DsB_TkRpRBBz06oP7I,"XCPG+5V Uzgram, Bangladesh",7MPFXCPG+5V
H&FWC,25.0025391,89.4090369,not found,not found,"['hospital', 'health', 'point_of_interest', 'establishment']",Unnamed Road,ChIJa01G6DMD_TkRfg_5Gk-obFA,"2C35+2J Amlichukai, Bangladesh",7MQF2C35+2J
Husneara Memorial Hospital,25.0725985,89.523541,not found,not found,"['hospital', 'health', 'point_of_interest', 'establishment']",Saghata Upazila,ChIJFbUO_jwF_TkRRYM1nCmHbDg,"3GFF+2C Pholia, Bangladesh",7MQF3GFF+2C
দিঘলকান্দী কমিউনিটি ক্লিনিক,24.9656745,89.4902844,not found,not found,"['hospital', 'health', 'point_of_interest', 'establishment']",Sonatola Upazila,ChIJzVCQxDIH_TkRgI-b7JXTkGU,"XF8R+74 Baragharia, Bangladesh",7MPFXF8R+74
মাদারী পাড়া ও কাতলাহার জামে মসজিদ,24.961945,89.461813,not found,not found,"['hospital', 'health', 'point_of_interest', 'establishment']",Unnamed Road,ChIJazePp9IB_TkRlm73yZ6KZw8,"XF66+QP Jamirbaria, Bangladesh",7MPFXF66+QP
শাহীন হাউজ,24.9616623,89.4690534,5,1,"['hospital', 'health', 'point_of_interest', 'establishment']",Sonatola Upazila,ChIJm5UyHfEB_TkRAulJNh2YPdE,"XF69+MJ Baragharia, Bangladesh",7MPFXF69+MJ
আমলিচুকাই কমিউনিটি হাসপাতাল,24.9963144,89.3962777,not found,not found,"['hospital', 'health', 'point_of_interest', 'establishment']",Gabtali Upazila,ChIJHYJSWuT__DkRKX65dFLY3Q0,"X9WW+GG Amlichukai, Bangladesh",7MPFX9WW+GG
Kochashar Audio And Noyon Telecom,25.0985592,89.4363775,not found,not found,"['hospital', 'health', 'point_of_interest', 'establishment']",Gobindaganj Upazila,ChIJ5Twjznkd_TkRgP8Pv0C3tgw,"3CXP+CH Araji Sahapur, Bangladesh",7MQF3CXP+CH
Mahimaganj Government Hospital,25.107727,89.4887495,4,6,"['hospital', 'health', 'point_of_interest', 'establishment']",কোচাশহর - মহিমাগঞ্জ রোড,ChIJGV8-fEYb_TkRhINWNcBnIiU,"4F5Q+3F Mahimaganj, Bangladesh",7MQF4F5Q+3F
Manipal Hospitals Information Centre,24.992158,88.142194,3.3,4,"['hospital', 'health', 'point_of_interest', 'establishment']","beside Ideal Bakery, Malda Medicare Diadnostic Centre, K J Sanayal Road, beside Ideal Bakery, Malda",ChIJM9uVbNn9-jkRtlneQjjgelo,"X4RR+VV Malda, West Bengal, India",7MPCX4RR+VV
Malda Medical Centre,24.9922489,88.1422417,3.7,78,"['hospital', 'health', 'point_of_interest', 'establishment']","3/150, Krishna Jiban Sanyal Road, Mokdumpur, Malda",ChIJw9nqS4v--jkRCHED3eAD3lw,"X4RR+VV Malda, West Bengal, India",7MPCX4RR+VV
Dishari Health Point Pvt. Ltd,24.9957364,88.1442958,2.8,4,"['hospital', 'health', 'point_of_interest', 'establishment']","19, Bipin Ghosh Road, Mokdumpur, Malda",ChIJS1ZY3QPV-jkRBFUjJMV931c,"X4WV+7P Malda, West Bengal, India",7MPCX4WV+7P
Malda Medical College & Hospital,24.9944498,88.1383964,4.1,312,"['hospital', 'university', 'health', 'point_of_interest', 'establishment']","Singatala, Uma Roy Sarani, Malda",ChIJzUEel9D9-jkR0BTKhiqbf4s,"X4VQ+Q9 Malda, West Bengal, India",7MPCX4VQ+Q9
Dialysis Centre Malda Medical College,24.9953907,88.1381698,4,1,"['hospital', 'health', 'point_of_interest', 'establishment']","Shankar Mandal Road, Malda",ChIJWZ_akND9-jkRo2_MOQ0SxIw,"X4WQ+57 Malda, West Bengal, India",7MPCX4WQ+57
OPD of Malda Medical College & Hospital,24.9958534,88.136795,4.8,12,"['hospital', 'health', 'point_of_interest', 'establishment']","Rina Road, Malda",ChIJG5gml9D9-jkRZSUt6SzRMH0,"X4WP+8P Malda, West Bengal, India",7MPCX4WP+8P
Malda Medical College & Hospital Outdoor Unit,24.9956645,88.1365899,3.8,15,"['hospital', 'health', 'point_of_interest', 'establishment']","Rina Rd, Malda Medical College Hospital, Malda",ChIJLdLb_ND9-jkRAHB2_Ynu2bI,"X4WP+7J Malda, West Bengal, India",7MPCX4WP+7J
New OPD Building of Malda Medical College & Hospital,24.9957186,88.1365527,4.7,3,"['hospital', 'health', 'point_of_interest', 'establishment']","NH 34,, Singatala, Malda",ChIJ3a42_dD9-jkR5R2plhRGp-U,"X4WP+7J Malda, West Bengal, India",7MPCX4WP+7J
Mangalbari Nursing Home,25.0215378,88.1565399,3.8,5,"['hospital', 'health', 'point_of_interest', 'establishment']",Khaihata,ChIJBdylXJD9-jkRxn662uyt6Dc,"25C4+JJ Khaihata, West Bengal, India",7MQC25C4+JJ
সাইফুন নেস-মকবুল দাতব্য চিকিৎসালয়,24.9456529,88.2278608,not found,not found,"['hospital', 'health', 'point_of_interest', 'establishment']",Bholahat,ChIJAQAAwCEB-zkRQkQh7H4uuVY,"W6WH+74 Bholahat, Bangladesh",7MPCW6WH+74
Saifun Nesa Mokbul Datobbo Chikitsaloy,24.9470967,88.2249577,4.3,3,"['hospital', 'health', 'point_of_interest', 'establishment']",Bholahat,ChIJu9zUMh8B-zkRVgUQWpaWBzQ,"W6WF+RX Bholahat, Bangladesh",7MPCW6WF+RX
Volarhat Govt. Health Complex,24.9503762,88.2210708,5,1,"['hospital', 'health', 'point_of_interest', 'establishment']",Bholahat Upazila,ChIJsVY1EvsB-zkRCcxpg2h7fso,"X62C+5C Bholahat, Bangladesh",7MPCX62C+5C
"Health Complex, Bholahat",24.9363316,88.2232953,5,1,"['hospital', 'health', 'point_of_interest', 'establishment']","Upazila Health Complex, Bholahat, Chapai Nawabganj",ChIJ____O-EA-zkR0e1LUwQn3Jc,"W6PF+G8 Bholahat, Bangladesh",7MPCW6PF+G8
Bholahat Upazila Family Planning Office,24.9363316,88.2232953,4.6,9,"['hospital', 'health', 'point_of_interest', 'establishment']",Bholahat Upazila,ChIJMxm1XeEA-zkRSMNw5ezIS-8,"W6PF+G8 Bholahat, Bangladesh",7MPCW6PF+G8
"Niramoy Clinic, Chaiton Tola",24.934331,88.2265043,3.5,2,"['hospital', 'health', 'point_of_interest', 'establishment']",collge more road,ChIJ7Vl6ShYB-zkR56Hp13pBfxU,"W6MG+PJ Bholahat, Bangladesh",7MPCW6MG+PJ
ভোলাহাট হোমিওপ্যাথিক কেন্দ্র,24.9393015,88.2136795,not found,not found,"['hospital', 'health', 'point_of_interest', 'establishment']",Unnamed Road,ChIJebU7KMIB-zkR6UmZN4VhamI,"W6Q7+PF Bholahat, Bangladesh",7MPCW6Q7+PF
উপজেলা প্রাণী সম্পদ দপ্তর,24.9466544,88.2098883,5,1,"['hospital', 'health', 'point_of_interest', 'establishment']",Bholahat,ChIJoQiLKwEB-zkRyLkmAc7K4u4,"W6W5+MX Bholahat, Bangladesh",7MPCW6W5+MX
Dr. Nitai Ch Sarkar(R.M.P),24.9598477,88.2378165,5,1,"['hospital', 'health', 'point_of_interest', 'establishment']","Aiho, high school Road, Rishipur",ChIJHQBbs4MB-zkRMXODNTh-zJw,"X65Q+W4 Rishipur, West Bengal, India",7MPCX65Q+W4
ALIVE INDIA CHARITABLE TRUST,24.9598894,88.2406419,5,1,"['hospital', 'health', 'point_of_interest', 'establishment']","AIHM INSTITUTE OF HOTEL MANAGEMENT, বোলপুর",ChIJGbCUE64B-zkRJVpUS3ALzUA,"X65R+X7 Baksinagar, West Bengal, India",7MPCX65R+X7
MUCHIA ANCHAL HOSPITAL,24.9661244,88.2242516,4,1,"['hospital', 'health', 'point_of_interest', 'establishment']",Muchia,ChIJpcj2vj8B-zkR2xoPcoGZaNw,"X68F+CP Muchia, West Bengal, India",7MPCX68F+CP
Nachole Upazila Health Complex,24.7330799,88.416051,4.3,12,"['hospital', 'health', 'point_of_interest', 'establishment']","Uttar Mallikpur - Nachole Road, Nachole",ChIJn9nbfWmj-zkRfYOXzHnCWiw,"PCM8+6C Nachole, Bangladesh",7MPCPCM8+6C
Dishari health point,24.660353,88.447744,4.5,4,"['hospital', 'health', 'point_of_interest', 'establishment']",Uchadanga Road,ChIJNcU8oAe9-zkRJgb3UoRVMzY,"MC6X+43 Uchadanga, Bangladesh",7MPCMC6X+43
Asnara Clinic and Diagnostic Center,24.606018,88.473201,5,11,"['hospital', 'health', 'point_of_interest', 'establishment']","mundumala,tanore,rajshahi, Rajshahi",ChIJfWXKowa--zkR4-RIX5xhHX8,"JF4F+C7 Mundumala, Bangladesh",7MPCJF4F+C7
Islamic Mission Hospital,24.6513638,88.2891215,4.5,2,"['hospital', 'health', 'point_of_interest', 'establishment']",Chapai Nawabganj,ChIJh8f9pv6w-zkRzUGnrd7bbvY,"M72Q+GJ Moharajpur, Bangladesh",7MPCM72Q+GJ
Amnura Tuberculosis Hospital,24.6291831,88.4043663,3.5,4,"['hospital', 'health', 'point_of_interest', 'establishment']",Amnura,ChIJ3U9sdCG9-zkRTtEMPERXe_0,"JCH3+MP Amnura, Bangladesh",7MPCJCH3+MP
Amnura Lutheran Mission Hospital,24.6384494,88.3993294,4.5,2,"['hospital', 'health', 'point_of_interest', 'establishment']",Amnura,ChIJ_____wq8-zkRtSmJBkKsRDw,"J9QX+9P Amnura, Bangladesh",7MPCJ9QX+9P
Laxmipur Community Clinic,24.652364,88.4116661,4.5,6,"['hospital', 'health', 'point_of_interest', 'establishment']",Amnura-Nachole Road,ChIJM7ah7W29-zkRc8ijz-50fyA,"MC26+WM Amnura, Bangladesh",7MPCMC26+WM
২নং বাধাইড় ইউনিয়ন সাস্থ্য কমপ্লেক্স,24.6234871,88.4342425,5,1,"['hospital', 'health', 'point_of_interest', 'establishment']",Jumarpara,ChIJc-bC3TG8-zkRwzDIw-LVzt8,"JCFM+9M Jumarpara, Bangladesh",7MPCJCFM+9M
Ghazi medicine Park,24.6061644,88.4700898,not found,not found,"['hospital', 'health', 'point_of_interest', 'establishment']","Gorur Hat Road, Mundumala",ChIJKTyiaHm_-zkRdP98t1PttSI,"JF4C+F2 Mundumala, Bangladesh",7MPCJF4C+F2
Munirul pharmacy,24.6060394,88.4702102,3,1,"['hospital', 'health', 'point_of_interest', 'establishment']","Gorur Hat Road, Mundumala",ChIJAXf5_ZW_-zkRJNNIG93nLE0,"JF4C+C3 Mundumala, Bangladesh",7MPCJF4C+C3
Mundumala government hospital,24.6046168,88.4737993,not found,not found,"['hospital', 'health', 'point_of_interest', 'establishment']","Dak-Bangla Road, Mundumala",ChIJb23nY6e_-zkRQv7kCtvJTKg,"JF3F+RG Mundumala, Bangladesh",7MPCJF3F+RG
Boidopur CC,24.6442867,88.4898359,4,1,"['hospital', 'health', 'point_of_interest', 'establishment']",Boiddopur,ChIJxbel8DWX-zkR7bWPkdS1JB8,"JFVQ+PW Boiddopur, Bangladesh",7MPCJFVQ+PW
Community Health Care Centre,24.5487325,88.4234245,not found,not found,"['hospital', 'health', 'point_of_interest', 'establishment']","গোদাগাড়ি উপজেলা, Porapara",ChIJf6WW9fu_-zkRXhoKO-PpMfY,"GCXF+F9 Lolitnagar, Bangladesh",7MPCGCXF+F9
COMMUNITY HEALTH CARE CENTER,24.5410563,88.4125059,not found,not found,"['hospital', 'health', 'point_of_interest', 'establishment']","গোদাগাড়ি উপজেলা, Porapara-Bautia, Mahanpur Union",ChIJmTzptC6_-zkRlU4e3d4UH7U,"GCR7+C2 Gumaa, Bangladesh",7MPCGCR7+C2
Pakri Health Center,24.5543974,88.4575337,not found,not found,"['hospital', 'health', 'point_of_interest', 'establishment']",Godagari Upazila,ChIJjfzxqLe_-zkRXe4-_siVifI,"HF35+Q2 Pakri, Bangladesh",7MPCHF35+Q2
পাকড়ী স্বাস্থ্য কেন্দ্র,24.5542984,88.4575407,3.5,2,"['hospital', 'health', 'point_of_interest', 'establishment']","Kakon Hat Road, Pakri",ChIJhQbVp7e_-zkRKm2mzVGmoVQ,"HF35+P2 Pakri, Bangladesh",7MPCHF35+P2
Koyel Community Clinic,24.6474072,88.514142,not found,not found,"['hospital', 'health', 'point_of_interest', 'establishment']","Koyel-Shahapur Road, Koyel",ChIJlZv04FmW-zkRnUiKwjJqo6w,"JGW7+XM Koyel, Bangladesh",7MPCJGW7+XM
"""Billi Community Clinic : বিল্লী কমিউনিটি ক্লিনিক""",24.6964115,88.4926378,not found,not found,"['hospital', 'health', 'point_of_interest', 'establishment']",Billi,ChIJG0LBwyeX-zkRKjzek0bj_do,"MFWV+H3 Kolma, Bangladesh",7MPCMFWV+H3
Degram Community Hospital,24.5288957,88.3710519,3,1,"['hospital', 'health', 'point_of_interest', 'establishment']",Godagari Upazila,ChIJY2Ifvo-4-zkRQx2tDidumjQ,"G9HC+HC Degram, Bangladesh",7MPCG9HC+HC
Mundumala Hospital,24.6053346,88.474258,not found,not found,"['hospital', 'premise', 'health', 'point_of_interest', 'establishment']",Mundumala,ChIJd-llAQS--zkRbYxQ_CPSQ5U,not found,not found
Padma Clinic and Diagnostic Center,24.599042,88.2661794,4.3,17,"['hospital', 'health', 'point_of_interest', 'establishment']","Hospital Road, Chapai Nawabganj",ChIJP3DkPsi2-zkR7jfnXp5QaF0,"H7X8+JF Chapai Nawabganj, Bangladesh",7MPCH7X8+JF
Nature & MXN Herbal Care,24.590661,88.2826754,3.7,3,"['hospital', 'health', 'point_of_interest', 'establishment']","Rajshahi - Nawabganj Highway, Chapai Nawabganj",ChIJb4xIJ9-2-zkR0POHUm7r3VE,"H7RM+73 Chapai Nawabganj, Bangladesh",7MPCH7RM+73
Islamic Mission Hospital,24.6513638,88.2891215,4.5,2,"['hospital', 'health', 'point_of_interest', 'establishment']",Chapai Nawabganj,ChIJh8f9pv6w-zkRzUGnrd7bbvY,"M72Q+GJ Moharajpur, Bangladesh",7MPCM72Q+GJ
"Baroghoria Hospital, বারোঘোরিয়া হাসপাতাল",24.6030623,88.2505544,not found,not found,"['hospital', 'health', 'point_of_interest', 'establishment']","Baroghoriya Council Road, Baroghoriya, মহারাজপুর",ChIJIQF8EuC3-zkR2u_IZfaGhZg,"J732+66 Moharajpur, Bangladesh",7MPCJ732+66
Shad Medical Store,24.611973,88.24469,not found,not found,"['hospital', 'health', 'point_of_interest', 'establishment']",Nawabganj Sadar Upazila,ChIJybabACGz-zkR6GB4deqMK38,"J66V+QV Moharajpur, Bangladesh",7MPCJ66V+QV
সাদ ফার্মেসী,24.611973,88.24469,not found,not found,"['hospital', 'health', 'point_of_interest', 'establishment']","নবাবগঞ্জ সদর উপজেলা, Lakshmipur",ChIJE57B-R-z-zkRlTjZ2S69nEg,"J66V+QV Moharajpur, Bangladesh",7MPCJ66V+QV
T.B Hospital,24.597169,88.263452,4.2,5,"['hospital', 'health', 'point_of_interest', 'establishment']","T.B, Road",ChIJ9Q3gK7i2-zkRy7tAXo6uK3o,"H7W7+V9 Chapai Nawabganj, Bangladesh",7MPCH7W7+V9
Islami Hospital,24.5969436,88.2635379,3.9,17,"['hospital', 'health', 'point_of_interest', 'establishment']","Hospital Road, Chapai Nawabganj",ChIJ5WXtLri2-zkRp7ncgyrnmpU,"H7W7+QC Chapai Nawabganj, Bangladesh",7MPCH7W7+QC
City medical centre সিটি মেডিকেল সেন্টার,24.5982124,88.2645655,not found,not found,"['hospital', 'health', 'point_of_interest', 'establishment']","Hospital Road, Chapai Nawabganj",ChIJz_GnMjy3-zkRGOv8Vh4XaAc,"H7X7+7R Chapai Nawabganj, Bangladesh",7MPCH7X7+7R
Seba Dental Care,24.5961205,88.2628231,not found,not found,"['hospital', 'health', 'point_of_interest', 'establishment']",Hospital Road,ChIJsXWEybm2-zkRc65YM8tuDnY,"H7W7+C4 Chapai Nawabganj, Bangladesh",7MPCH7W7+C4
Islami Hospital Chapainawabgonj,24.5968756,88.2639171,not found,not found,"['hospital', 'health', 'point_of_interest', 'establishment']","Hospital Road, Chapai Nawabganj",ChIJFcWXs_K3-zkRIO47WhYlU5M,"H7W7+QH Chapai Nawabganj, Bangladesh",7MPCH7W7+QH
লাইফ কেয়ার হেলথ সেন্টার,24.5976639,88.2647908,not found,not found,"['hospital', 'health', 'point_of_interest', 'establishment']","Hospital Road, Chapai Nawabganj",ChIJmQPk5Wa3-zkRND8andrbJJI,"H7X7+3W Chapai Nawabganj, Bangladesh",7MPCH7X7+3W
Mr. ABDUL KAYUM,24.593299,88.2592457,not found,not found,"['hospital', 'health', 'point_of_interest', 'establishment']","Shibtala Road, Chapai Nawabganj",ChIJvzbSpNi3-zkRKfbGh2ANUU4,"H7V5+8M Chapai Nawabganj, Bangladesh",7MPCH7V5+8M
