Place Name,Latitude,Longitude,Rating,User_Total_Rating,Types,Address,Place_ID,Compound_Code,Global_Code
Pramanikpara Community Clinic,26.5121742,88.401609,5,1,"['hospital', 'health', 'point_of_interest', 'establishment']",Tetulia Upazila,ChIJvTj1Xwdc5DkR-iPOaR8Ds6U,"GC62+VJ Kanchabari, Bangladesh",7MRCGC62+VJ
Tetulia sadar hospital,26.4954734,88.3353175,5,1,"['hospital', 'health', 'point_of_interest', 'establishment']",Unnamed Road,ChIJc8i4wVpZ5DkReE64z-IH0JM,"F8WP+54 Tentulia, Bangladesh",7MRCF8WP+54
Tentulia Upazila Health Complex,26.4923757,88.3424648,4.2,6,"['hospital', 'health', 'point_of_interest', 'establishment']",Tentulia,ChIJKd7NWO1Z5DkR3pcHzfqncHo,"F8RR+XX Tentulia, Bangladesh",7MRCF8RR+XX
Awliar hut community clinic,26.4375675,88.9581744,4,2,"['hospital', 'health', 'point_of_interest', 'establishment']",Sreerampur,ChIJseWCX0Cd4zkRVtF6b-7tTNM,"CXQ5+27 Sreerampur, Bangladesh",7MRCCXQ5+27
Tongtingdanga Hospital,26.3752099,89.0649323,not found,not found,"['hospital', 'health', 'point_of_interest', 'establishment']",Patgram Upazila,ChIJgeU6VdV14zkRgU8_llImKX4,"93G7+3X Jagatber, Bangladesh",7MRF93G7+3X
Health Care Diagnostic Centre,26.3569512,89.0083726,not found,not found,"['hospital', 'health', 'point_of_interest', 'establishment']","Hospital rood, Patgram",ChIJqbB66ZB34zkRF9EvkvNho7w,"9245+Q8 Patgram, Bangladesh",7MRF9245+Q8
"Patgram Medical,পাটগ্রাম স্বাস্থ্য কমপ্লেক্স",26.3493378,89.0162304,3.5,2,"['hospital', 'health', 'point_of_interest', 'establishment']",Patgram,ChIJY55rQ5524zkRG1vPhbj4BrQ,"82X8+PF Patgram, Bangladesh",7MRF82X8+PF
Patgram Upazila Health Complex,26.3492592,89.0164395,not found,not found,"['hospital', 'premise', 'health', 'point_of_interest', 'establishment']",Patgram,ChIJXaa-SJ524zkRwAQI_HKaYlQ,not found,not found
Health Care Diagnostic & Consultation Centre,26.3477845,89.0162083,not found,not found,"['hospital', 'health', 'point_of_interest', 'establishment']",Patgram,ChIJPxJj6Yl34zkRoIc_5xnYvG8,"82X8+4F Patgram, Bangladesh",7MRF82X8+4F
Mokbular Rahaman Diabetic Hospital,26.3444856,88.5566446,4,3,"['hospital', 'health', 'point_of_interest', 'establishment']",Panchagarh,ChIJBRGNhN-L5DkRCxExIiapG2E,"8HV4+QM Panchagarh, Bangladesh",7MRC8HV4+QM
mokbular rahman diabetic hospital panchagarh,26.3443889,88.5569404,4,1,"['hospital', 'health', 'point_of_interest', 'establishment']","Tetulia Bus Terminal, Panchagarh - Banglabandha Highway",ChIJOfgX0YaJ5DkRsYFCFcewClo,"8HV4+QQ Panchagarh, Bangladesh",7MRC8HV4+QQ
Diabetic Hospital Panchagarh,26.3443531,88.5569907,4.6,8,"['hospital', 'health', 'point_of_interest', 'establishment']",Panchagarh,ChIJKTLf0mGJ5DkRKIvVw1LfSkM,"8HV4+PQ Panchagarh, Bangladesh",7MRC8HV4+PQ
রওশন ক্লিনিক,26.3415537,88.5554937,not found,not found,"['hospital', 'health', 'point_of_interest', 'establishment']",Panchagarh,ChIJbc4u47SL5DkRs0nOcJ21G8Q,"8HR4+J5 Panchagarh, Bangladesh",7MRC8HR4+J5
"Adhunik Sadar Hospital, Panchagarh",26.3396178,88.5565431,4.7,19,"['hospital', 'health', 'point_of_interest', 'establishment']",Panchagarh,ChIJpbvjHeCL5DkRktM7KaA3Whk,"8HQ4+RJ Panchagarh, Bangladesh",7MRC8HQ4+RJ
Northan Diagnostic centre,26.3383673,88.5556687,not found,not found,"['hospital', 'health', 'point_of_interest', 'establishment']","Panchagarh - Banglabandha Highway, Panchagarh",ChIJ0wKtNOCL5DkRaOIcKhUvrQ4,"8HQ4+87 Panchagarh, Bangladesh",7MRC8HQ4+87
New Life Clinic Panchagarh,26.3382089,88.5527917,4.8,4,"['hospital', 'health', 'point_of_interest', 'establishment']",Panchagarh,ChIJjdFaIOGL5DkRb3IKBwtTcec,"8HQ3+74 Panchagarh, Bangladesh",7MRC8HQ3+74
Update Diagnostic & Consultation Center,26.3381726,88.5556462,not found,not found,"['hospital', 'health', 'point_of_interest', 'establishment']","N5, Panchagarh",ChIJpQ-GJzSL5DkRr_A8qx0hW4E,"8HQ4+77 Panchagarh, Bangladesh",7MRC8HQ4+77
Marie Stopes Mini Clinic,26.3377492,88.5552109,4,1,"['hospital', 'health', 'point_of_interest', 'establishment']","N 5, Panchagarh",ChIJR9I_yOGL5DkRasNcIYfuXEs,"8HQ4+33 Panchagarh, Bangladesh",7MRC8HQ4+33
City General Hospital,26.3373655,88.5554175,4,3,"['hospital', 'health', 'point_of_interest', 'establishment']",Panchagarh,ChIJuZ0Wx-GL5DkRzixd3mqDKGs,"8HP4+W5 Panchagarh, Bangladesh",7MRC8HP4+W5
New popular dental care,26.3362225,88.5550836,5,1,"['hospital', 'health', 'point_of_interest', 'establishment']","N5, Panchagarh",ChIJO5Zq1MGL5DkR3zlFLhT-_Qk,"8HP4+F2 Panchagarh, Bangladesh",7MRC8HP4+F2
নিউ পপুলার ডেন্টাল কেয়ার,26.3308637,88.5563278,not found,not found,"['hospital', 'health', 'point_of_interest', 'establishment']",Panchagarh,ChIJFT2uuTeL5DkRyxN5THcnfjA,"8HJ4+8G Panchagarh, Bangladesh",7MRC8HJ4+8G
Kuchlibari Union Health and Family Welfare Center,26.3149122,89.022891,3,1,"['hospital', 'health', 'point_of_interest', 'establishment']",Kuchlibari,ChIJM1Jy9_tz4zkRjpt_jUlfAEk,"827F+X5 Kuchlibari, Bangladesh",7MRF827F+X5
Dahagram Hospital,26.3046685,88.9448458,5,2,"['hospital', 'health', 'point_of_interest', 'establishment']","Tin Bigha Corridor - Dahgram Road, Dahagram",ChIJA95VwKZw4zkRbgmqVQLtESE,"8W3V+VW Dahagram, Bangladesh",7MRC8W3V+VW
Dolly Welayet Rotary Hospital,26.2864252,89.0623681,not found,not found,"['hospital', 'health', 'point_of_interest', 'establishment']",Lalmonirhat - Phulbari Road,ChIJXf40S3hz4zkRfO-QH-QOWLs,"73P6+HW Jongra, Bangladesh",7MRF73P6+HW
"কালেশ্বর কমিউনিটি ক্লিনিক,পঞ্চগড়",26.2839087,88.5174681,5,1,"['hospital', 'health', 'point_of_interest', 'establishment']",,ChIJiR1F9_-N5DkRlBJTCsRh9Rs,"7GM8+HX Magura, Bangladesh",7MRC7GM8+HX
কালেশ্বর কমিউনিটি ক্লিনিক,26.28386,88.517523,not found,not found,"['hospital', 'health', 'point_of_interest', 'establishment']",B652,ChIJq5lXOSuN5DkRnHGOwbtwLo0,"7GM9+G2 Magura, Bangladesh",7MRC7GM9+G2
Haque Health & Mothers Care Center,26.2812589,88.5882086,5,2,"['hospital', 'health', 'point_of_interest', 'establishment']",Z5021,ChIJseWOIfuO5DkRJ9Wcv-hDhgg,"7HJQ+G7 Banagram, Bangladesh",7MRC7HJQ+G7
Safirhat Community Clinic,26.2572402,89.1094636,not found,not found,"['hospital', 'health', 'point_of_interest', 'establishment']",Baura,ChIJXxRgpz4N4zkRUg28AWEAVOM,"7445+VQ Baura, Bangladesh",7MRF7445+VQ
"Family and Health Welfare Center, Bhawlagonj",26.2535376,88.7465119,5,1,"['hospital', 'health', 'point_of_interest', 'establishment']",Debiganj Upazila,ChIJa2Rdjh6D5DkRBd1i3Vj209w,"7P3W+CJ Bhawlagonj, Bangladesh",7MRC7P3W+CJ
Desh Clinic,26.252153,88.74454,not found,not found,"['hospital', 'health', 'point_of_interest', 'establishment']",Debiganj Upazila,ChIJs40mLRmD5DkRxs12pq7PrAQ,"7P2V+VR Bhawlagonj, Bangladesh",7MRC7P2V+VR
B4 General Hospital,26.2474396,88.6144839,not found,not found,"['hospital', 'health', 'point_of_interest', 'establishment']","বোদা উপজেলা, B4 General Hospital",ChIJux97SOmP5DkReSNWU5MagZA,"6JW7+XQ Haldibari, Bangladesh",7MRC6JW7+XQ
Chilahati Diagnostic,26.24532,88.7938116,not found,not found,"['hospital', 'health', 'point_of_interest', 'establishment']","Bhaulaganj, চিলাহাটি সড়ক, চিলাহাটি",ChIJXbAZOFx94zkRW8435lPAbmI,"6QWV+4G Chilahati, Bangladesh",7MRC6QWV+4G
Health assistant monowara begum house,26.2397748,88.7256409,5,1,"['hospital', 'health', 'point_of_interest', 'establishment']",Unnamed Road,ChIJ51vFR-uD5DkRCLNOBCQuI_Y,"6PQG+W7 Tokravasha, Bangladesh",7MRC6PQG+W7
Update dental care,26.2393014,88.4094205,not found,not found,"['hospital', 'health', 'point_of_interest', 'establishment']","Unnamed Road, Atwari",ChIJ_bq-lCXz5DkRjE3tgJbcvYE,"6CQ5+PQ Atwari, Bangladesh",7MRC6CQ5+PQ
উপজেলা স্বাস্হ্য কমপ্লেক্স,26.2369524,88.4091855,not found,not found,"['hospital', 'health', 'point_of_interest', 'establishment']",Atwari Upazila,ChIJd7rkDA3z5DkRXiu3SUu6Y-A,"6CP5+QM Atwari, Bangladesh",7MRC6CP5+QM
প্রামানিক পারা কমিউনিটি ক্লিনিক,26.2330134,88.7790286,not found,not found,"['hospital', 'health', 'point_of_interest', 'establishment']",বালাপারা,ChIJi5Sg20qD5DkRqZXn_l441k4,"6QMH+6J Chilahati, Bangladesh",7MRC6QMH+6J
প্রামানিক পাড়া কমিউনিটি ক্লিনিক,26.2290723,88.77742,not found,not found,"['hospital', 'health', 'point_of_interest', 'establishment']",Chilahati,ChIJQT4uHmqD5DkRlLRNPohfdt0,"6QHG+JX Chilahati, Bangladesh",7MRC6QHG+JX
Save Eye Hospital,26.2060172,89.1077109,5,2,"['hospital', 'health', 'point_of_interest', 'establishment']",Barakhata,ChIJtzntw7gS4zkRGBf1-nFTTqE,"6445+C3 Barakhata, Bangladesh",7MRF6445+C3
বি ফোর জেনারেল হাসপাতাল,26.2029772,88.5550491,5,1,"['hospital', 'health', 'point_of_interest', 'establishment']",Dhaka - Rangpur Highway,ChIJoZSBmNKT5DkRa-TsJVfKVPo,"6H34+52 Boda, Bangladesh",7MRC6H34+52
B4 General Hospital,26.2028771,88.5548911,5,1,"['hospital', 'health', 'point_of_interest', 'establishment']",Dhaka - Rangpur Highway,ChIJLVG7H9eT5DkRI0tTKO2MwGI,"6H33+5X Boda, Bangladesh",7MRC6H33+5X
Upazila Health Complex,26.2026303,88.5542179,3.8,6,"['hospital', 'health', 'point_of_interest', 'establishment']",Boda,ChIJpX88VR6S5DkR-TUq4qAlOT4,"6H33+3M Boda, Bangladesh",7MRC6H33+3M
Jamuna Diagnostic Centre Ambari,26.1985361,88.8475195,not found,not found,"['hospital', 'health', 'point_of_interest', 'establishment']","GrameenPhone Tower, Gomnati - Chilahati Road",ChIJZSB1lFJj4zkRejf67ue6Sco,"5RXX+C2 Gomnati, Bangladesh",7MRC5RXX+C2
Child Health & Mother Care Hospital,26.1965118,88.5549639,5,3,"['hospital', 'health', 'point_of_interest', 'establishment']",Boda,ChIJM4Bm9iCS5DkRp9nvv8q98d4,"5HW3+JX Boda, Bangladesh",7MRC5HW3+JX
বালাপাড়া উপ-স্বাস্থ‍্য কেন্দ্র,26.1860954,88.912388,not found,not found,"['hospital', 'health', 'point_of_interest', 'establishment']",Balapara,ChIJWz8CNGVl4zkRkw4s_6GlaJk,"5WP6+CX Balapara, Bangladesh",7MRC5WP6+CX
Chabuler Bari Community Clinic,26.1858436,88.9417429,not found,not found,"['hospital', 'health', 'point_of_interest', 'establishment']","Borobari Road, Khoga Khoribari",ChIJu2MHHitv4zkRqOg8Y906QHI,"5WPR+8M Khoga Khoribari, Bangladesh",7MRC5WPR+8M
SAF HOSPITAL,26.1786039,88.5467832,4.7,6,"['hospital', 'health', 'point_of_interest', 'establishment']",Thakurgaon Sadar Upazila,ChIJCdTHgjKS5DkRFmzhfNGZar4,"5GHW+CP Boda, Bangladesh",7MRC5GHW+CP
Ghonimoheshpur community clinic,26.1715057,88.4088788,not found,not found,"['hospital', 'health', 'point_of_interest', 'establishment']",Ruhia,ChIJ7zx-zfbt5DkRJhbPOOVxmJg,"5CC5+JH Ruhia, Bangladesh",7MRC5CC5+JH
৫০ শয্যা বিশিষ্ট উপজেলা স্বাস্থ্য কমপ্লেক্স,26.1563567,88.9250984,not found,not found,"['hospital', 'health', 'point_of_interest', 'establishment']",Medical Road,ChIJH60t-aJl4zkRHvLsUwdalLQ,"5W4G+G2 Balapara, Bangladesh",7MRC5W4G+G2
বাইশপুকুর কমিউনিটি ক্লিনিক,26.1542253,89.0367443,not found,not found,"['hospital', 'health', 'point_of_interest', 'establishment']","Jaldhaka-Dalia Road, Jhunagach Chapani",ChIJ-UZxwGxt4zkRJIjTSdr5fsg,"523P+MM Khalisha Chapani, Bangladesh",7MRF523P+MM
Race Diagnostic Center,26.1533208,88.9220605,5,1,"['hospital', 'health', 'point_of_interest', 'establishment']",Dimla Upazila,ChIJ0x5FJQZl4zkRHvdiIc4E1yA,"5W3C+8R Dimla, Bangladesh",7MRC5W3C+8R
Char Bhurungamari Hospital,26.1514808,89.7236989,not found,not found,"['hospital', 'health', 'point_of_interest', 'establishment']",Bhurungamari,ChIJ7yVLPOeT4jkRH3aONHkyUiA,"5P2F+HF Bhurungamari, Bangladesh",7MRF5P2F+HF
"উপজেলা প্রাণিসম্পদ দপ্তর ও ভেটেরিনারি হাসপাতাল, বালিয়াডাঙ্গী",26.145288,88.294919,not found,not found,"['hospital', 'health', 'point_of_interest', 'establishment']",Lahiri Hat - Charol Road,ChIJN46UGNHl5DkRcMW-UEszSGY,"47WV+4X Lahiri, Bangladesh",7MRC47WV+4X
Taranjubari Community Clinic,26.1384544,88.2327303,not found,not found,"['hospital', 'health', 'point_of_interest', 'establishment']",Horinbari,ChIJP3DWY0bj5DkRN2F-FWqE40k,"46QM+93 Baliadangi, Bangladesh",7MRC46QM+93
নওদাবস কমিউনিটি ক্লিনিক।,26.1331596,88.8391557,5,1,"['hospital', 'health', 'point_of_interest', 'establishment']",Domar Upazila,ChIJg3YMPTVh4zkRC_DGKJ1HxEQ,"4RMQ+7M Domar, Bangladesh",7MRC4RMQ+7M
Jhargaon Comonity Clinic,26.1323695,88.3562183,4.5,2,"['hospital', 'health', 'point_of_interest', 'establishment']",Unnamed Road,ChIJ5b-xJyzv5DkRiwUm5HoC-lo,"49J4+WF Nageswarbari, Bangladesh",7MRC49J4+WF
২ নং আখানগর ইউনিয়ন স্বাস্থ কমপ্লেক্স,26.1308886,88.3721446,5,1,"['hospital', 'health', 'point_of_interest', 'establishment']",Thakurgaon Sadar Upazila,ChIJP130rBvv5DkR0A218Rf57Aw,"49JC+9V Nageswarbari, Bangladesh",7MRC49JC+9V
ডিমলা সদর ইউনিয়ন স্বাস্থ্য ও পরিবার কল্যাণ কেন্দ্র,26.1241891,88.9182121,5,2,"['hospital', 'health', 'point_of_interest', 'establishment']",Dimla Upazila,ChIJK-CbKFVn4zkR0dJ2XbifFp8,"4WF9+M7 Dimla, Bangladesh",7MRC4WF9+M7
"Karotoa Clinic, Debiganj",26.1239254,88.7569239,not found,not found,"['hospital', 'health', 'point_of_interest', 'establishment']","Bhowlaganj Road, Debiganj",ChIJu074MXqe5DkRT-2A-zJI7PQ,"4QF4+HQ Debiganj, Bangladesh",7MRC4QF4+HQ
Hatibandha Upazila Health Complex,26.1217466,89.1411406,4.2,14,"['hospital', 'health', 'point_of_interest', 'establishment']","Lalmonirhat - Phulbari Road, Shingimari",ChIJJbp-s3oU4zkRF4KaWAPMQWQ,"44CR+MF Shingimari, Bangladesh",7MRF44CR+MF
Human Clinic,26.1215392,88.7570533,not found,not found,"['hospital', 'health', 'point_of_interest', 'establishment']","Babu Para, Debiganj",ChIJjei9B6Gf5DkRbstcnoyhx_E,"4QC4+JR Debiganj, Bangladesh",7MRC4QC4+JR
Hatibandha Upazila Livestock Office & Veterinary Hospital,26.1212674,89.1397314,not found,not found,"['hospital', 'health', 'point_of_interest', 'establishment']",Hatibanda,ChIJ5bgv3V4V4zkReb_5HPpGv4U,"44CQ+GV Sindurna, Bangladesh",7MRF44CQ+GV
Bhurungamari upazilla health complex,26.1194298,89.6652549,not found,not found,"['hospital', 'health', 'point_of_interest', 'establishment']",Hospital Road,ChIJQ5XtCZnr4jkRu9AnT4ZIFjo,"4M98+Q4 Bhurungamari, Bangladesh",7MRF4M98+Q4
ভূরূঙ্গামারী উপজেলা স্বাস্থ্য কমপ্লেক্স,26.1194151,89.6645371,3,1,"['hospital', 'health', 'point_of_interest', 'establishment']",Bhuruingamari Upazila,ChIJAVU4i8Dr4jkRDVan0J6BdWQ,"4M97+QR Bhurungamari, Bangladesh",7MRF4M97+QR
Government Hospital,26.1193314,89.664682,4.7,3,"['hospital', 'health', 'point_of_interest', 'establishment']",Bhurungamari,ChIJYaRkXXbr4jkRY1ab1NFB3aw,"4M97+PV Bhurungamari, Bangladesh",7MRF4M97+PV
Mother Clinic,26.1174002,89.6653445,4.6,7,"['hospital', 'health', 'point_of_interest', 'establishment']",Bhurungamari,ChIJUzAkLHTr4jkRNF4sfSTWnVw,"4M88+X4 Bhurungamari, Bangladesh",7MRF4M88+X4
Debiganj Sadar Hospital,26.1164733,88.7551871,4.8,18,"['hospital', 'health', 'point_of_interest', 'establishment']","Sonahar Road, Debiganj",ChIJS8h2S2ie5DkRpmJLhQOyCHc,"4Q84+H3 Debiganj, Bangladesh",7MRC4Q84+H3
Rizvi Dental Care,26.116405,89.6731467,not found,not found,"['hospital', 'health', 'point_of_interest', 'establishment']",Bhurungamari,ChIJaRZZYSDr4jkR4MbTjPc3tCE,"4M8F+H7 Bhurungamari, Bangladesh",7MRF4M8F+H7
Debiganj Hospital,26.1163162,88.7557933,4.4,9,"['hospital', 'health', 'point_of_interest', 'establishment']",Debiganj,ChIJyc1juWSe5DkR5UgzA3HHBOM,"4Q84+G8 Debiganj, Bangladesh",7MRC4Q84+G8
Domar Hospital,26.1145179,88.8536326,4.7,6,"['hospital', 'health', 'point_of_interest', 'establishment']",5340 বোড়াগাড়ি - গোমনাতি সড়ক,ChIJ9ylGw0Vh4zkRunEbKZ_7G28,"4V73+RF Domar, Bangladesh",7MRC4V73+RF
Jay Laxmi Nursing Home,26.1142813,88.7582332,not found,not found,"['hospital', 'health', 'point_of_interest', 'establishment']","N.N Road, Debiganj",ChIJ8fnn7GWe5DkRdpYVnUqIQNE,"4Q75+P7 Debiganj, Bangladesh",7MRC4Q75+P7
Domar Health Complex,26.1141227,88.8539886,5,1,"['hospital', 'health', 'point_of_interest', 'establishment']","ডোমার উপজেলা, 5340",ChIJty8550Vh4zkRa_1hM-iYMIc,"4V73+JH Domar, Bangladesh",7MRC4V73+JH
Domar Upazila Health Complex,26.1140528,88.8536023,not found,not found,"['hospital', 'premise', 'health', 'point_of_interest', 'establishment']",not found,ChIJXTDG4EVh4zkRK91r27aguaE,not found,not found
ঢাকা পেইন মেডিকেল সেন্টার (DPMC),26.1121614,89.6655815,5,1,"['hospital', 'health', 'point_of_interest', 'establishment']",Bhuruingamari Upazila,ChIJkWEwTVPr4jkRHkFUH2vbmsA,"4M68+V6 Bhurungamari, Bangladesh",7MRF4M68+V6
Anowara Zahangir Clinic,26.1103782,89.6711615,5,3,"['hospital', 'health', 'point_of_interest', 'establishment']",Bhuruingamari Upazila,ChIJf1SMag3r4jkRWAmu8tTZzRs,"4M6C+5F Bhurungamari, Bangladesh",7MRF4M6C+5F
Mahbub clinic,26.1095096,89.6724339,3.3,7,"['hospital', 'health', 'point_of_interest', 'establishment']","Thana Road, Bhurungamari",ChIJGxSigxLr4jkRZXnmA-QbxyY,"4M5C+RX Bhurungamari, Bangladesh",7MRF4M5C+RX
Shimanto hospital,26.1074389,89.673666,4,2,"['hospital', 'health', 'point_of_interest', 'establishment']","Zilla, Near Bus Stand, Singzar Boulevard Road",ChIJhVJJPxLr4jkR5lJQ8L4IHTw,"4M4F+XF Bhurungamari, Bangladesh",7MRF4M4F+XF
Seven Star Clinic & Nursing Home,26.1072047,88.8250101,5,3,"['hospital', 'health', 'point_of_interest', 'establishment']","পাঙ্গা ভবন, Forest Road, Domar",ChIJExSMIaBh4zkR001j7wM7tPU,"4R4G+V2 Domar, Bangladesh",7MRC4R4G+V2
"Human Clinic & Diagonestic Center, Debiganj",26.1067465,88.7301525,not found,not found,"['hospital', 'health', 'point_of_interest', 'establishment']",Debiganj Upazila,ChIJzdAn-nqe5DkRN6sa8k4bXTk,"4P4J+M3 Debiganj, Bangladesh",7MRC4P4J+M3
Sheba Clinic,26.1066748,88.8210082,5,2,"['hospital', 'health', 'point_of_interest', 'establishment']","Sayedpur - Nilphamari Road, Domar",ChIJ22_oGqJh4zkRYLK8ZPcQWTA,"4R4C+MC Domar, Bangladesh",7MRC4R4C+MC
Friends Hospital,26.1058679,88.8282528,3.5,2,"['hospital', 'health', 'point_of_interest', 'establishment']","Domar-Jaldhaka Road, Domar",ChIJKZysC6Bh4zkRWMkAQm8rP1g,"4R4H+88 Domar, Bangladesh",7MRC4R4H+88
Angrai Pukur Community Clinic,26.1056629,88.4283804,not found,not found,"['hospital', 'health', 'point_of_interest', 'establishment']",Thakurgaon,ChIJN4G5Cabr5DkR7veP5DQh3jU,"4C4H+79 Akhanagar, Bangladesh",7MRC4C4H+79
Doctor's Clinic & Nursing Home,26.1031599,88.8191722,4.3,6,"['hospital', 'health', 'point_of_interest', 'establishment']","Konika Hall Road, Domar",ChIJJ3mDCqNh4zkRwvJ-yXxr3l0,"4R39+7M Domar, Bangladesh",7MRC4R39+7M
Domar Union Health and Family Welfare Centre,26.0987377,88.8243859,2,1,"['hospital', 'health', 'point_of_interest', 'establishment']","Chikon Mati Mor Bus Stop, Nilphamari - Domar Road",ChIJSbYsTJhh4zkRwI726tuWKBY,"3RXF+FQ Domar, Bangladesh",7MRC3RXF+FQ
Momi Hospital & Diagnostic Center,26.0986083,88.2778304,4.8,5,"['hospital', 'health', 'point_of_interest', 'establishment']","Baliadangi -- Lahiri Hat Road, Baliadangi",ChIJLVm4rfPm5DkRHLKTLtmYKus,"37XH+C4 Baliadangi, Bangladesh",7MRC37XH+C4
Upazila Health Complex,26.0967079,88.2763784,not found,not found,"['hospital', 'premise', 'health', 'point_of_interest', 'establishment']",Baliadangi,ChIJw-oOI_Lm5DkRoIR_mDu3fWo,not found,not found
Arearkuti Community Clinic,26.0967057,89.6924118,5,1,"['hospital', 'health', 'point_of_interest', 'establishment']",Bhuruingamari Upazila,ChIJ18ZHDC_r4jkR0UjWQreoHSw,"3MWR+MX Bhurungamari, Bangladesh",7MRF3MWR+MX
Baliadangi health center,26.0966451,88.276965,5,2,"['hospital', 'health', 'point_of_interest', 'establishment']","Baliadangi -- Lahiri Hat Road, Baliadangi",ChIJe01JJPLm5DkR7c-vZ2Ad2Yk,"37WG+MQ Baliadangi, Bangladesh",7MRC37WG+MQ
বালিয়াডাঙ্গী উপজেলা স্বাস্থ্য কমপ্লেক্স,26.0963224,88.2768604,4.8,10,"['hospital', 'health', 'point_of_interest', 'establishment']","Baliadangi -- Lahiri Hat Road, Baliadangi",ChIJz5HTJvLm5DkReJ8MxcZe9xY,"37WG+GP Baliadangi, Bangladesh",7MRC37WG+GP
Health Care Center,26.0913457,89.2241818,not found,not found,"['hospital', 'health', 'point_of_interest', 'establishment']","School Road, Gotamari",ChIJT966lAsX4zkRKPy9Vbam7Ec,"36RF+GM Gotamari, Bangladesh",7MRF36RF+GM
আংরাই পুকুর কমিউনিটি ক্লিনিক,26.0908834,88.4304053,not found,not found,"['hospital', 'health', 'point_of_interest', 'establishment']",Thakurgaon,ChIJyW6qHrDr5DkRYdwmVBq2VuI,"3CRJ+95 Chinarang, Bangladesh",7MRC3CRJ+95
অয়ন মেডিকেল সেন্টার,26.0896107,89.2210278,5,1,"['hospital', 'health', 'point_of_interest', 'establishment']","Doikhoa-Chamta Road, Nowdabash",ChIJtcFoyZYX4zkRAmUf8AD4Y2A,"36QC+RC Nowdabash, Bangladesh",7MRF36QC+RC
Community Hospital,26.0871319,88.3970894,not found,not found,"['hospital', 'health', 'point_of_interest', 'establishment']",Thakurgaon Sadar Upazila,ChIJ6eOqAMPp5DkRQOoPdeOjMa8,"39PW+VR Akhanagar, Bangladesh",7MRC39PW+VR
Joymonirhat Union Health Care,26.0868106,89.6636081,5,4,"['hospital', 'health', 'point_of_interest', 'establishment']",Bhuruingamari Upazila,ChIJEd4fyf_q4jkRUQqnn_gb2zU,"3MP7+PC Joymonirhat, Bangladesh",7MRF3MP7+PC
Union Health Complex Joymonirhat,26.0867673,89.6636396,5,1,"['hospital', 'health', 'point_of_interest', 'establishment']",Bhuruingamari Upazila,ChIJA5Us4Kvr4jkRPUv61iWCFo0,"3MP7+PF Joymonirhat, Bangladesh",7MRF3MP7+PF
Dr. Sezon's Clinic,26.084725,88.2778907,5,4,"['hospital', 'health', 'point_of_interest', 'establishment']",Baliadangi,ChIJB3mAgfvm5DkR9zRbLTFl8WM,"37MH+V5 Baliadangi, Bangladesh",7MRC37MH+V5
Farabari Community Clinic,26.0802867,88.4403883,5,1,"['hospital', 'health', 'point_of_interest', 'establishment']","ঠাকুরগাঁও সদর উপজেলা, Akca",ChIJ2RyiyP3r5DkRqtr2SekcxGQ,"3CJR+45 Thakurgaon, Bangladesh",7MRC3CJR+45
প্রাইম ডায়াগনস্টিক সেন্টার,26.0802867,88.4403883,not found,not found,"['hospital', 'health', 'point_of_interest', 'establishment']",আধুনিক সদর হাসপাতাল এর সামনে,ChIJlSKxvxnr5DkRvSP3sEiPaTA,"3CJR+45 Thakurgaon, Bangladesh",7MRC3CJR+45
Moimuna Mata-Sisu Hospital,26.0802867,88.4403883,not found,not found,"['hospital', 'health', 'point_of_interest', 'establishment']",Thakurgaon Sadar Upazila,ChIJ-1aTFYvp5DkRNNalIr3_UmY,"3CJR+45 Thakurgaon, Bangladesh",7MRC3CJR+45
Golna Union Health & Family Welfare Centre,26.0776499,88.9601307,not found,not found,"['hospital', 'health', 'point_of_interest', 'establishment']",Jaldhaka Upazila,ChIJd8h1GAZp4zkRTudExq-bWfA,"3XH6+33 Nautara, Bangladesh",7MRC3XH6+33
পাইটকাপাড়া কমিউনিটি ক্লিনিক,26.0699686,88.876895,4.3,3,"['hospital', 'health', 'point_of_interest', 'establishment']",Jaldhaka Upazila,ChIJG6bEAztn4zkRx5glNzSpaq8,"3V9G+XQ Dharmapal, Bangladesh",7MRC3V9G+XQ
Maymuna Mata O Shishu Hospital,26.0578431,88.3980362,4.3,3,"['hospital', 'health', 'point_of_interest', 'establishment']",Palli Bidyut - Ruhia Road,ChIJhdC8FYvp5DkRHGyke6AvXMI,"395X+46 Chinarang, Bangladesh",7MRC395X+46
৭ নং ইউনিয়ন স্বাস্থ কমপ্লেক্স,26.0527156,89.1567278,not found,not found,"['hospital', 'health', 'point_of_interest', 'establishment']",Hatibandha Upazila,ChIJo4GgKW0V4zkR_O1P9ze0sts,"3534+3M Dauabari, Bangladesh",7MRF3534+3M
Gandikari Community Clinic,26.0511366,88.2490202,not found,not found,"['hospital', 'health', 'point_of_interest', 'establishment']","Gandikari, duo suo, বালিয়াডাঙ্গী উপজেলা",ChIJHY16yTLn5DkRCeZViwXBFCM,"362X+FJ Baliadangi, Bangladesh",7MRC362X+FJ
আকাশ কমিউনিটি ক্লিনিক শাল্টিতলা,26.0491822,88.9319018,not found,not found,"['hospital', 'health', 'point_of_interest', 'establishment']",Jaldhaka Upazila,ChIJw104TlBn4zkRYzafqDXZYag,"2WXJ+MQ Dimla, Bangladesh",7MRC2WXJ+MQ
Sugar Mills Medical Centre,26.0470601,88.4218204,not found,not found,"['hospital', 'health', 'point_of_interest', 'establishment']",Thakurgaon Sadar Upazila,ChIJOyNcJG3q5DkRvM-QJmy1gVM,"2CWC+RP Islam Nagar, Bangladesh",7MRC2CWC+RP
ESDO Clinic,26.0403574,88.4548407,4,1,"['hospital', 'health', 'point_of_interest', 'establishment']","Unnamed Road, Thakurgaon",ChIJGyzuIQXr5DkR1KKXHmrRIv4,"2FR3+4W Thakurgaon, Bangladesh",7MRC2FR3+4W
ESDO Shishu & Community Hospital,26.0403387,88.454656,5,4,"['hospital', 'health', 'point_of_interest', 'establishment']","College Road, Thakurgaon",ChIJA3Av4Zvq5DkR3DmqD0xVl40,"2FR3+4V Thakurgaon, Bangladesh",7MRC2FR3+4V
Thakurgaon Health Care Hospitals,26.0387857,88.455884,4.3,4,"['hospital', 'health', 'point_of_interest', 'establishment']",Thakurgaon,ChIJuxoryZ7q5DkRDgcJgo8IUD0,"2FQ4+G9 Thakurgaon, Bangladesh",7MRC2FQ4+G9
Thakurgaon Diabetes and Healthcare Hospital,26.0387795,88.4555545,5,3,"['hospital', 'health', 'point_of_interest', 'establishment']","College Road, Thakurgaon",ChIJT-4Osp7q5DkRQVZMbOzoZgM,"2FQ4+G6 Thakurgaon, Bangladesh",7MRC2FQ4+G6
চামটাহাট পল্লী স্বাস্থ্য কেন্দ্র ( Health Centre ),26.0386252,89.1971692,4,2,"['hospital', 'health', 'point_of_interest', 'establishment']","Chamta Road, Modati",ChIJE8_1Log94zkR-T2-y3sB8ng,"25QW+FV Modati, Bangladesh",7MRF25QW+FV
Raingonj Hospital,26.0384852,89.6824409,not found,not found,"['hospital', 'health', 'point_of_interest', 'establishment']",Nageshwari Upazila,ChIJC19agcHB4jkRvivIR3r7OTg,"2MQJ+9X Rayganj, Bangladesh",7MRF2MQJ+9X
Mother Teresa Hospital,26.0384505,88.4495303,5,1,"['hospital', 'health', 'point_of_interest', 'establishment']","Porishod Para, Thakurgaon",ChIJg4j7UIPq5DkRcFZjaZXQtoM,"2CQX+9R Thakurgaon, Bangladesh",7MRC2CQX+9R
Rayganj Hospital,26.0354224,89.683435,4.8,9,"['hospital', 'health', 'point_of_interest', 'establishment']","Rayganj Chairmanbari Road, Rayganj",ChIJr2HsLR_A4jkR2NW1q5UaBdI,"2MPM+59 Rayganj, Bangladesh",7MRF2MPM+59
Sushrusha Nursing Home,26.0323504,88.4600471,3,1,"['hospital', 'health', 'point_of_interest', 'establishment']","কলেজ রোড, Thakurgaon",ChIJaRw99x_A5DkRAM4DIUvxkPM,"2FJ6+W2 Thakurgaon, Bangladesh",7MRC2FJ6+W2
Northern Hospital & Diagnostic Center,26.032341,88.4818847,4.5,2,"['hospital', 'health', 'point_of_interest', 'establishment']","Dhaka - Rangpur Highway, Thakurgaon",ChIJW8quNv6_5DkRiA_j9h7StSo,"2FJJ+WQ Thakurgaon, Bangladesh",7MRC2FJJ+WQ
Old Sadar Hospital Thakurgaon,26.0318793,88.4749838,3.9,7,"['hospital', 'health', 'point_of_interest', 'establishment']","Sirajuddowlah Road, Thakurgaon",ChIJf5DJkgHA5DkRfRLRoIb8hWw,"2FJF+QX Thakurgaon, Bangladesh",7MRC2FJF+QX
Nardan Hospital and Diagnostic Center,26.031693,88.481253,5,1,"['hospital', 'health', 'point_of_interest', 'establishment']",Thakurgaon,ChIJXRugtv-_5DkR9km0hIU7pII,"2FJJ+MG Thakurgaon, Bangladesh",7MRC2FJJ+MG
Eliza Nursing Home,26.0314379,88.4768882,5,1,"['hospital', 'health', 'point_of_interest', 'establishment']",Sirajuddowlah Road,ChIJS4qT6N_B5DkR5Yve2tNzQCo,"2FJG+HQ Thakurgaon, Bangladesh",7MRC2FJG+HQ
Ayesha Nursing Home,26.030869,88.4773598,4.5,2,"['hospital', 'health', 'point_of_interest', 'establishment']","Sirajuddowlah Road, Thakurgaon",ChIJ68AbWgDA5DkRc5PH6xhNWb0,"2FJG+8W Thakurgaon, Bangladesh",7MRC2FJG+8W
সেবা ক্লিনিক,26.030711,88.4766873,5,1,"['hospital', 'health', 'point_of_interest', 'establishment']",Sirajuddowlah Rd,ChIJuRcvNXPB5DkRDl1sLXtJqW8,"2FJG+7M Thakurgaon, Bangladesh",7MRC2FJG+7M
সেবা ক্লিনিক,26.0306051,88.4765182,4.3,3,"['hospital', 'health', 'point_of_interest', 'establishment']",Sirajuddowlah Road,ChIJR32ndcTB5DkR5_Im7ncMi50,"2FJG+6J Thakurgaon, Bangladesh",7MRC2FJG+6J
Nisha Diagnostic Centre,26.0295809,88.4651823,5,1,"['hospital', 'health', 'point_of_interest', 'establishment']","Shahid Titumir Road, Thakurgaon",ChIJLetXJRzA5DkRNH6vioCknhA,"2FH8+R3 Thakurgaon, Bangladesh",7MRC2FH8+R3
Adhunik Sadar Hospital,26.0295218,88.4765655,4.5,40,"['hospital', 'health', 'point_of_interest', 'establishment']","Bangabandhu Road, Thakurgaon",ChIJKbqeHAHA5DkR9K7oDuvSU8c,"2FHG+RJ Thakurgaon, Bangladesh",7MRC2FHG+RJ
Friends Apollo Hospital,26.0292884,88.4741256,3.8,4,"['hospital', 'health', 'point_of_interest', 'establishment']","Hazi Para, Thakurgaon",ChIJqYHa3gPA5DkRDLajLDlu-gI,"2FHF+PM Thakurgaon, Bangladesh",7MRC2FHF+PM
Mum Hospital & Diagnostic Center,26.0292064,88.4744725,4,7,"['hospital', 'health', 'point_of_interest', 'establishment']","Bangladesh, Thakurgaon",ChIJ6YL8YAHA5DkR-K8w_Ktcl1k,"2FHF+MQ Thakurgaon, Bangladesh",7MRC2FHF+MQ
Mam Hospital and Diagonosis Center,26.0290907,88.4747297,4,6,"['hospital', 'health', 'point_of_interest', 'establishment']","Hazi Para, Thakurgaon",ChIJgeMFZwHA5DkRaKz1sAwRN0k,"2FHF+JV Thakurgaon, Bangladesh",7MRC2FHF+JV
প্রাইম হাসপাতাল এন্ড ডায়াগনস্টিক কমপ্লেক্স,26.028976,88.4760506,5,1,"['hospital', 'health', 'point_of_interest', 'establishment']","Bangabandhu Road, Thakurgaon",ChIJoXGYe6zB5DkRdyQmqAEUYtk,"2FHG+HC Thakurgaon, Bangladesh",7MRC2FHG+HC
Uposhom Oral & Dental Care,26.0289326,88.475938,5,2,"['hospital', 'health', 'point_of_interest', 'establishment']","Bongobondhu Sharak, Thakurgaon",ChIJ3x3uSPjB5DkR1Wko_3Iz_cI,"2FHG+H9 Thakurgaon, Bangladesh",7MRC2FHG+H9
New Square Hospital,26.0287103,88.4768378,5,2,"['hospital', 'health', 'point_of_interest', 'establishment']","Bangabandhu Road, Thakurgaon",ChIJt4vW2gDA5DkR2i0B0cBfbDk,"2FHG+FP Thakurgaon, Bangladesh",7MRC2FHG+FP
New Green Life Digital Diagnostic Center,26.0286942,88.4770072,5,2,"['hospital', 'health', 'point_of_interest', 'establishment']","Hazi Para, Thakurgaon",ChIJ5e0U1QLA5DkRD3feJcO2sy0,"2FHG+FR Thakurgaon, Bangladesh",7MRC2FHG+FR
রোদেলা জেনারেল হস্পিটাল Rodela General hospital,26.0285955,88.4739216,3.3,4,"['hospital', 'health', 'point_of_interest', 'establishment']",Thakurgaon,ChIJJxmi5gPA5DkRDt1pIU4HVB8,"2FHF+CH Thakurgaon, Bangladesh",7MRC2FHF+CH
WELL HEALTH DENTAL CARE,26.0283159,88.478528,not found,not found,"['hospital', 'health', 'point_of_interest', 'establishment']",Rangpur Dhaka - Rangpur Highway,ChIJixPItlDB5DkRQnxlLtxlDDM,"2FHH+8C Thakurgaon, Bangladesh",7MRC2FHH+8C
Bir Muktijoddha Golam Mortuza Health complex,26.0282282,89.1617554,5,3,"['hospital', 'health', 'point_of_interest', 'establishment']",Kaliganj Upazila,ChIJ10ABIfM_4zkRkriZm0RAJWQ,"25H6+7P Modati, Bangladesh",7MRF25H6+7P
Jaldhaka Upazila Health Complex,26.0233955,89.0058327,4.2,13,"['hospital', 'health', 'point_of_interest', 'establishment']","Medical Road, Jaldhaka",ChIJqftbqhFC4zkRBSh5juhuMPc,"22F4+98 Jaldhaka, Bangladesh",7MRF22F4+98
সন্তোষপুর কমিউনিটি ক্লিনিক,26.0219902,89.6795635,5,2,"['hospital', 'health', 'point_of_interest', 'establishment']",Nageshwari Upazila,ChIJy-VY5NjB4jkRgboiX2Ma-PA,"2MCH+QR Rayganj, Bangladesh",7MRF2MCH+QR
Union sasthya Clinic,26.0198243,89.4206502,5,1,"['hospital', 'health', 'point_of_interest', 'establishment']","Bangladesh Border Road, Durgapur",ChIJtTg3HMHf4jkR-wI5Yb8jMU4,"2C9C+W7 Durgapur, Bangladesh",7MRF2C9C+W7
Thakurgaon BGB Hospital,26.0190812,88.4669352,4.5,37,"['hospital', 'health', 'point_of_interest', 'establishment']","Dhaka - Rangpur Highway, Thakurgaon",ChIJX6VY-BDA5DkRkzsbYOds3IQ,"2F98+JQ Thakurgaon, Bangladesh",7MRC2F98+JQ
Community Learning Center (CLC),26.0118348,89.0081774,not found,not found,"['hospital', 'health', 'point_of_interest', 'establishment']","Nilphamari - Jhaldhaka Road, Jaldhaka",ChIJWe3QQeJD4zkR4x3IMWLyINk,"2265+P7 Jaldhaka, Bangladesh",7MRF2265+P7
Bombay Hospital and Trauma Centre,26.0053028,88.3890438,5,1,"['hospital', 'health', 'point_of_interest', 'establishment']","Thakurgaon Sadar Upazila, Near Rail Vihar colony Chihargawan. Medical College Road Gorakhpur",ChIJMej9UDzC5DkRv_9O2TRWC6o,"294Q+4J পারপূগী, Bangladesh",7MRC294Q+4J
Fershadangi Community Clinoc,26.0034152,88.4355422,not found,not found,"['hospital', 'health', 'point_of_interest', 'establishment']",Thakurgaon Sadar Upazila,ChIJ9V43pWLB5DkREwMnWu0EbZI,"2C3P+96 Thakurgaon, Bangladesh",7MRC2C3P+96
Union health and family welfare center,26.0011589,89.2650076,5,2,"['hospital', 'health', 'point_of_interest', 'establishment']","চাপারহাট বাজার, চাপারহাট উচ্চ বিদ্যালয় সড়ক, Chandrapur",ChIJA_tdet0i4zkRmqE7f1USvh4,"2728+F2 Dalagram, Bangladesh",7MRF2728+F2
ইউনিয়ন স্বাস্থ্য ও পরিবার কল্যাণ কেন্দ্র,26.000551,88.2022618,4.7,3,"['hospital', 'health', 'point_of_interest', 'establishment']","রাণীশংকৈল উপজেলা, Z5029",ChIJp9K-Eazf5DkR7oRGztxpKDM,"2622+6W Kadihat, Bangladesh",7MRC2622+6W
Shibganj Union health complex,25.999669,88.3991148,not found,not found,"['hospital', 'health', 'point_of_interest', 'establishment']",Shibganj -- Jamalpur Jamidarbari Mosque Road,ChIJQ-WYkSrD5DkRwekEkMkZjj4,"X9XX+VJ পারপূগী, Bangladesh",7MQCX9XX+VJ
LALMONI CLINIC,25.9983517,89.1748757,5,1,"['hospital', 'health', 'point_of_interest', 'establishment']","Lalmonirhat - Phulbari Road, Bhotemari",ChIJw3nFr9Y94zkR7PhyDXGvFQI,"X5XF+8X Bhotemari, Bangladesh",7MQFX5XF+8X
Durlovepur Community Clinic,25.9937721,88.2490057,not found,not found,"['hospital', 'health', 'point_of_interest', 'establishment']","Durlovepur, Nekmarad",ChIJ5wCjDLfd5DkR8Jn98lcRAS8,"X6VX+GJ Durlovpur, Bangladesh",7MQCX6VX+GJ
Dalgram Health Centre Kaliganj,25.9913154,89.2408866,5,1,"['hospital', 'health', 'point_of_interest', 'establishment']","Tushbhander - Chaparhat Road, Dalagram",ChIJG5iQF9Y84zkRCY7rm1LWEZA,"X6RR+G9 Dalagram, Bangladesh",7MQFX6RR+G9
Moghalhat Helth Complex,25.989517,89.4502652,5,2,"['hospital', 'health', 'point_of_interest', 'establishment']","Durakuti - Mogolhat Road, Mogalhat",ChIJcXmEhPbe4jkR4hHV3qpUzh8,"XFQ2+R4 Mogalhat, Bangladesh",7MQFXFQ2+R4
Bhotmari Health Centre Kaliganj,25.9879178,89.1803514,not found,not found,"['hospital', 'health', 'point_of_interest', 'establishment']","Lalmonirhat - Patgram Highway, Bhotemari",ChIJgzvbdjI84zkRlFsUkQw0erw,"X5QJ+54 Bhotemari, Bangladesh",7MQFX5QJ+54
South Gobdha Community Clinic,25.9874917,89.4087929,5,3,"['hospital', 'health', 'point_of_interest', 'establishment']","Bhelabari - Durgapur, Durgapur",ChIJR8Oo66zf4jkRgELiJYIKocc,"XCP5+XG Durgapur, Bangladesh",7MQFXCP5+XG
গৌরী চেম্বার এবং মেডিকেল কেয়ার,25.9849469,88.420647,not found,not found,"['hospital', 'health', 'point_of_interest', 'establishment']",Thakurgaon Sadar Upazila,ChIJL2V-oCnB5DkRadUX8ARgGes,"XCMC+X7 Thakurgaon, Bangladesh",7MQCXCMC+X7
Atkora(Vatpara)Hospital,25.9768125,88.3204574,not found,not found,"['hospital', 'health', 'point_of_interest', 'establishment']",Unnamed Road,ChIJwW8hd8Hd5DkRqY0GP2MPyug,"X8GC+P5 Bhelai, Bangladesh",7MQCX8GC+P5
মশিয়ার রহমান ডক্টর'স চেম্বার এন্ড ডায়াগনস্টিক সেন্টার,25.9727517,88.9748932,not found,not found,"['hospital', 'health', 'point_of_interest', 'establishment']","জলঢাকা উপজেলা, khalisha",ChIJh5TuCiVD4zkRYj2IBWbgdq8,"XXFF+4X Tangonmari, Bangladesh",7MQCXXFF+4X
Sahera Wasek Hospital,25.970247,89.7567693,5,1,"['hospital', 'health', 'point_of_interest', 'establishment']",Nageshwari Upazila,ChIJjQ0EIky_4jkRpr5dIGnET_Q,"XQC4+3P Berubari, Bangladesh",7MQFXQC4+3P
Nageswari Central Clinic & Diagnostic Center,25.9700284,89.6895577,5,2,"['hospital', 'health', 'point_of_interest', 'establishment']",Nageshwari Upazila,ChIJbd4bqRXB4jkRWiolrsfrcy4,"XMCQ+2R Nageshwari, Bangladesh",7MQFXMCQ+2R
Kaliganj Upazila Health Complex,25.9679222,89.2073321,4.8,5,"['hospital', 'health', 'point_of_interest', 'establishment']","Lalmonirhat - Patgram Highway, Tushbhander",ChIJ8Yd_dGA84zkRSZf2kicOA2A,"X694+5W Tushbhander, Bangladesh",7MQFX694+5W
শিমুলবাড়ি কমিউনিটি ক্লিনিক,25.9678761,89.5333577,not found,not found,"['hospital', 'health', 'point_of_interest', 'establishment']",Phulbari Upazila,ChIJc6LsdM3d4jkRvDtS_DrjQuU,"XG9M+58 Mogolhat, Bangladesh",7MQFXG9M+58
SEBA DENTAL SURGERY,25.9677863,89.2241171,not found,not found,"['hospital', 'health', 'point_of_interest', 'establishment']",Kaliganj Upazila,ChIJBTvcTw494zkRgqfh_wAIBp0,"X69F+4J Tushbhander, Bangladesh",7MQFX69F+4J
Nagorganj Community Clinic,25.967487,88.6642113,not found,not found,"['hospital', 'health', 'point_of_interest', 'establishment']",Nagorganj Bazaar,ChIJexr69jmj5DkR4d8Qx_DmnrY,"XM87+XM Basuli, Bangladesh",7MQCXM87+XM
North Borovita Community Clinic,25.9653565,89.0251565,2.7,3,"['hospital', 'health', 'point_of_interest', 'establishment']",Kishoreganj Upazila,ChIJexkcCl1B4zkRIaPjdtDIX-U,"X28G+43 Barabhita, Bangladesh",7MQFX28G+43
Abason Hospital আবাসন হসপিটাল,25.9650053,89.747581,not found,not found,"['hospital', 'health', 'point_of_interest', 'establishment']",Nageshwari Upazila,ChIJJ1OfFA6_4jkRiT7_YYMeclA,"XP8X+22 Berubari, Bangladesh",7MQFXP8X+22
Upazila Health complex,25.9648811,89.6893056,not found,not found,"['hospital', 'health', 'point_of_interest', 'establishment']",Z5616,ChIJt_RZVVvB4jkRMTUD_FYwrE0,"XM7Q+XP Nageshwari, Bangladesh",7MQFXM7Q+XP
উপজেলা স্বাস্থ্য কমপ্লেক্স,25.9647643,89.6892681,5,1,"['hospital', 'health', 'point_of_interest', 'establishment']",Nageshwari,ChIJ73bVmrzA4jkRfYa5gq3ri00,"XM7Q+WP Nageshwari, Bangladesh",7MQFXM7Q+WP
"Upozella Sadar Hospital, Nageswari",25.9647343,89.6891504,4.2,5,"['hospital', 'health', 'point_of_interest', 'establishment']",Nageshwari,ChIJi63khLzA4jkRtCvWOr5fSVc,"XM7Q+VM Nageshwari, Bangladesh",7MQFXM7Q+VM
Nageahwari Helth Complex,25.9642198,89.6957222,not found,not found,"['hospital', 'health', 'point_of_interest', 'establishment']",Nageshwari Upazila,ChIJpXX6IvjB4jkRKxDpMR4cZPc,"XM7W+M7 Nageshwari, Bangladesh",7MQFXM7W+M7
koimari clinic,25.9638649,89.0889996,5,2,"['hospital', 'health', 'point_of_interest', 'establishment']",Jaldhaka Upazila,ChIJ-YuXaKFA4zkRQk7kDbqO9lA,"X37Q+GH Koimari, Bangladesh",7MQFX37Q+GH
Durakuti Community Clinic,25.96176,89.4435301,not found,not found,"['hospital', 'health', 'point_of_interest', 'establishment']",Lalmonirhat Sadar Upazila,ChIJM7e1O4Xf4jkRdgvum97MyQM,"XC6V+PC Mogolhat, Bangladesh",7MQFXC6V+PC
Morium Eye Hospital,25.9606207,89.6943545,not found,not found,"['hospital', 'health', 'point_of_interest', 'establishment']",Kurigram-Bhurungamari Road,ChIJ9d2DeVbB4jkRZ06FX47nhoc,"XM6V+6P Nageshwari, Bangladesh",7MQFXM6V+6P
MAHABUBA MEMORIAL GENERAL HOSPITAL,25.9597814,88.8308727,not found,not found,"['hospital', 'health', 'point_of_interest', 'establishment']","Nilsagar Road, Hajigoinj",ChIJMdbCZHpf4zkRbvrazNzNlJ8,"XR5J+W8 Nilphamari, Bangladesh",7MQCXR5J+W8
"Bibi Kanchon Eye Hospital, Birganj",25.9576772,88.7059066,4.7,12,"['hospital', 'health', 'point_of_interest', 'establishment']",Debiganj-Birganj-Jharbari Road,ChIJwXM_Nfmj5DkRENiC3wyU-fo,"XP54+39 Basuli, Bangladesh",7MQCXP54+39
Holy Care Clinic & Diagnostic Center,25.9576627,89.6963488,5,3,"['hospital', 'health', 'point_of_interest', 'establishment']","Nageshwari Upazila, Kurigram road Nageshwari, Kurigram Zilla",ChIJ-8tfZXHB4jkRrzkSPGcdEeQ,"XM5W+3G Nageshwari, Bangladesh",7MQFXM5W+3G
Berubari Health Complex,25.9546578,89.731538,3,1,"['hospital', 'health', 'point_of_interest', 'establishment']",Nageshwari Upazila,ChIJqwQC8C6_4jkRcwVR9I_O6z8,"XP3J+VJ Berubari, Bangladesh",7MQFXP3J+VJ
Bibi kanchon eye hospital.,25.9534999,88.7140561,5,1,"['hospital', 'health', 'point_of_interest', 'establishment']",Birganj Upazila,ChIJ91hjA4yh5DkR0P0NtnbQKq8,"XP37+9J Basuli, Bangladesh",7MQCXP37+9J
Shahjahan Free Clinic Mehernagar,25.9534834,89.2432162,not found,not found,"['hospital', 'health', 'point_of_interest', 'establishment']","Kakina, Station Road, তুষভান্ডার",ChIJVfZmSqw84zkRs9qf8E2uMoQ,"X63V+97 Tushbhander, Bangladesh",7MQFX63V+97
Union Health & Family Welfare Centre,25.9528071,88.7746504,5,1,"['hospital', 'health', 'point_of_interest', 'establishment']","Shialbari Graveyard, Dhaka",ChIJcwNL4TKh5DkRvqYaMSDI3ls,"XQ3F+4V Basuli, Bangladesh",7MQCXQ3F+4V
Baladangi Hat Community Center,25.9523212,88.6710868,not found,not found,"['hospital', 'health', 'point_of_interest', 'establishment']",Birganj Upazila,ChIJadfk5Zuj5DkR3bdDBizcXKY,"XM2C+WC Kumar Para, Bangladesh",7MQCXM2C+WC
ইটাখোলা কমিউনিটি ক্লিনিক,25.9511135,88.8641264,not found,not found,"['hospital', 'health', 'point_of_interest', 'establishment']",Nilphamari Sadar Upazila,ChIJ2cKOpSRf4zkR8pPhakeqI9Q,"XV27+CM Nilphamari, Bangladesh",7MQCXV27+CM
Nana-Nati Health Care,25.9485024,89.5531993,not found,not found,"['hospital', 'health', 'point_of_interest', 'establishment']","Amir Ali Mia Market, ফুলবাড়ী",ChIJtzYOAmLD4jkRZsQESEEA3h8,"WHX3+C7 Phulbari, Bangladesh",7MQFWHX3+C7
Fatematuz Zahura Hospital,25.9482175,88.7059656,not found,not found,"['hospital', 'health', 'point_of_interest', 'establishment']",Debiganj-Jharbari-Birganj Road,ChIJWd9sdSmj5DkRFJ8LatA7uq8,"WPX4+79 Basuli, Bangladesh",7MQCWPX4+79
KCDF Hospital Karimpur,25.9480789,88.7058704,3.7,3,"['hospital', 'health', 'point_of_interest', 'establishment']",Debiganj-Birganj-Jharbari Road,ChIJAf20_rCj5DkRJjIzLatJKGw,"WPX4+68 Basuli, Bangladesh",7MQCWPX4+68
Badijamapur Community Clinic,25.9478942,89.6871587,not found,not found,"['hospital', 'health', 'point_of_interest', 'establishment']","নাগেশ্বরী উপজেলা, Baparipara, Badijamapur",ChIJP96O5zDB4jkRvXh2RGDoxJE,"WMXP+5V Nageshwari, Bangladesh",7MQFWMXP+5V
Monowara Digital Diagnostic Centre,25.9477234,89.5528637,not found,not found,"['hospital', 'health', 'point_of_interest', 'establishment']",Z5617,ChIJZQ72t5zD4jkR4gzdOZTiyEE,"WHX3+34 Phulbari, Bangladesh",7MQFWHX3+34
Phulbari Upazila Health Complex,25.9473318,89.5510411,4.4,11,"['hospital', 'health', 'point_of_interest', 'establishment']",Phulbari,ChIJY51GalXD4jkR942tsAlttfY,"WHW2+WC Phulbari, Bangladesh",7MQFWHW2+WC
Saptibari Union Health and Family Welfare Centre,25.9387169,89.4169367,5,3,"['hospital', 'health', 'point_of_interest', 'establishment']",Saptibari,ChIJuQFBGrbY4jkR_lVZglb2cL8,"WCQ8+FQ Saptibari, Bangladesh",7MQFWCQ8+FQ
Bibi kanchon eye hospital,25.938401,88.7118916,not found,not found,"['hospital', 'health', 'point_of_interest', 'establishment']","jharbari, Birganj, road",ChIJrS6YJ0-n5DkRCsFockoH84s,"WPQ6+9Q Basuli, Bangladesh",7MQCWPQ6+9Q
টিএমএসএস সাহেরা ওয়াসেক হাসপাতাল এন্ড রিসার্চ সেন্টার,25.9378191,89.6919406,5,1,"['hospital', 'health', 'point_of_interest', 'establishment']","কাছাড়ী, পায়ড়াডাঙ্গা",ChIJUy26K2bH4jkRJEZJpjz-v_4,"WMQR+4Q Nageshwari, Bangladesh",7MQFWMQR+4Q
Sahera Wasek Hospital,25.9377658,89.691784,5,1,"['hospital', 'health', 'point_of_interest', 'establishment']",5600 Kurigram-Bhurungamari Road,ChIJ5RmdJPjH4jkRAvBoutuqnYk,"WMQR+4P Nageshwari, Bangladesh",7MQFWMQR+4P
TMSS SAHERA–WASEQUE HOSPITAL AND RESEARCH CENTER,25.9377284,89.6916318,not found,not found,"['hospital', 'health', 'point_of_interest', 'establishment']",5600 Kurigram-Bhurungamari Road,ChIJORUCEfnH4jkRx--HXwk-ZvA,"WMQR+3M Nageshwari, Bangladesh",7MQFWMQR+3M
Health complex,25.9371872,89.1187549,not found,not found,"['hospital', 'health', 'point_of_interest', 'establishment']",এতিমখানা রোড,ChIJcZijsM444zkRvK38_CVM2Bg,"W4P9+VG Alam Biditar, Bangladesh",7MQFW4P9+VG
Sohodeb Boro Gassha community clinic,25.9370989,88.8403347,5,1,"['hospital', 'health', 'point_of_interest', 'establishment']","David the Builder Kutaisi International Airport, Nilphamari",ChIJGX8AVxRZ4zkRMenDGs2t7YQ,"WRPR+R4 Nilphamari, Bangladesh",7MQCWRPR+R4
A.R General Hospital,25.936829,88.842143,not found,not found,"['hospital', 'health', 'point_of_interest', 'establishment']",Nilphamari Sadar Upazila,ChIJ820YNyBZ4zkRliDLlOkyRVI,"WRPR+PV Nilphamari, Bangladesh",7MQCWRPR+PV
Nagorik hospital nilphamari,25.9363674,88.8512384,5,1,"['hospital', 'health', 'point_of_interest', 'establishment']","নীলফামারী সদর উপজেলা, Hayat haritage batar mor",ChIJaT1bpYdZ4zkR4FKnTRbx8O0,"WVP2+GF Nilphamari, Bangladesh",7MQCWVP2+GF
Surjer Hashi Clinic,25.9361738,88.8519658,not found,not found,"['hospital', 'health', 'point_of_interest', 'establishment']",Saidpur - Nilphamari Road,ChIJO8I4AlNZ4zkRUmqAh97Vs1k,"WVP2+FQ Nilphamari, Bangladesh",7MQCWVP2+FQ
Nagorik hospital nilphamari,25.9361735,88.8511921,4,1,"['hospital', 'health', 'point_of_interest', 'establishment']",Nilphamari Sadar Upazila,ChIJ1UOadGNZ4zkRD2OJV2OHVW0,"WVP2+FF Nilphamari, Bangladesh",7MQCWVP2+FF
Life Aid Care Hospital,25.9360879,88.8511978,5,1,"['hospital', 'health', 'point_of_interest', 'establishment']","নীলফামারী সদর উপজেলা, hayat haritage batar mor",ChIJx9E5j_BZ4zkRPBlQtdJDZT8,"WVP2+CF Nilphamari, Bangladesh",7MQCWVP2+CF
পলাশবাড়ী ডায়াবেটিক হাসপাতাল,25.9360532,88.8412358,not found,not found,"['hospital', 'health', 'point_of_interest', 'establishment']",Nilphamari,ChIJUViRy6lZ4zkR-t2RgfujI9Y,"WRPR+CF Nilphamari, Bangladesh",7MQCWRPR+CF
Chandrokhana Community Clinic,25.9334726,89.5828736,not found,not found,"['hospital', 'health', 'point_of_interest', 'establishment']",Z5616,ChIJRW_jsojE4jkRobhp4gI2Dc4,"WHMM+94 Nagdh, Bangladesh",7MQFWHMM+94
"Union Health Complex, Khangaon",25.9328914,88.3721698,not found,not found,"['hospital', 'health', 'point_of_interest', 'establishment']",Khangaon,ChIJbUAegunF5DkR_NSsG4jZmyc,"W9MC+5V Dulgaon, Bangladesh",7MQCW9MC+5V
"Upazila Health Complex, Nilphamari Sadar, Nilphamari",25.9318381,88.8537574,4.2,5,"['hospital', 'health', 'point_of_interest', 'establishment']",Nilphamari,ChIJkV8KlU9Z4zkR5uUxP_1x2lQ,"WVJ3+PG Nilphamari, Bangladesh",7MQCWVJ3+PG
Nilphamari Shishu Hospital,25.9312293,88.8534737,not found,not found,"['hospital', 'health', 'point_of_interest', 'establishment']","Hospital Road, Nilphamari",ChIJw0LRkU9Z4zkRcwahVGOmGeM,"WVJ3+F9 Nilphamari, Bangladesh",7MQCWVJ3+F9
এ. আর জেনারেল হসপিটাল। A. R General Hospital,25.9310939,88.8508736,3,1,"['hospital', 'health', 'point_of_interest', 'establishment']","Hospital Road, Nilphamari",ChIJUYkXs_FZ4zkROsF_rgVsir8,"WVJ2+C8 Nilphamari, Bangladesh",7MQCWVJ2+C8
ডায়াবেটিস হাসপাতাল,25.9307906,88.8596548,5,2,"['hospital', 'health', 'point_of_interest', 'establishment']",Nilphamari,ChIJffDpq1BZ4zkReH3zypl0e_c,"WVJ5+8V Nilphamari, Bangladesh",7MQCWVJ5+8V
kanshama Health complex 2,25.9306374,88.7261599,4,2,"['hospital', 'health', 'point_of_interest', 'establishment']",Khansama-Joygonj Bazar Road,ChIJJ9__jR2n5DkRzFwrEF-ifR4,"WPJG+7F Khansama, Bangladesh",7MQCWPJG+7F
Nilphamari sadar Hospital,25.9305521,88.8458404,5,4,"['hospital', 'health', 'point_of_interest', 'establishment']",Nilphamari,ChIJc38vB0hZ4zkR-XmX8KB5aUw,"WRJW+68 Nilphamari, Bangladesh",7MQCWRJW+68
"Adhunik Sadar Hospital, Nilphamari",25.9304607,88.8455249,4.4,18,"['hospital', 'health', 'point_of_interest', 'establishment']","Nilphamari Sadar Upazila, Nilphamari",ChIJbXg4uFRZ4zkRAYs4ZmN-7VY,"WRJW+56 Nilphamari, Bangladesh",7MQCWRJW+56
খানসামা হাসপাতাল,25.930332,88.7263628,3,1,"['hospital', 'health', 'point_of_interest', 'establishment']",Khansama Upazila,ChIJYer_qRyn5DkRTsbQQi24qPs,"WPJG+4G Khansama, Bangladesh",7MQCWPJG+4G
Aditmary Upazila Hospital,25.9255289,89.3439233,5,2,"['hospital', 'health', 'point_of_interest', 'establishment']",Bhadai,ChIJqfb54sAm4zkR0M4JiVl3VQs,"W8GV+6H Bhadai, Bangladesh",7MQFW8GV+6H
Aditmari Upazila Health Complex,25.9255186,89.3439373,5,1,"['hospital', 'health', 'point_of_interest', 'establishment']","Lalmonirhat - Phulbari Road, Bhadai",ChIJmeYfbfcn4zkR1C-XIqKnIwo,"W8GV+6H Bhadai, Bangladesh",7MQFW8GV+6H
"উপজেলা স্বাস্থ্য কমপ্লেক্স, আদিতমারী, লালমনিরহাট",25.9255015,89.3441845,not found,not found,"['hospital', 'health', 'point_of_interest', 'establishment']",Aditmari Upazila,ChIJwSXz_Qon4zkRQ4SlAHVq2Mk,"W8GV+6M Bhadai, Bangladesh",7MQFW8GV+6M
Lalmoni Clinic,25.922047,89.3455196,3,1,"['hospital', 'health', 'point_of_interest', 'establishment']","Aditmari Upazila Parishad, Lalmonirhat - Patgram Highway, Bhadai",ChIJAQAA5MEm4zkRPwAH7QDfpZw,"W8CW+R6 Bhadai, Bangladesh",7MQFW8CW+R6
Lalmonirhat Sadar Hospital,25.9202287,89.4555766,3.8,6,"['hospital', 'health', 'point_of_interest', 'establishment']",Lalmonirhat,ChIJcxWezmrZ4jkRtqIXSrgFeBk,"WFC4+36 Lalmonirhat, Bangladesh",7MQFWFC4+36
কালীগঞ্জ ইউনিয়ন স্বাস্থ কেন্দ্র,25.9200607,89.7510678,not found,not found,"['hospital', 'health', 'point_of_interest', 'establishment']",Kurigram-Kochakata Road,ChIJ0W7tgiG54jkRzJeda3mWw80,"WQC2+2C Balarampur, Bangladesh",7MQFWQC2+2C
লালমনিরহাট উপজেলা প্রাণীসম্পদ অফিস ও ভেটেরিনারি হাসপাতাল,25.919762,89.454923,2.7,3,"['hospital', 'veterinary_care', 'health', 'point_of_interest', 'establishment']",Lalmonirhat Sadar Upazila,ChIJy0-47SLZ4jkRgdcMpHh-eqw,"WF93+WX Lalmonirhat, Bangladesh",7MQFWF93+WX
Lalmoni Clinic,25.9195532,89.4535515,1,1,"['hospital', 'health', 'point_of_interest', 'establishment']","Old Desh Clinic Road, Rangpur",ChIJvxdUGxXZ4jkR9Y1wx4KhQyM,"WF93+RC Lalmonirhat, Bangladesh",7MQFWF93+RC
Lamia Diagnostic Centre,25.9188371,89.4477449,not found,not found,"['hospital', 'health', 'point_of_interest', 'establishment']","Shaptana Road, Lalmonirhat",ChIJN6jUaIbZ4jkRyjhSpXO9vfA,"WC9X+G3 Lalmonirhat, Bangladesh",7MQFWC9X+G3
Dostors Dental Care,25.9163163,89.4446739,not found,not found,"['hospital', 'health', 'point_of_interest', 'establishment']",Lalmonirhat - Phulbari Road,ChIJp-XyB9PZ4jkRMZOvwc0nBJw,"WC8V+GV Lalmonirhat, Bangladesh",7MQFWC8V+GV
বন্ধন হসপিটাল এন্ড ডায়াগনোষ্টিক সেন্টার,25.9141847,89.4282328,not found,not found,"['hospital', 'health', 'point_of_interest', 'establishment']","এল.জি.ই.ডি রোড, Lalmonirhat",ChIJ435QWDjZ4jkRAY7o0D7S6As,"WC7H+M7 Lalmonirhat, Bangladesh",7MQFWC7H+M7
সান ক্লিনিক,25.9135522,89.4360954,not found,not found,"['hospital', 'health', 'point_of_interest', 'establishment']",Lalmonirhat,ChIJL2D1zA7Z4jkRpcLe1DpAoyc,"WC7P+CC Lalmonirhat, Bangladesh",7MQFWC7P+CC
Lalmonirhat Railway Hospital,25.9135263,89.4439726,4.2,10,"['hospital', 'health', 'point_of_interest', 'establishment']","স্টেশন রোড, Lalmonirhat Sadar",ChIJfxiEABvZ4jkRB_7Fki9gvKM,"WC7V+CH Lalmonirhat, Bangladesh",7MQFWC7V+CH
hospital,25.9130615,88.3549302,not found,not found,"['hospital', 'health', 'point_of_interest', 'establishment']","Pirganj Upazila, vill:chandour,post:bhomoradoh,thana:pirganj,dist:thakurgaon thakurgaon,bangladesh",ChIJsTraHhvF5DkRizY9O8ThMPo,"W973+6X Bhomradaha, Bangladesh",7MQCW973+6X
Doctors Dental Care,25.91068,89.4337173,not found,not found,"['hospital', 'health', 'point_of_interest', 'establishment']","লালমনিরহাট সদর উপজেলা, Lalmonirhat Sador Hokars Market Road",ChIJOZnbzZHZ4jkRVyuni9yCEaw,"WC6M+7F Lalmonirhat, Bangladesh",7MQFWC6M+7F
Doctors Dental Care,25.9106156,89.4337025,5,1,"['hospital', 'health', 'point_of_interest', 'establishment']","Airport Road, Lalmonirhat",ChIJbSi54VLZ4jkRFcWAp5JRFzw,"WC6M+6F Lalmonirhat, Bangladesh",7MQFWC6M+6F
Bolidara Community Clinic,25.9091751,88.2270619,5,1,"['hospital', 'health', 'point_of_interest', 'establishment']","Ranisankail Upazila, Bolidara, Ranisonkail",ChIJ__8PKWvZ5DkRAvIOuri63uc,"W65G+MR Bolidara, Bangladesh",7MQCW65G+MR
কিশোরগঞ্জ ডায়াবেটিক হাসপাতাল,25.908855,89.0087796,4.7,3,"['hospital', 'health', 'point_of_interest', 'establishment']","Barabhita - Kishoreganj Road, Kishorganj",ChIJd-xZTiVE4zkRGd-A2QYus2s,"W255+GG Kishorganj, Bangladesh",7MQFW255+GG
Kishoreganj Upazila Helath Complex,25.9076322,89.0164395,not found,not found,"['premise', 'hospital', 'health', 'point_of_interest', 'establishment']",Kishorganj,ChIJjSQ3jChE4zkRcSjSGQUlczI,not found,not found
Mankira Community Clinic,25.907221,88.6639273,not found,not found,"['hospital', 'health', 'point_of_interest', 'establishment']",Community Clinic,ChIJHdL-QuCl5DkR5ibBVay1nzY,"WM47+VH Mandol Para, Bangladesh",7MQCWM47+VH
Doctors Clinic & Digital Diagnostic Complex,25.9021703,88.2550594,5,1,"['hospital', 'health', 'point_of_interest', 'establishment']",Ranisankail,ChIJjY8Fzn7b5DkRQnV0q6n5IHY,"W724+V2 Ranisankail, Bangladesh",7MQCW724+V2
Doctors Clinic & Digital Diagnostic Complex,25.9016905,88.2552063,not found,not found,"['hospital', 'health', 'point_of_interest', 'establishment']","Shibdighi, Ranisankail",ChIJeSUCX0bb5DkRRzjTR4qawdQ,"W724+M3 Ranisankail, Bangladesh",7MQCW724+M3
ranisnkail upozila Hospital,25.9011317,88.2541755,5,1,"['hospital', 'health', 'point_of_interest', 'establishment']",Ranisankail,ChIJSUa07Lfb5DkRo6zWy-tXZuQ,"W723+FM Ranisankail, Bangladesh",7MQCW723+FM
Upazila health complex,25.9010821,88.2541337,5,2,"['hospital', 'health', 'point_of_interest', 'establishment']",Ranisankail,ChIJUfrknNrb5DkRfM-WsQEO5F0,"W723+CM Ranisankail, Bangladesh",7MQCW723+CM
Government Hospital,25.8996426,89.0129461,5,2,"['hospital', 'health', 'point_of_interest', 'establishment']",Kishorganj,ChIJ1-QLeSxE4zkRrLknOSYr-UE,"V2X7+V5 Kishorganj, Bangladesh",7MQFV2X7+V5
Upozila Health Complex,25.8995126,89.0127546,5,1,"['hospital', 'health', 'point_of_interest', 'establishment']",Kishorganj,ChIJgVmOeyxE4zkRLmGvvpo0huE,"V2X7+R4 Kishorganj, Bangladesh",7MQFV2X7+R4
৫০ শয্যা বিশিষ্ট উপজেলা স্বাস্থ্য কমপ্লেক্স,25.8994176,89.0133461,5,1,"['hospital', 'health', 'point_of_interest', 'establishment']","Kishoregonj-Rangpur Rd, Kishorganj",ChIJUyvzLj5F4zkRW2Q2spvCOck,"V2X7+Q8 Kishorganj, Bangladesh",7MQFV2X7+Q8
Kushoregonj Upazilla Health Complex,25.8993787,89.0133561,not found,not found,"['hospital', 'health', 'point_of_interest', 'establishment']",Kishorganj,ChIJ22QWgStE4zkR4mYImcFoR5o,"V2X7+Q8 Kishorganj, Bangladesh",7MQFV2X7+Q8
Ma O Shishu Hospital,25.8993744,88.2588313,4.5,2,"['hospital', 'health', 'point_of_interest', 'establishment']","Thakurgaon - Nekmand - Pirganj - Birganj Road, Ranisankail",ChIJbctGDc_b5DkRb_hWGb8k-H0,"V7X5+PG Ranisankail, Bangladesh",7MQCV7X5+PG
MaSishu Hospital,25.8993723,88.2588446,5,1,"['hospital', 'health', 'point_of_interest', 'establishment']","Thakurgaon - Nekmand - Pirganj - Birganj Road, Ranisankail",ChIJyYVDDc_b5DkRwldn3MwblGg,"V7X5+PG Ranisankail, Bangladesh",7MQCV7X5+PG
Kishoreganj Upazila Health Complex,25.8992894,89.0124063,not found,not found,"['hospital', 'premise', 'health', 'point_of_interest', 'establishment']",Kishoreganj,ChIJg6iCeyxE4zkR4VrJzwdiZRQ,not found,not found
মডার্ন ডেন্টাল,25.8941624,88.2644589,4,2,"['hospital', 'health', 'point_of_interest', 'establishment']","College Road Z5002, Ranisankail 5120 Z5002, Ranisankail",ChIJhYy0F8rb5DkRST1c30We51k,"V7V7+MQ Ranisankail, Bangladesh",7MQCV7V7+MQ
Hospital,25.892737,89.083226,4.5,2,"['hospital', 'health', 'point_of_interest', 'establishment']","Garagram Bus Stand, Rangpur - Jaldhaka Road",ChIJoftvKc1H4zkRHNRVLujleoI,"V3VM+37 Betgari, Bangladesh",7MQFV3VM+37
Shiromoni Digital Clinic And Diagonostic Center,25.8920465,88.2582857,not found,not found,"['hospital', 'health', 'point_of_interest', 'establishment']",Ranisankail,ChIJnevKuSfb5DkRe0xBuxWI5h8,"V7R5+R8 Ranisankail, Bangladesh",7MQCV7R5+R8
Char Eshorkol Community Clinic চর ইশোরকোল কমিউনিটি ক্লিনিক,25.8913376,89.2901911,4.5,4,"['hospital', 'health', 'point_of_interest', 'establishment']",Gangachara Upazila,ChIJIf7ZC5Ql4zkR0ZqibKWpfxk,"V7RR+G3 Lakshmitary, Bangladesh",7MQFV7RR+G3
Community Clinic,25.8907371,89.1491255,4,1,"['hospital', 'health', 'point_of_interest', 'establishment']",Gangachara Upazila,ChIJLzNJ06M54zkRRrcet615HAo,"V4RX+7M Betgari, Bangladesh",7MQFV4RX+7M
রাণীশংকৈল ডায়াবেটিস হসপিটাল,25.8901367,88.2469994,not found,not found,"['hospital', 'health', 'point_of_interest', 'establishment']","খুনিয়া দিঘি Road, Ranisankail",ChIJi3oHlInb5DkRfVZoCOzR8I8,"V6RW+3Q Ranisankail, Bangladesh",7MQCV6RW+3Q
যাদুরাণী হাসপাতাল,25.8880204,88.1713158,5,1,"['hospital', 'health', 'point_of_interest', 'establishment']",Haripur Upazila,ChIJdeqwkzfZ5DkRrDCyEmVaZ6I,"V5QC+6G Kamarpukur, Bangladesh",7MQCV5QC+6G
হিপোক্রিটাস্ মেডিকেল হল,25.8873279,88.8682486,5,2,"['hospital', 'health', 'point_of_interest', 'establishment']","Nilphamari Sadar Upazila, Saidpur - Nilphamari Rd",ChIJl1MIFCla4zkRPdLMqmQK2sk,"VVP9+W7 Darwani, Bangladesh",7MQCVVP9+W7
Nijpara Comunity Clinic,25.8833039,88.6652453,not found,not found,"['hospital', 'health', 'point_of_interest', 'establishment']",Birganj Upazila,ChIJFyAGlk-l5DkRA4iCP-q9wvk,"VMM8+83 Birganj, Bangladesh",7MQCVMM8+83
Upazila Health Complex,25.8800864,88.6357118,3,1,"['hospital', 'health', 'point_of_interest', 'establishment']",Birganj Upazila,ChIJ3dshmUql5DkR04mk9PcY8nc,"VJJP+27 Birganj, Bangladesh",7MQCVJJP+27
"উপজেলা স্বাস্থ্য কমপ্লেক্স, পাকেরহাট,খানসামা",25.8784815,88.7656547,not found,not found,"['hospital', 'health', 'point_of_interest', 'establishment']","Paker Hat, Pakerhat",ChIJ-UnrTf-n5DkRBT3RQV0XJqw,"VQH8+97 Pakerhat, Bangladesh",7MQCVQH8+97
TMSS Hospital,25.877293,88.619565,not found,not found,"['hospital', 'health', 'point_of_interest', 'establishment']",Birganj Upazila,ChIJW-70OQK75DkRI2RfLBAIg9w,"VJG9+WR Birganj, Bangladesh",7MQCVJG9+WR
Bhogdoma Community Clinic,25.8730337,88.7036731,not found,not found,"['hospital', 'health', 'point_of_interest', 'establishment']",Birganj Upazila,ChIJ5_idISKl5DkRagjHq4-nR94,"VPF3+6F Bhogdoma, Bangladesh",7MQCVPF3+6F
মহেন্দ্রনগর ইউনিয়ন স্বাস্থ্য ক্লিনিক,25.8703877,89.4564292,5,1,"['hospital', 'health', 'point_of_interest', 'establishment']",Mahendranagar,ChIJ_cy0aurZ4jkReeLu6_84oQg,"VFC4+5H Mahendranagar, Bangladesh",7MQFVFC4+5H
"Upazila Health Complex, Pakerhat, Khansama",25.8684158,88.7812066,3.7,3,"['hospital', 'health', 'point_of_interest', 'establishment']",Paker Hat,ChIJD0dpBfOn5DkR-m8P8vRE1lM,"VQ9J+9F Pakerhat, Bangladesh",7MQCVQ9J+9F
"উপজেলা স্বাস্থ্য কমপ্লেক্স, পাকেরহাট,খানসামা",25.8677373,88.7811036,5,1,"['hospital', 'health', 'point_of_interest', 'establishment']",Paker Hat,ChIJM_r8Ecmn5DkRXEo8ANk_XJg,"VQ9J+3C Pakerhat, Bangladesh",7MQCVQ9J+3C
pakerhat hospital,25.8670535,88.7834953,5,3,"['hospital', 'health', 'point_of_interest', 'establishment']",Khansama Upazila,ChIJQ2WBcPSn5DkRYkd98xWpX_0,"VQ8M+R9 Pakerhat, Bangladesh",7MQCVQ8M+R9
Family planing Hospital,25.8651305,89.2541595,not found,not found,"['hospital', 'health', 'point_of_interest', 'establishment']",Gangachara Upazila,ChIJh0HrCdUl4zkRax3NYjel7rQ,"V783+3M Lakshmitary, Bangladesh",7MQFV783+3M
Seven Star Clinic,25.8650837,88.6597297,3,1,"['hospital', 'health', 'point_of_interest', 'establishment']","Birganj-Khansama-Jharbari Road, Birganj",ChIJXXaEN2yl5DkR6xZpKPPACvw,"VM85+2V Birganj, Bangladesh",7MQCVM85+2V
সিটি নার্সিং হোম এন্ড ডায়াগনস্টিক সেন্টার,25.8644097,88.6503335,4.5,2,"['hospital', 'health', 'point_of_interest', 'establishment']","Dhaka - Thakurgaon Highway, Birganj",ChIJn1Jyd0Gl5DkRz8rlCkYJsYw,"VM72+Q4 Birganj, Bangladesh",7MQCVM72+Q4
City Nursing Home & Diagnostic Center,25.8642197,88.6504197,4,2,"['hospital', 'health', 'point_of_interest', 'establishment']","Dhaka - Thakurgaon Highway, Birganj",ChIJISRcNEGl5DkRrtB26a4V9uw,"VM72+M5 Birganj, Bangladesh",7MQCVM72+M5
Pirganj Upazila Health Complex,25.8638291,88.3583853,4.5,23,"['hospital', 'health', 'point_of_interest', 'establishment']",Pirganj,ChIJi2q5iHTF5DkRTwiILGqf6-g,"V975+G9 Pirganj, Bangladesh",7MQCV975+G9
"ডরমেটরী, পীরগঞ্জ উপজেলা স্বাস্থ্য কমপ্লেক্স, ঠাকুরগাঁও।",25.8637279,88.3589099,not found,not found,"['hospital', 'health', 'point_of_interest', 'establishment']",Pirganj,ChIJMbFVSuLF5DkRLKPloVNqVfA,"V975+FH Pirganj, Bangladesh",7MQCV975+FH
Huglipara Community Clinic,25.8622519,88.9007791,not found,not found,"['hospital', 'health', 'point_of_interest', 'establishment']","Road, নীলফামারী",ChIJcRYG_WJa4zkRm8j-CdvrkmQ,"VW62+W8 Saidpur, Bangladesh",7MQCVW62+W8
বেতগাড়ী ইউনিয়ন উপস্বাস্থ্য কেন্দ্র,25.861585,89.142511,not found,not found,"['hospital', 'health', 'point_of_interest', 'establishment']",Betgari,ChIJJ7Cr9YY54zkRC2r7QoN5DFA,"V46V+J2 Betgari, Bangladesh",7MQFV46V+J2
Betgari Union Health Sub Centre,25.8611596,89.1426413,5,1,"['hospital', 'health', 'point_of_interest', 'establishment']",Betgari,ChIJrZ8Fsto54zkRIwUKTtqSqHc,"V46V+F3 Betgari, Bangladesh",7MQFV46V+F3
সিন্দাগড় কমিউনিটি ক্লিনিক,25.8606826,88.3579301,2,1,"['hospital', 'health', 'point_of_interest', 'establishment']",Pirganj,ChIJVVVVVXHF5DkRtq9axlTtVH4,"V965+75 Pirganj, Bangladesh",7MQCV965+75
hazipur health complex,25.8606826,88.3579301,not found,not found,"['hospital', 'health', 'point_of_interest', 'establishment']",Pirganj,ChIJVVVVVXHF5DkR2TF43KTY54M,"V965+75 Pirganj, Bangladesh",7MQCV965+75
পীরগঞ্জ ডায়াবেটিস হাসপাতাল,25.8606826,88.3579301,not found,not found,"['hospital', 'health', 'point_of_interest', 'establishment']",Pirganj,ChIJqUfV1KHF5DkRhA0Cg-Q1cLY,"V965+75 Pirganj, Bangladesh",7MQCV965+75
Birgonj Diabetic Hospital,25.8597796,88.6541658,4.4,5,"['hospital', 'health', 'point_of_interest', 'establishment']",Birganj,ChIJd_aYUGil5DkRiwA-s2lTaZ8,"VM53+WM Birganj, Bangladesh",7MQCVM53+WM
comfort dental care,25.8590338,88.6550153,4,3,"['hospital', 'health', 'point_of_interest', 'establishment']",Birganj,ChIJV1VZZmil5DkRg2ChLE0c9r8,"VM54+J2 Birganj, Bangladesh",7MQCVM54+J2
Bhogdoma Community Clinic,25.8582282,88.7012651,not found,not found,"['hospital', 'health', 'point_of_interest', 'establishment']",Birganj Upazila,ChIJU7YcJSil5DkRza7NSOONMng,"VP52+7G Sanka, Bangladesh",7MQCVP52+7G
Hospital,25.8580029,88.3561958,not found,not found,"['hospital', 'health', 'point_of_interest', 'establishment']","Unnamed Road, Pirganj",ChIJVS2qfSvF5DkR99nBzI0rr4M,"V954+6F Pirganj, Bangladesh",7MQCV954+6F
nurunnahar community clinic,25.8578217,89.25596,5,1,"['hospital', 'health', 'point_of_interest', 'establishment']",Lakshmitary,ChIJTZgvn1Al4zkRa4AChJ0WQNI,"V754+49 Lakshmitary, Bangladesh",7MQFV754+49
Pirganj Diabetes Hospital,25.8576076,88.3395715,not found,not found,"['hospital', 'health', 'point_of_interest', 'establishment']",Pirganj Upazila,ChIJSzf4cIbF5DkR5qfbVMAudo8,"V85Q+2R Pirganj, Bangladesh",7MQCV85Q+2R
নুরুন্নাহার কমিউনিটি ক্লিনিক,25.8575527,89.2558955,not found,not found,"['hospital', 'health', 'point_of_interest', 'establishment']",Lakshmitary,ChIJmZQkolAl4zkRBthgNdhjgGI,"V754+29 Lakshmitary, Bangladesh",7MQFV754+29
পীরগঞ্জ ডায়াবেটিস হাসপাতাল,25.8575277,88.3395638,5,1,"['hospital', 'health', 'point_of_interest', 'establishment']",Thakurgaon - Nekmand - Pirganj - Birganj Road,ChIJsVF2ZIDF5DkRTZVtkxHHcXw,"V85Q+2R Pirganj, Bangladesh",7MQCV85Q+2R
Pirganj Diabetes Hospital,25.8555868,88.348756,not found,not found,"['hospital', 'health', 'point_of_interest', 'establishment']",Borth paligoan,ChIJnSFiuRnF5DkR4eXtSju6-Ds,"V84X+6G Pirganj, Bangladesh",7MQCV84X+6G
গঙ্গাচড়া হাসপাতাল,25.8547923,89.2221879,not found,not found,"['hospital', 'health', 'point_of_interest', 'establishment']",Gangachara,ChIJN-XjFpw64zkRBtnsFWjkqb4,"V63C+WV Gangachara, Bangladesh",7MQFV63C+WV
Gangachara Upazila Health Complex,25.8544999,89.2219824,4.4,10,"['hospital', 'health', 'point_of_interest', 'establishment']",Gangachara,ChIJ0fgXPpw64zkRwt-srmnHkk0,"V63C+QQ Gangachara, Bangladesh",7MQFV63C+QQ
Gangachora Community Hospital,25.850679,89.2187208,not found,not found,"['hospital', 'health', 'point_of_interest', 'establishment']","Thanapara Road, Gangachara",ChIJ20xmUJ064zkRsp3RZNv-6eA,"V629+7F Gangachara, Bangladesh",7MQFV629+7F
Boarder Hat Hospital,25.8497279,88.7539315,not found,not found,"['hospital', 'health', 'point_of_interest', 'establishment']",Kayempur - Boarder Hat Road,ChIJFxGi1NWn5DkRGT7Z4vW1slQ,"RQX3+VH Pakerhat, Bangladesh",7MQCRQX3+VH
Asa Kathalbari Health Center,25.8490677,89.5868922,5,3,"['hospital', 'health', 'point_of_interest', 'establishment']","কুড়িগ্রাম সদর উপজেলা, Kurigram Kathalbari",ChIJD6fytxzP4jkRfKfyjMYOv1U,"RHXP+JQ Barabari, Bangladesh",7MQFRHXP+JQ
Sangalshi Govt. Hospital,25.8469731,88.8679415,5,2,"['hospital', 'health', 'point_of_interest', 'establishment']","নীলফামারী সদর উপজেলা, 5300",ChIJ3YwTbqpQ4zkRyq_n2kntSek,"RVW9+Q5 Kazirhat, Bangladesh",7MQCRVW9+Q5
ওকড়াবাড়ি কমিউনিটি ক্লিনিক,25.8454029,89.1695686,not found,not found,"['hospital', 'health', 'point_of_interest', 'establishment']","Unnamed Road, Barabil",ChIJPXu57UU34zkRQpUiMv-jNkM,"R5W9+5R Barabil, Bangladesh",7MQFR5W9+5R
মানকিরা কমিউনিটি ক্লিনিক,25.8442952,88.6174785,not found,not found,"['hospital', 'health', 'point_of_interest', 'establishment']",Birganj Upazila,ChIJmTfjRrOx5DkR2HfvYyQ00OA,"RJV8+PX Birganj, Bangladesh",7MQCRJV8+PX
Mankira Community Clinic,25.8426685,88.6168969,not found,not found,"['hospital', 'health', 'point_of_interest', 'establishment']",Birganj Upazila,ChIJs0ezwBax5DkR7u5pVhUG134,"RJV8+3Q Birganj, Bangladesh",7MQCRJV8+3Q
Mission General Hospital,25.8388454,88.8727959,5,3,"['hospital', 'health', 'point_of_interest', 'establishment']","Saidpur - Nilphamari Road, Saidpur",ChIJFXHqQQ1R4zkRVAGqs0qKmC4,"RVQF+G4 Kazirhat, Bangladesh",7MQCRVQF+G4
Haripur Upazila Health Complex,25.8336127,88.1324536,4.3,19,"['hospital', 'health', 'point_of_interest', 'establishment']",Haripur,ChIJ2fNTI3wo5TkRKEF-OVtxEHU,"R4MJ+CX Haripur, Bangladesh",7MQCR4MJ+CX
সিন্দাগড় কমিউনিটি ক্লিনিক,25.8313238,88.2655948,5,4,"['hospital', 'health', 'point_of_interest', 'establishment']",Pirganj Upazila,ChIJfX0K_rzR5DkRl46pj6hOj1g,"R7J8+G6 Chapar Parbatipur, Bangladesh",7MQCR7J8+G6
দক্ষিন পানাপুকুর কমিউনিটি ক্লিনিক,25.8295656,89.1845753,3.5,2,"['hospital', 'health', 'point_of_interest', 'establishment']",Gangachara Upazila,ChIJX3oGVQcx4zkR6O7lj2CRXrU,"R5HM+RR Barabil, Bangladesh",7MQFR5HM+RR
আধগ্রাম কমিউনিটি ক্লিনিক,25.8270156,89.5857996,not found,not found,"['hospital', 'health', 'point_of_interest', 'establishment']",Kurigram Sadar Upazila,ChIJMe48WxrP4jkRgXWfJmKspRM,"RHGP+R8 Rajarhat, Bangladesh",7MQFRHGP+R8
আধগ্রাম কমিউনিটি ক্লিনিক,25.826574,89.5865559,not found,not found,"['hospital', 'health', 'point_of_interest', 'establishment']",Kurigram Sadar Upazila,ChIJQZ0YDHXP4jkRlJ1wn94QMwE,"RHGP+JJ Rajarhat, Bangladesh",7MQFRHGP+JJ
hazipur union health complex,25.8258642,88.3200586,not found,not found,"['hospital', 'health', 'point_of_interest', 'establishment']",Pirganj,ChIJvdihFhzQ5DkRbXSOu4fb7UY,"R8GC+82 Satia, Bangladesh",7MQCR8GC+82
Jannat Dental Care & Dental X- Ray,25.8252407,88.1346658,5,1,"['hospital', 'health', 'point_of_interest', 'establishment']","হরিপুর উপজেলা, Moslemuddin college road, kaligong",ChIJWSmfsUIp5TkRHaycZHlHb2g,"R4GM+3V Haripur, Bangladesh",7MQCR4GM+3V
বড় সুলতানপুর স্বাস্থ্য কমপ্লেক্স,25.8249459,88.40346,not found,not found,"['hospital', 'health', 'point_of_interest', 'establishment']",Sultanpur,ChIJWQg17EnJ5DkRQFNd9XH34lo,"RCF3+X9 Chairman Para, Bangladesh",7MQCRCF3+X9
ইউনিয়ন স্বাস্থ্য ও পরিবার কল্যাণ কেন্দ্র।,25.8249374,88.4034023,5,2,"['hospital', 'health', 'point_of_interest', 'establishment']",Bochaganj Upazila,ChIJWU9uAd_J5DkR93gN-Cuyy9k,"RCF3+X9 Chairman Para, Bangladesh",7MQCRCF3+X9
Seba somiti Community Clinic,25.8245324,89.509076,not found,not found,"['hospital', 'health', 'point_of_interest', 'establishment']",Seba Somiti,ChIJ5wiHa5jR4jkRIvA6IxI1oIk,"RGF5+RJ Panchagram, Bangladesh",7MQFRGF5+RJ
কুড়িগ্রাম ডায়াবেটিক হাসপাতাল,25.8185927,89.6514808,not found,not found,"['hospital', 'health', 'point_of_interest', 'establishment']","Pourosava Road, Kurigram",ChIJIyUYTT7J4jkRGojnwVnJjjk,"RM92+CH Kurigram, Bangladesh",7MQFRM92+CH
Jatrapur Health Centre,25.8175302,89.728325,5,1,"['hospital', 'health', 'point_of_interest', 'establishment']",Kurigram,ChIJY4b5s7q34jkReW88FHObhe4,"RP9H+28 Jatnapur, Bangladesh",7MQFRP9H+28
নির্ণয় স্বাস্থ্য নিকেতন,25.8155202,89.2367895,not found,not found,"['hospital', 'health', 'point_of_interest', 'establishment']","Gajaghanta Road, Pashuram",ChIJq8LJsTow4zkRVjF20P7_egg,"R68P+6P Pashuram, Bangladesh",7MQFR68P+6P
Taraganj Community Clinic,25.8143038,89.0103521,not found,not found,"['hospital', 'premise', 'health', 'point_of_interest', 'establishment']",Kursha,ChIJ_cP5MDBP4zkRGYY3UO3Tto0,not found,not found
Burir Hat Community Hospital,25.8129958,89.2368472,4.5,4,"['hospital', 'health', 'point_of_interest', 'establishment']","Rangpur - Gangachara Road, Pashuram",ChIJbbDJIzAw4zkRbVwiEcoeN20,"R67P+5P Pashuram, Bangladesh",7MQFR67P+5P
সূর্যের হাসি ক্লিনিক,25.8117381,89.3268155,not found,not found,"['hospital', 'health', 'point_of_interest', 'establishment']","2 Munshipara Road, Haragach",ChIJ9z1hYrsp4zkR7QyB1POYhQo,"R86G+MP Haragach, Bangladesh",7MQFR86G+MP
স্যাটেলাইট ক্লিনিক,25.8117048,88.5360138,not found,not found,"['hospital', 'health', 'point_of_interest', 'establishment']",Bonchaganj-Kaharole Road,ChIJVTjMGFa35DkRv8reEBYw2sg,"RG6P+MC Tarapur, Bangladesh",7MQCRG6P+MC
Green Life General Hospital,25.8113592,89.6447322,4.3,3,"['hospital', 'health', 'point_of_interest', 'establishment']","Kurigram General Hospital Road, Kurigram",ChIJ43LO-BPJ4jkRA-U1cGmyS5w,"RJ6V+GV Kurigram, Bangladesh",7MQFRJ6V+GV
Pain Care Chiropractic Clinic - ব্যথার যত্নে,25.8112479,89.1458997,5,3,"['hospital', 'health', 'point_of_interest', 'establishment']","Rangpur Sadar Upazila, Addin Academy Road, Paglapir Bazar Rangpur",ChIJt3HTQeU34zkRJ-4Bh7Fjdcs,"R46W+F9 Haridebpur, Bangladesh",7MQFR46W+F9
Dr Nayon Health Care Centre,25.8112067,89.146011,5,4,"['doctor', 'hospital', 'health', 'point_of_interest', 'establishment']","Addin Academy, Road, Paglapir Bazar, Rangpur",ChIJk6Z6aLs34zkRkfOX2SGphDs,"R46W+FC Haridebpur, Bangladesh",7MQFR46W+FC
Taragonj Upazilla Health Complex,25.8109187,89.0314067,5,1,"['hospital', 'health', 'point_of_interest', 'establishment']",Taraganj Upazila,ChIJ_8oAVp1J4zkRG6Ea3Ah_XlA,"R26J+9H Kursha, Bangladesh",7MQFR26J+9H
Taraganj Upazila Health Complex,25.8106984,89.030926,not found,not found,"['hospital', 'premise', 'health', 'point_of_interest', 'establishment']",Kursha,ChIJTxPWCNtI4zkRtWoJoICn5bE,not found,not found
Rajarhat Hospital,25.8101731,89.5444017,4,1,"['hospital', 'health', 'point_of_interest', 'establishment']",Rajarhat Upazila,ChIJrzmD_RjR4jkRcUzJrUU3IOY,"RG6V+3Q Rajarhat, Bangladesh",7MQFRG6V+3Q
New Labaid Clinic,25.8092228,89.6446826,not found,not found,"['hospital', 'health', 'point_of_interest', 'establishment']",Kurigram,ChIJdXWnvODI4jkR-fPV-RosJA4,"RJ5V+MV Kurigram, Bangladesh",7MQFRJ5V+MV
Updet Diagnostic Center,25.8089634,89.6481009,not found,not found,"['hospital', 'health', 'point_of_interest', 'establishment']","General Hospital Road, Kurigram",ChIJSev6s23J4jkRZJLjJQzeutk,"RJ5X+H6 Kurigram, Bangladesh",7MQFRJ5X+H6
Haque Diagnostic,25.8089397,89.6463621,4,1,"['hospital', 'health', 'point_of_interest', 'establishment']",Kurigram Sadar Upazila,ChIJ02larjrJ4jkRY-_FSEq2Ty4,"RJ5W+HG Kurigram, Bangladesh",7MQFRJ5W+HG
"Maternity, Kurigram",25.8088541,89.643971,not found,not found,"['hospital', 'health', 'point_of_interest', 'establishment']",Kurigram,ChIJ0w4CIN7I4jkRV8kQn5UyzRM,"RJ5V+GH Kurigram, Bangladesh",7MQFRJ5V+GH
Update Clinic,25.808777,89.6480713,not found,not found,"['hospital', 'health', 'point_of_interest', 'establishment']",Kurigram,ChIJTctM0vXJ4jkRMO2uxvVygrg,"RJ5X+G6 Kurigram, Bangladesh",7MQFRJ5X+G6
Kurigram Sadar Hospital,25.808619,89.6446995,4.4,39,"['hospital', 'health', 'point_of_interest', 'establishment']","Kurigram General Hospital Road, Kurigram",ChIJkyB_meDI4jkRmxjTAiA3tFg,"RJ5V+CV Kurigram, Bangladesh",7MQFRJ5V+CV
Upazila Health Complex,25.8083727,89.5451249,4.8,6,"['hospital', 'health', 'point_of_interest', 'establishment']",Rajarhat,ChIJ495diivQ4jkRumXR-BzgZAk,"RG5W+82 Rajarhat, Bangladesh",7MQFRG5W+82
Rajarhat Upazila Health Complex,25.8082105,89.544751,not found,not found,"['hospital', 'premise', 'health', 'point_of_interest', 'establishment']",Rajarhat,ChIJsY-VdSzQ4jkRnwY5DMgpTqo,not found,not found
"Healthy Village Community Health Center, BRIF",25.807058,88.7763709,5,4,"['hospital', 'health', 'point_of_interest', 'establishment']","Khansama Upazila, BRIF Campus",ChIJFWmBDv6p5DkRGW5ReAHY5R4,"RQ4G+RG Ranir Bandar, Bangladesh",7MQCRQ4G+RG
পপুলার হসপিটাল লিমিটেড,25.8053842,89.6438342,not found,not found,"['hospital', 'health', 'point_of_interest', 'establishment']",College Para,ChIJvZmt49_I4jkRtIhTJQQ0__g,"RJ4V+5G Kurigram, Bangladesh",7MQFRJ4V+5G
Popular General (P G) Hospital,25.8052927,89.6440721,4.1,19,"['hospital', 'health', 'point_of_interest', 'establishment']","General Hospital Road, Kurigram",ChIJdSrACODI4jkRNbCobs0wHs8,"RJ4V+4J Kurigram, Bangladesh",7MQFRJ4V+4J
ইউনিয়ন স্বাস্থ্য ও পরিবার কল্যাণ কেন্দ্র,25.8011949,89.4883549,5,1,"['hospital', 'health', 'point_of_interest', 'establishment']",Rajarhat Upazila,ChIJxSty8WLR4jkR0DoUWx_vMTE,"RF2Q+F8 Panchagram, Bangladesh",7MQFRF2Q+F8
Bochaganj Upazila Health Complex,25.7999526,88.4665782,not found,not found,"['hospital', 'premise', 'health', 'point_of_interest', 'establishment']",Bochaganj,ChIJs77gqTPI5DkRYVzcV0eU664,not found,not found
Bochaganj Hospital,25.7995323,88.4665084,2.8,6,"['hospital', 'health', 'point_of_interest', 'establishment']",Bochaganj,ChIJh8NHBjPI5DkRY1t7H7Oz18M,"QFX8+RJ Bochaganj, Bangladesh",7MQCQFX8+RJ
Haragach 31 beded Hospital,25.7994724,89.3181734,not found,not found,"['hospital', 'premise', 'health', 'point_of_interest', 'establishment']",Haragach,ChIJkbplJtQu4zkRw8fdvYFLLeE,not found,not found
হারাগাছ সরকারি হাসপাতাল,25.7993629,89.3181992,not found,not found,"['hospital', 'health', 'point_of_interest', 'establishment']",Haragach,ChIJuee_PZEv4zkRxG1tYV60SnM,"Q8X9+P7 Haragach, Bangladesh",7MQFQ8X9+P7
হারাগাছ ৫১ শয্যা হাসপাতাল,25.7993611,89.3181328,5,1,"['hospital', 'health', 'point_of_interest', 'establishment']",Kaunia Upazila,ChIJLZfpVqYv4zkR3rrUN2s0wp8,"Q8X9+P7 Haragach, Bangladesh",7MQFQ8X9+P7
Brac Mini Hospital,25.7983215,89.6363837,not found,not found,"['hospital', 'health', 'point_of_interest', 'establishment']","Kurigram - Chilmari Road, Kurigram, K.C Road Kurigram - Chilmari Road, Kurigram",ChIJf6ic1yXJ4jkRhjUUA4k5v0g,"QJXP+8H Kurigram, Bangladesh",7MQFQJXP+8H
খালাসউদ্দীন চৌধরী স্বাস্থ্যসেবা কেন্দ্র,25.7968062,88.4639951,5,2,"['hospital', 'health', 'point_of_interest', 'establishment']",Bochaganj,ChIJkdWrsjTI5DkRvR6-pd7bwI4,"QFW7+PH Bochaganj, Bangladesh",7MQCQFW7+PH
Saidpur Community Clinic,25.7925981,89.1018371,not found,not found,"['hospital', 'health', 'point_of_interest', 'establishment']","Munshipara Road, Hariarkuti",ChIJyXmK9DQ34zkROVLPMj-4Tpc,"Q4V2+2P Hariarkuti, Bangladesh",7MQFQ4V2+2P
Goverment health Centre,25.7922721,89.1491081,5,1,"['hospital', 'health', 'point_of_interest', 'establishment']",Rangpur Sadar Upazila,ChIJxQw8S-Y24zkRCIq80GIoJ1I,"Q4RX+WJ Haridebpur, Bangladesh",7MQFQ4RX+WJ
Burail Hat Community Hospital,25.7899415,89.2621994,not found,not found,"['hospital', 'health', 'point_of_interest', 'establishment']","Harati Road, Pashuram",ChIJGczcwTku4zkROZPpvFgYA68,"Q7Q6+XV Pashuram, Bangladesh",7MQFQ7Q6+XV
Filaria Hospital & C.D.C,25.7890142,88.903985,4.8,20,"['hospital', 'health', 'point_of_interest', 'establishment']",Saidpur,ChIJiVAiCqhR4zkRE2rX1umPzTE,"QWQ3+JH Saidpur, Bangladesh",7MQCQWQ3+JH
Railway Hospital,25.7849931,88.8913237,4.1,13,"['hospital', 'health', 'point_of_interest', 'establishment']",Saidpur,ChIJywYvuhFR4zkRZ0zGiAuY78U,"QVMR+XG Saidpur, Bangladesh",7MQCQVMR+XG
Astha Diagnostic Center,25.7840786,88.8960796,5,1,"['hospital', 'health', 'point_of_interest', 'establishment']","Mobarak Ali Lane, Saidpur",ChIJ_fVnsftR4zkRTYcNQGoIzwE,"QVMW+JC Saidpur, Bangladesh",7MQCQVMW+JC
Saidpur Upazila Health Complex outdor,25.7836638,88.8953942,4.3,18,"['hospital', 'health', 'point_of_interest', 'establishment']",Saidpur,ChIJ7RrTeg5R4zkRu7Xx_Iu1knw,"QVMW+F5 Saidpur, Bangladesh",7MQCQVMW+F5
Health Care Digital Diagnostic Centre,25.7829924,88.8972275,not found,not found,"['hospital', 'health', 'point_of_interest', 'establishment']","S. R. Plaza, সৈয়দপুর",ChIJkXbbwiFR4zkRVeUmp7ehIVg,"QVMW+5V Saidpur, Bangladesh",7MQCQVMW+5V
Ranoska Clinic,25.7829542,88.8982666,5,1,"['hospital', 'health', 'point_of_interest', 'establishment']","সৈয়দপুর উপজেলা, Kilkhana Road, Banshbari",ChIJp1_JHCBR4zkR5dVv-J7U5L8,"QVMX+58 Saidpur, Bangladesh",7MQCQVMX+58
Rotary Eye Hospital,25.7797325,88.8933749,4.3,3,"['hospital', 'health', 'point_of_interest', 'establishment']","Dhaka - Rangpur Highway, Saidpur",ChIJ0b2wgRJR4zkRhH0issGIoaE,"QVHV+V8 Saidpur, Bangladesh",7MQCQVHV+V8
Saidpur Community Eye Hospital,25.7796947,88.9048867,not found,not found,"['hospital', 'health', 'point_of_interest', 'establishment']","Sarkarpara, Doctor Koffar Road, Saidpur",ChIJL3QrmJZR4zkRkN9YJVVx6DY,"QWH3+VX Saidpur, Bangladesh",7MQCQWH3+VX
"Alpha Diagnostic Centre,Saidpur",25.7794229,88.8975246,5,1,"['hospital', 'health', 'point_of_interest', 'establishment']","Station Road, Saidpur",ChIJp923EulR4zkRggW0jAWdoMc,"QVHX+Q2 Saidpur, Bangladesh",7MQCQVHX+Q2
Morium Eye hospital মরিয়ম চক্ষু হাসপাতাল,25.779148,88.9050184,5,2,"['hospital', 'health', 'point_of_interest', 'establishment']",Saidpur Upazila,ChIJqzIxYy5R4zkRQvrr6s9lmrY,"QWH4+M2 Saidpur, Bangladesh",7MQCQWH4+M2
mother & child health care centre মা ও শিশু স্বাস্হ্য কেন্দ্র,25.778984,88.8942369,not found,not found,"['hospital', 'health', 'point_of_interest', 'establishment']",paurashava road,ChIJyaFIEu1R4zkR97JecF4pZrM,"QVHV+HM Saidpur, Bangladesh",7MQCQVHV+HM
mother & child health care center মা ও শিশু কল্যান কেন্দ্র,25.7788841,88.8941732,not found,not found,"['hospital', 'health', 'point_of_interest', 'establishment']",Saidpur Upazila,ChIJF33Jz39R4zkR1szHXTMLo14,"QVHV+HM Saidpur, Bangladesh",7MQCQVHV+HM
"Surjer Hashi Clinic, Saidpur",25.7786365,88.9047573,not found,not found,"['hospital', 'health', 'point_of_interest', 'establishment']","Dhaka - Rangpur Highway, Saidpur",ChIJKfkNUcdR4zkRiSWYH1Wtaes,"QWH3+FW Saidpur, Bangladesh",7MQCQWH3+FW
সিটি কমিউনিটি হাসপাতাল,25.7782446,88.8955092,not found,not found,"['hospital', 'health', 'point_of_interest', 'establishment']","Dhaka - Dinajpur Highway, Saidpur",ChIJ_dUDQ2tR4zkRWjom_l_onHk,"QVHW+76 Saidpur, Bangladesh",7MQCQVHW+76
City Community Hospital,25.7782151,88.8949788,not found,not found,"['hospital', 'health', 'point_of_interest', 'establishment']",Saidpur,ChIJZ4cfPA1R4zkRQj9iq_NrenU,"QVHV+7X Saidpur, Bangladesh",7MQCQVHV+7X
Doctors Hospital & Cardicare Diagnostic Centre,25.7780866,88.8939897,4,25,"['hospital', 'health', 'point_of_interest', 'establishment']",Saidpur,ChIJkSJnWw1R4zkRrXq80AZZKo8,"QVHV+6H Saidpur, Bangladesh",7MQCQVHV+6H
LABZONE DIAGNOSTIC CENTRE,25.7778534,88.9021651,5,1,"['hospital', 'health', 'point_of_interest', 'establishment']","Puraton Babu Para, Saidpur",ChIJy7HDiTlR4zkRVArZKDVGsDA,"QWH2+4V Saidpur, Bangladesh",7MQCQWH2+4V
গ্রীন লাইফ ল্যাব এন্ড হসপিটাল,25.7777353,88.8932693,5,1,"['hospital', 'health', 'point_of_interest', 'establishment']","Dhaka - Rangpur Highway, Saidpur",ChIJQbJrp2tR4zkR9NBztStYlYg,"QVHV+38 Saidpur, Bangladesh",7MQCQVHV+38
মমিনপুর ইউনিয়ন স্বাস্থ্য ও পরিবার কল্যাণ কেন্দ্র,25.7771686,89.1053364,4.5,2,"['hospital', 'health', 'point_of_interest', 'establishment']",Rangpur Sadar Upazila,ChIJQdrfPqc34zkRAmDQtSAbDns,"Q4G4+V4 Mominpur, Bangladesh",7MQFQ4G4+V4
Saidpur 200 bed Hospital,25.7761729,88.8848066,3.8,4,"['hospital', 'health', 'point_of_interest', 'establishment']","Kundol, Saidpur",ChIJpYv7uWpR4zkRKFSjiBrF92w,"QVGM+FW Saidpur, Bangladesh",7MQCQVGM+FW
syedpur 100 hospital,25.7759806,88.8850402,not found,not found,"['hospital', 'health', 'point_of_interest', 'establishment']",Dhaka - Rangpur Highway,ChIJ_V4wBOJR4zkRIuS0tvhxfOA,"QVGP+92 Saidpur, Bangladesh",7MQCQVGP+92
Sayedpur 100 Bed Hospital,25.7759767,88.8850325,3,2,"['hospital', 'health', 'point_of_interest', 'establishment']","Kundol, Saidpur",ChIJ5VqOuGpR4zkRy8DGpRiKqRg,"QVGP+92 Saidpur, Bangladesh",7MQCQVGP+92
১০০ শয্য বিশিষ্ট হাসপাতাল,25.7758432,88.8852528,4.5,2,"['hospital', 'health', 'point_of_interest', 'establishment']","Kundol, Saidpur",ChIJXTHP-fRR4zkRuZPHIi_Wu6U,"QVGP+84 Saidpur, Bangladesh",7MQCQVGP+84
Saidpur 100 bed Hospital,25.7756326,88.884989,5,1,"['hospital', 'health', 'point_of_interest', 'establishment']",Dhaka - Rangpur Highway,ChIJSZFMgvpR4zkR--YeOsRKmvM,"QVGM+7X Saidpur, Bangladesh",7MQCQVGM+7X
Kaunia Upazila Health Complex,25.7746905,89.4238234,not found,not found,"['hospital', 'premise', 'health', 'point_of_interest', 'establishment']",Kaunia,ChIJm4fWOGnW4jkRXND_4qCtBHM,not found,not found
জাবরহাট হাসপাতাল Jabarhat Hospital,25.7740181,88.3682721,5,1,"['hospital', 'health', 'point_of_interest', 'establishment']",Pirganj Upazila,ChIJYdWX6LDP5DkRfLnYdUGHa0c,"Q9F9+J8 Jaborhat, Bangladesh",7MQCQ9F9+J8
Northern Private Medical College & Hospital,25.7714672,89.233935,4,57,"['hospital', 'university', 'health', 'point_of_interest', 'establishment']","Medical East Gate, Rangpur",ChIJf9Wvlu4x4zkRUcdG1fcRBBk,"Q6CM+HH Rangpur, Bangladesh",7MQFQ6CM+HH
Rangpur Community Medical College,25.7675341,89.2354005,4.4,86,"['hospital', 'university', 'health', 'point_of_interest', 'establishment']","Health City Road, Rangpur",ChIJ9egT2e8x4zkRx0p4oOfUDwc,"Q69P+25 Rangpur, Bangladesh",7MQFQ69P+25
Shahidbag Union Health and Family Welfare Center,25.7669723,89.3813914,not found,not found,"['hospital', 'health', 'point_of_interest', 'establishment']",Shahidbag,ChIJxQsFjvIp4zkRtjaxHknTAXw,"Q98J+QH Kursha, Bangladesh",7MQFQ98J+QH
HELTH COMPLEX,25.766685,88.9608222,not found,not found,"['hospital', 'health', 'point_of_interest', 'establishment']",Taraganj Upazila,ChIJi0ctvdZP4zkRvYWzGb3R_YE,"QX86+M8 Alampur, Bangladesh",7MQCQX86+M8
Bhimpur Hospital Mor,25.7666567,88.9608264,not found,not found,"['hospital', 'health', 'point_of_interest', 'establishment']",Taraganj Upazila,ChIJS-IikBBP4zkRG7pHozDDlI0,"QX86+M8 Alampur, Bangladesh",7MQCQX86+M8
Global Eye & Health Care Hospital Ltd.,25.7632625,89.2386636,4,10,"['hospital', 'health', 'point_of_interest', 'establishment']","Bangladesh Bank Turn, Rd,, গঙ্গাচড়া",ChIJPyXkQPox4zkRpFj2eG8RF8w,"Q67Q+8F Rangpur, Bangladesh",7MQFQ67Q+8F
Update Care Hospital,25.7629856,89.2350708,4.2,15,"['hospital', 'health', 'point_of_interest', 'establishment']","Banani Road, Rangpur",ChIJPeK33_Ax4zkRlAmG1vypyVc,"Q67P+52 Rangpur, Bangladesh",7MQFQ67P+52
কমিউনিটি ক্লিনিক,25.7602748,89.4524847,not found,not found,"['hospital', 'health', 'point_of_interest', 'establishment']","Haricharan Sharma, Tepa Madhupur",ChIJxe8XxmjX4jkR54MkTBEAN24,"QF62+4X Tepa Madhupur, Bangladesh",7MQFQF62+4X
Gorai Cominiti Clinic,25.7515851,89.6405492,not found,not found,"['hospital', 'health', 'point_of_interest', 'establishment']",,ChIJv0VSqQzL4jkRCwRL9YfgKX0,"QJ2R+J6 Durgapur, Bangladesh",7MQFQJ2R+J6
Gorai Mondol Para community clinic,25.7515846,89.6405485,5,3,"['hospital', 'health', 'point_of_interest', 'establishment']",,ChIJ6z5-vkfL4jkRyOfvA68PjEI,"QJ2R+J6 Durgapur, Bangladesh",7MQFQJ2R+J6
Gorai community clinic,25.751407,89.640486,not found,not found,"['hospital', 'health', 'point_of_interest', 'establishment']",,ChIJd2Wz_czL4jkR3m70lMRGaGQ,"QJ2R+H5 Durgapur, Bangladesh",7MQFQJ2R+H5
দাতব্য চক্ষু হাসপাতাল,25.7494555,89.2535878,not found,not found,"['hospital', 'health', 'point_of_interest', 'establishment']","356 Sen Para Road, Rangpur",ChIJEYIwgfst4zkRu14KB_zili8,"P7X3+QC Rangpur, Bangladesh",7MQFP7X3+QC
Taragonj Upozilla Health Complex,25.74788,89.245073,not found,not found,"['hospital', 'health', 'point_of_interest', 'establishment']","Munshi Para Road, Rangpur",ChIJGcjGbI0z4zkRUozY6NJihMw,"P6XW+52 Rangpur, Bangladesh",7MQFP6XW+52
Altafun Nesa General Hospital,25.7458078,88.6713808,4.3,3,"['hospital', 'health', 'point_of_interest', 'establishment']",Dhaka - Dinajpur Highway,ChIJyw0JNoiu5DkRmH4V7gZQQII,"PMWC+8H Beldanga, Bangladesh",7MQCPMWC+8H
Rangpur Medical College Hospital,25.7451866,89.274004,not found,not found,"['hospital', 'health', 'point_of_interest', 'establishment']",Rangpur,ChIJiX6TeSUt4zkRUNIn6gl9r1E,"P7WF+3J Rangpur, Bangladesh",7MQFP7WF+3J
Tepamadhupur Union Health and Family Welfere Center UHFWC,25.744707,89.4647644,not found,not found,"['hospital', 'health', 'point_of_interest', 'establishment']",Kaunia Upazila,ChIJC9bgY7PV4jkRgaVS0UgyQ2E,"PFV7+VW Tepa Madhupur, Bangladesh",7MQFPFV7+VW
District Veterinary Hospital (Rangpur) - জেলা ভেটেরিনারি হাসপাতাল (রংপুর),25.7444485,89.2531895,not found,not found,"['hospital', 'health', 'point_of_interest', 'establishment']","15, N517, রংপুর",ChIJyUc7bokt4zkRkKTEm9BDNDY,"P7V3+Q7 Rangpur, Bangladesh",7MQFP7V3+Q7
Salehin Clinic & Diagnostic Center,25.7438916,89.275227,not found,not found,"['hospital', 'health', 'point_of_interest', 'establishment']","রংপুর সদর উপজেলা, C.O. Bazar, BGB GATE",ChIJeQ1Ds-It4zkR2etKrCvM6_w,"P7VG+H3 Rangpur, Bangladesh",7MQFP7VG+H3
রোজ ক্লিনিক হাসপাতাল,25.7438916,89.275227,not found,not found,"['hospital', 'health', 'point_of_interest', 'establishment']",Rangpur,ChIJ_____88t4zkRapTGncPTAso,"P7VG+H3 Rangpur, Bangladesh",7MQFP7VG+H3
Prime Medical College Hospital,25.7437952,89.2222817,4.2,118,"['hospital', 'health', 'point_of_interest', 'establishment']","Badargonj Road, Rangpur",ChIJdU9frCQy4zkRoJSfnvmCMJg,"P6VC+GW Shatgara, Bangladesh",7MQFP6VC+GW
Moon Hospital,25.7431662,89.2677073,5,1,"['hospital', 'health', 'point_of_interest', 'establishment']","Rokeya College Road, Rangpur",ChIJa5WQ0MIt4zkR6PHUTli96K8,"P7V9+73 Rangpur, Bangladesh",7MQFP7V9+73
Nazmun Nahar Hospital,25.7427904,89.2715506,3,1,"['hospital', 'health', 'point_of_interest', 'establishment']","G L Roy Road, Rangpur",ChIJve_RuMQt4zkR3LKnNEmy7L4,"P7VC+4J Rangpur, Bangladesh",7MQFP7VC+4J
Shibpur govt. health complex,25.7424625,88.6893594,not found,not found,"['hospital', 'health', 'point_of_interest', 'establishment']",Dinajpur Sadar Upazila,ChIJ3ztY_iKs5DkR5QSiC14psNY,"PMRQ+XP Sundarban, Bangladesh",7MQCPMRQ+XP
বেনীর হাট হাসপাতাল,25.7400706,88.8911039,not found,not found,"['hospital', 'health', 'point_of_interest', 'establishment']",Benir Hat Road,ChIJo3Q5wttT4zkRcKNvuHCeLTg,"PVRR+2C Saidpur, Bangladesh",7MQCPVRR+2C
বাহাগিলী কমিউনিটি ক্লিনিক,25.7391365,89.3542974,not found,not found,"['hospital', 'health', 'point_of_interest', 'establishment']",Kursha,ChIJeTVD31kr4zkRJselp_hZuLE,"P9Q3+MP Kursha, Bangladesh",7MQFP9Q3+MP
Nazmun Nahar Hospital,25.7378179,89.2782685,4,3,"['hospital', 'health', 'point_of_interest', 'establishment']","G L Roy Road, Rangpur",ChIJXdH-Mskt4zkRWEc86pLwgJA,"P7QH+48 Rangpur, Bangladesh",7MQFP7QH+48
Rangpur Mother & Children Hospital | রংপুর মা ও শিশু হাসপাতাল,25.732435,89.238025,not found,not found,"['hospital', 'health', 'point_of_interest', 'establishment']","Rangur city Bypass, Rangpur",ChIJMY4NVyEz4zkRrTlaoicrCWs,"P6JQ+X6 Shatgara, Bangladesh",7MQFP6JQ+X6
Mougatcha Community Cleaninuq,25.7322775,88.9586242,not found,not found,"['hospital', 'health', 'point_of_interest', 'establishment']",Gopinathpur,ChIJocUk5epN4zkR2cdHOMFeW1s,"PXJ5+WC Gopinathpur, Bangladesh",7MQCPXJ5+WC
Mowagachh Community Clinic,25.7318799,88.9585658,3.7,3,"['hospital', 'health', 'point_of_interest', 'establishment']","Jhojholir Danga,Mowagachh Bittipara,Gopinathpur, বদরগঞ্জ",ChIJJeelBpBN4zkRTWG1cKgQY_E,"PXJ5+QC Gopinathpur, Bangladesh",7MQCPXJ5+QC
Mahigonj Clinic And Nursing Home,25.7301075,89.2914991,not found,not found,"['hospital', 'health', 'point_of_interest', 'establishment']","Near Mahigonj Mor, Afnulla Sornoporti Road Sornopoti Mor, Rangpur",ChIJuRV2sUks4zkR92BqGEfip6Q,"P7JR+2H Rangpur, Bangladesh",7MQFP7JR+2H
ইউনিয়ন পরিষদ হাসপাতাল,25.7298778,89.5526241,5,2,"['hospital', 'health', 'point_of_interest', 'establishment']",Malikbeg,ChIJsW1nl9vN4jkRTLIRyC3p2iU,"PHH3+X2 Malikbeg, Bangladesh",7MQFPHH3+X2
বক্ষব্যাধি ক্লিনিক,25.7291598,89.276117,5,3,"['hospital', 'health', 'point_of_interest', 'establishment']","Near Institutions Of Health Technology, Hospital Road, Rangpur",ChIJXSv9nbct4zkRAlEJ0bU_u2o,"P7HG+MC Rangpur, Bangladesh",7MQFP7HG+MC
আমেরিকান ক্যান্সার হাসপাতাল,25.7279996,89.290206,not found,not found,"['hospital', 'health', 'point_of_interest', 'establishment']","Near Ram Krishna Mission, J B Sen Road, Rangpur",ChIJK-DYaEks4zkRNPCiF2quvEg,"P7HR+53 Rangpur, Bangladesh",7MQFP7HR+53
ডাঃ তৌহিদ হেলথ্ কেয়ার সেন্টার,25.727646,88.9835377,not found,not found,"['hospital', 'health', 'point_of_interest', 'establishment']","Badarganj Upazila, Laldighi Bazar, রাধানগর",ChIJeU_RECxN4zkR3KJZ-s1c6iE,"PXHM+3C Gopinathpur, Bangladesh",7MQCPXHM+3C
নাজমুন নাহার হাসপাতাল,25.7264952,89.2960747,not found,not found,"['hospital', 'health', 'point_of_interest', 'establishment']","Pirgachha Road, Rangpur",ChIJP4O9eUYs4zkRHgvBx0s4w6c,"P7GW+HC Rangpur, Bangladesh",7MQFP7GW+HC
Dagarbari Community Clinic,25.7247817,88.8402565,4,3,"['hospital', 'health', 'point_of_interest', 'establishment']","Chirirbandar Upazila, চিরিরবন্দর",ChIJ2UbelUFV4zkRmWiVyxehTpI,"PRFR+W4 Nowkhair, Bangladesh",7MQCPRFR+W4
ভাদুয়ারী কমিউনিটি ক্লিনিক,25.7244684,88.4635856,not found,not found,"['hospital', 'health', 'point_of_interest', 'establishment']",Unnamed Road,ChIJU1aJhvvL5DkRRgBcffedVH4,"PFF7+QC Bandhugaon, Bangladesh",7MQCPFF7+QC
Pandul union health complex,25.7233126,89.600195,not found,not found,"['hospital', 'health', 'point_of_interest', 'establishment']",Ulipur Upazila,ChIJgxDF_gjN4jkRaI3mgnJGc8o,"PJF2+83 Pandul, Bangladesh",7MQFPJF2+83
Carmichael College Medical Centre,25.7228648,89.2560137,3.9,8,"['hospital', 'health', 'point_of_interest', 'establishment']",Rangpur,ChIJPco51I8t4zkR3QFDLIKYEiA,"P7F4+4C Rangpur, Bangladesh",7MQFP7F4+4C
"নগর স্বাস্থ্য কেন্দ্র, City health care",25.7206065,89.2713959,not found,not found,"['hospital', 'health', 'point_of_interest', 'establishment']","N506, Rangpur",ChIJO01Thp4t4zkRENOngQCgLno,"P7CC+6H Rangpur, Bangladesh",7MQFP7CC+6H
hollycross hospital,25.7200971,89.2490999,not found,not found,"['hospital', 'health', 'point_of_interest', 'establishment']","Shaon Villa, 02 College Para Road 1, Rangpur",ChIJmdJxr0ct4zkRH-WN4Q0tqUY,"P6CX+2J Darshana, Bangladesh",7MQFP6CX+2J
মকবুল হোসেন জেনারেল হাসপাতাল,25.7173255,89.2463573,not found,not found,"['hospital', 'health', 'point_of_interest', 'establishment']",Rangpur Sadar Upazila,ChIJnRSVX0Iz4zkRSl_mmSxQ4as,"P68W+WG Darshana, Bangladesh",7MQFP68W+WG
Rangpur Talukder Hospital pvt.Lt,25.715869,89.2467852,not found,not found,"['hospital', 'health', 'point_of_interest', 'establishment']","R.K. Road, Rangpur",ChIJJdbu5RAt4zkRta6ym7jnrDM,"P68W+8P Darshana, Bangladesh",7MQFP68W+8P
Birsrestho Nur Mohammad Hospital,25.7141573,89.2582277,5,2,"['hospital', 'health', 'point_of_interest', 'establishment']",Rangpur,ChIJh5hugpwt4zkRsCXr914QJ-k,"P775+M7 Rangpur, Bangladesh",7MQFP775+M7
দৌলত খাঁ কমিউনিটি ক্লিনিক,25.7140142,89.4857719,not found,not found,"['hospital', 'health', 'point_of_interest', 'establishment']",Chhaola,ChIJaTIOXifT4jkRRRasIj8aDRM,"PF7P+J8 Chhaola, Bangladesh",7MQFPF7P+J8
Animal Health Care Centre,25.71371,88.5958354,5,1,"['hospital', 'health', 'point_of_interest', 'establishment']",Birol Upazila,ChIJR_XBx1Ky5DkRUpH9kH1o7KI,"PH7W+F8 Madhupur, Bangladesh",7MQCPH7W+F8
Bairchuna Popular Digital Diagnostic Centre,25.7134027,88.4113034,not found,not found,"['hospital', 'health', 'point_of_interest', 'establishment']",Pirganj Upazila,ChIJPw-8SE_L5DkRJyGXEPzIQgI,"PC76+9G Rangaon, Bangladesh",7MQCPC76+9G
উত্তর হরিরামপুর কমিউনিটি ক্লিনিক,25.7109581,88.8983564,not found,not found,"['hospital', 'health', 'point_of_interest', 'establishment']",Sundorpir Bazar - Bannirghat Road,ChIJQ3zgTKNT4zkRP6A_FQbEIz4,"PV6X+98 Sundorpir, Bangladesh",7MQCPV6X+98
5No up Hospital,25.708703,88.4594779,not found,not found,"['hospital', 'health', 'point_of_interest', 'establishment']",Dharapatie - Phulbari - Sankorpur Bazar,ChIJjYUcANTL5DkRZExPX7hndIs,"PF55+FQ Jonglipir, Bangladesh",7MQCPF55+FQ
Daglagonj Sub Health Centre (Hospital),25.7066032,88.8694124,5,1,"['hospital', 'health', 'point_of_interest', 'establishment']",Daglagonj,ChIJaVBhBTFT4zkR9tHzed4OfDw,"PV49+JQ Baghachora, Bangladesh",7MQCPV49+JQ
ইউনিয়ন স্বাস্থ্য কমপ্লেক্স,25.7050197,88.4573454,not found,not found,"['hospital', 'health', 'point_of_interest', 'establishment']",Maherpur,ChIJq8BHjqjL5DkRh4PhKdFJ4Ps,"PF44+2W Jonglipir, Bangladesh",7MQCPF44+2W
তনুরাম কমিউনিটি ক্লিনিক,25.7046397,89.6059518,5,1,"['hospital', 'health', 'point_of_interest', 'establishment']",Ulipur Upazila,ChIJ5ZFoEdjN4jkRMs9TVLpKdDY,"PJ34+V9 Tanuram, Bangladesh",7MQFPJ34+V9
দলদলিয়া সরকারী হাসপাতাল,25.700083,89.5523064,5,1,"['hospital', 'health', 'point_of_interest', 'establishment']",Ulipur Upazila,ChIJ5eJZ_HzN4jkRQQheRcGeeoY,"PH22+2W Chhaola, Bangladesh",7MQFPH22+2W
Veterinary Teaching Hospital,25.6958164,88.6557949,3.8,6,"['hospital', 'health', 'point_of_interest', 'establishment']",Zia Hall - Veterinary Road,ChIJEQ2zUAyt5DkRcELU4eXH4eE,"MMW4+88 Karnai, Bangladesh",7MQCMMW4+88
Veterinary Teaching Hospital,25.6958164,88.6557949,3.8,6,"['hospital', 'health', 'point_of_interest', 'establishment']",Zia Hall - Veterinary Road,ChIJEQ2zUAyt5DkRcELU4eXH4eE,"MMW4+88 Karnai, Bangladesh",7MQCMMW4+88
স্বাস্থ্য ও পরিবার কল্যাণ কেন্দ্র,25.6915462,89.3248608,4,2,"['hospital', 'health', 'point_of_interest', 'establishment']","Pirgachha Road, Parul",ChIJa30tlRAr4zkRYc9lRn4wExk,"M8RF+JW Parul, Bangladesh",7MQFM8RF+JW
সদ্যপুষ্করিনী ইউনিয়ন স্বাস্থ্য কমপ্লেক্স,25.6789855,89.1719974,not found,not found,"['hospital', 'health', 'point_of_interest', 'establishment']",Rangpur Sadar Upazila,ChIJMf9qFaAz4zkRgnGhzbw01AQ,"M5HC+HQ Shampur, Bangladesh",7MQFM5HC+HQ
Mekura Community Clinic 5,25.676264,89.3093204,5,1,"['hospital', 'health', 'point_of_interest', 'establishment']",Tamphat,ChIJgU9yzLss4zkRh7Bdx4erR5M,"M8G5+GP Tamphat, Bangladesh",7MQFM8G5+GP
Islamic Mission Hospital,25.6748378,89.6279454,3.5,4,"['hospital', 'health', 'point_of_interest', 'establishment']","Ulipur Upazila, Dharanibari, Ulipur",ChIJ18G10VnL4jkR39RivffRMIQ,"MJFH+W5 Ukil Para, Bangladesh",7MQFMJFH+W5
Badargonj Hospital,25.6735152,89.0493172,5,1,"['hospital', 'health', 'point_of_interest', 'establishment']",Damodorpur Union,ChIJb6YZpCVL4zkRGLacUkHxKgY,"M2FX+CP Badarganj, Bangladesh",7MQFM2FX+CP
Badarganj Upazila Health Complex,25.673455,89.0493125,4.7,14,"['hospital', 'health', 'point_of_interest', 'establishment']","Hospital Road, Badarganj",ChIJuQzLniVL4zkRvp05b29absg,"M2FX+9P Badarganj, Bangladesh",7MQFM2FX+9P
মুহাম্মাদীয়া ডিজিটাল ডেন্টাল,25.6733826,89.057409,5,1,"['hospital', 'health', 'point_of_interest', 'establishment']","Z5025, Badarganj",ChIJQVzZcy9L4zkRXjgA8JGG-0w,"M3F4+9X Badarganj, Bangladesh",7MQFM3F4+9X
এম এইস ডায়াগনষ্টিক & কনসালটেশন,25.6732354,89.0571814,not found,not found,"['hospital', 'health', 'point_of_interest', 'establishment']",Badarganj,ChIJMQ6w8whL4zkR3q7zfnN3L-o,"M3F4+7V Badarganj, Bangladesh",7MQFM3F4+7V
মা ও শিশু ক্লিনিক,25.6731362,89.4858155,not found,not found,"['hospital', 'health', 'point_of_interest', 'establishment']","পীরগাছা উপজেলা, Paotana hat",ChIJhTYOxO_T4jkROA824dKAISU,"MFFP+78 Chhaola, Bangladesh",7MQFMFFP+78
আয়াত ডেন্টাল সার্জারী,25.6703576,89.0554883,5,1,"['hospital', 'health', 'point_of_interest', 'establishment']",Badarganj,ChIJ-4hthuBL4zkRPu5t8YZ8tkY,"M3C4+45 Badarganj, Bangladesh",7MQFM3C4+45
Darikishorpur Clinic,25.6702386,89.5566644,not found,not found,"['hospital', 'health', 'point_of_interest', 'establishment']","Thetrai Rd, Ulipur",ChIJO_67S67N4jkRhRB3uRzcQwE,"MHC4+3M Tambulpur, Bangladesh",7MQFMHC4+3M
Parbatipura creatures hospital,25.6665413,88.9026855,5,1,"['hospital', 'health', 'point_of_interest', 'establishment']",Parbatipur Upazila,ChIJzVSN2ylT4zkR_PpzhtxsCLQ,"MW83+J3 Parbatipur, Bangladesh",7MQCMW83+J3
Tyakserahata Health Complex,25.6663404,88.9999866,4.5,2,"['hospital', 'health', 'point_of_interest', 'establishment']","Badarganj - Parbatipur Road, Ramnathpur",ChIJq6A2E7ZM4zkR-G2KNm5dRnQ,"MX8X+GX Ramnathpur, Bangladesh",7MQCMX8X+GX
Patients care diabetic hospital,25.6636765,88.9085672,not found,not found,"['hospital', 'health', 'point_of_interest', 'establishment']",Dinajpur - Parbatipur Road,ChIJwVPSh2pT4zkRvwvCc2ub2qM,"MW75+FC Parbatipur, Bangladesh",7MQCMW75+FC
Lions Eye Hospital.,25.6635317,88.9148419,3,2,"['hospital', 'health', 'point_of_interest', 'establishment']",Parbatipur Upazila,ChIJff8-YSVT4zkRJQZQHBJAZNU,"MW77+CW Parbatipur, Bangladesh",7MQCMW77+CW
ভাই ভাই ডায়াগনস্টিক সেন্টার।,25.6625393,89.4061861,not found,not found,"['hospital', 'health', 'point_of_interest', 'establishment']","Kaligonj - Pirgachha Road, Pirgachha",ChIJD3azOk7V4jkRjJXdxZOHIog,"MC74+2F Pirgachha, Bangladesh",7MQFMC74+2F
মরিয়ম চঁক্ষু হাসপাতাল।,25.6625266,89.6181527,4.5,4,"['hospital', 'health', 'point_of_interest', 'establishment']","Z5621, Ulipur",ChIJv8ed1azM4jkRyj_uf3MHe9E,"MJ79+27 Ulipur, Bangladesh",7MQFMJ79+27
Ulipur Matri Mongol Hospital,25.6624118,89.6163583,4.6,10,"['hospital', 'health', 'point_of_interest', 'establishment']","Ulipur-Rajarhat-Teesta Road, Ulipur",ChIJ_8hdTa3M4jkRMndGpOvU1ZM,"MJ68+XG Ulipur, Bangladesh",7MQFMJ68+XG
LAMB Hospital,25.6620281,88.8839713,4.3,50,"['hospital', 'health', 'point_of_interest', 'establishment']","Dist, LAMB Hospital Road, P.O",ChIJacuhgTVT4zkRvmO9EWMI0g4,"MV6M+RH Rajabasor, Bangladesh",7MQCMV6M+RH
Dulal Zhumur Nursinghome,25.6611882,88.9085922,not found,not found,"['hospital', 'health', 'point_of_interest', 'establishment']","Puraton Bazar Road, Parbatipur",ChIJPT7KTAhT4zkR-d8JqoV06c0,"MW65+FC Parbatipur, Bangladesh",7MQCMW65+FC
Abdulpur Community Clinic ( আব্দুলপুর কমউনিটি ক্লিনিক ),25.6601071,88.8075559,not found,not found,"['hospital', 'health', 'point_of_interest', 'establishment']",Chirirbandar Upazila,ChIJmd-o2gtV4zkRxwaiH_lH98I,"MR65+22 Abdulpur Hajipara, Bangladesh",7MQCMR65+22
Paralysis And Disabled Rehabilitation Hospital,25.6595284,88.6484483,not found,not found,"['hospital', 'health', 'point_of_interest', 'establishment']",Dinajpur Sadar Upazila,ChIJGUFNdWqt5DkRh4pRNG-xjLs,"MJ5X+R9 Dinajpur, Bangladesh",7MQCMJ5X+R9
Paralysis And Disabled Rehabilitation Hospital,25.6595284,88.6484483,not found,not found,"['hospital', 'health', 'point_of_interest', 'establishment']",Dinajpur Sadar Upazila,ChIJGUFNdWqt5DkRh4pRNG-xjLs,"MJ5X+R9 Dinajpur, Bangladesh",7MQCMJ5X+R9
পীরগাছা উপজেলা পশু হাসপাতাল Upazila Prani shompod Pirgachha,25.6587084,89.4124264,4.3,4,"['hospital', 'health', 'point_of_interest', 'establishment']",Pirgachha Upazila,ChIJz6M-psAr_TkROv8ycWAXKTo,"MC56+FX Pirgachha, Bangladesh",7MQFMC56+FX
EVERGREEN CLINIC AND DIAGNOSTIC CENTER,25.65762,88.77202,4.7,3,"['hospital', 'health', 'point_of_interest', 'establishment']","দিনাজপুর - চিরিরবন্দর রোড, Dinajpur",ChIJk6bANEtV-zkRAC_W_8fwez0,"MQ5C+2R Chirirbandar, Bangladesh",7MQCMQ5C+2R
Chirirbandar Digital Diagnostic center and doctors chamber,25.6575503,88.7766985,not found,not found,"['hospital', 'health', 'point_of_interest', 'establishment']",Chirirbandar,ChIJPcbV1txV-zkRwS0hp3fDxxY,"MQ5G+2M Chirirbandar, Bangladesh",7MQCMQ5G+2M
বিপ্লব মেডিকেল ষ্টোর,25.6572219,89.6175485,5,1,"['hospital', 'health', 'point_of_interest', 'establishment']",Ulipur,ChIJ78MTunoz_TkRmO37JN_Ol_Q,"MJ49+V2 Ulipur, Bangladesh",7MQFMJ49+V2
Pulse Diagnostics & Consultation Point,25.6569901,89.411924,3,2,"['hospital', 'health', 'point_of_interest', 'establishment']",Pirgachha Upazila,ChIJ_TnAlmMr_TkRzh_MsAB-5zw,"MC46+QQ Pirgachha, Bangladesh",7MQFMC46+QQ
Ulipur Upazila Health Complex,25.6565077,89.6243298,4.1,18,"['hospital', 'health', 'point_of_interest', 'establishment']",Ulipur,ChIJQ1tsAVYz_TkRTrRotWIycOQ,"MJ4F+JP Ulipur, Bangladesh",7MQFMJ4F+JP
South khamar bozra community clinic,25.6564202,89.6204562,not found,not found,"['hospital', 'health', 'point_of_interest', 'establishment']","উলিপুর উপজেলা, post : khashim bazar",ChIJS0oPp-kz_TkRJafWr5M0iwk,"MJ4C+H5 Ulipur, Bangladesh",7MQFMJ4C+H5
Pirgachha Upazilla Health Complex,25.6562282,89.4112568,3.8,5,"['hospital', 'health', 'point_of_interest', 'establishment']",Pirgachha,ChIJGUXyk7Mq_TkR2mGtBUy-Zls,"MC46+FG Pirgachha, Bangladesh",7MQFMC46+FG
Pirgachha Upazilla Health Complex,25.6561871,89.4114771,4.5,2,"['hospital', 'health', 'point_of_interest', 'establishment']","Z5010, Pirgachha",ChIJe5gniRAr_TkRX-8nDzr-tpw,"MC46+FH Pirgachha, Bangladesh",7MQFMC46+FH
Akktarunnahar Memorial Hospital,25.655683,89.6154614,5,1,"['hospital', 'health', 'point_of_interest', 'establishment']",Ulipur,ChIJJwNcT_wz_TkRdVHhw-Gmpjo,"MJ48+75 Ulipur, Bangladesh",7MQFMJ48+75
Faryad Diagnostic & Health Care Center,25.655537,88.9202375,not found,not found,"['hospital', 'health', 'point_of_interest', 'establishment']","Gulshan Nagar, Parbatipur",ChIJtbQzzeyt_DkRubRDhTHbsf8,"MW4C+63 Parbatipur, Bangladesh",7MQCMW4C+63
পীরগাছা উপজেলা স্বাস্থ্য কমপ্লেক্স,25.6547041,89.405778,not found,not found,"['hospital', 'health', 'point_of_interest', 'establishment']",অনন্তরাম,ChIJMWQhcBor_TkRXtDEHC_FjXU,"MC34+V8 Pirgachha, Bangladesh",7MQFMC34+V8
পার্বতীপুর গণস্বাস্থ্য কেন্দ্র,25.6543901,88.9162387,5,1,"['hospital', 'health', 'point_of_interest', 'establishment']","Tetultori bazar, পার্বতীপুর উপজেলা",ChIJjWyM1biz_DkRI7OMHGC0Ojc,not found,not found
লোহানীপাড়া ইউনিয়ন স্বাস্থ্য ও পরিবার কল্যাণ কেন্দ্র,25.6539682,89.0704764,5,1,"['hospital', 'health', 'point_of_interest', 'establishment']","সাহেবগঞ্জ,লোহানীপাড়া, Badarganj",ChIJj26w6RC1_DkRdwkrYJ_0kc8,"M33C+H5 Badarganj, Bangladesh",7MQFM33C+H5
Health Care Diagnostic Center.,25.6539681,89.0704766,not found,not found,"['hospital', 'health', 'point_of_interest', 'establishment']",Badarganj,ChIJOVpJ1zq1_DkR1Hhv8Fmcsjw,"M33C+H5 Badarganj, Bangladesh",7MQFM33C+H5
Abdulpur Community Clinic ( আব্দুলপুর কমউনিটি ক্লিনিক ),25.6532802,88.8064619,not found,not found,"['hospital', 'health', 'point_of_interest', 'establishment']",Chirirbandar Upazila,ChIJBTbSfk6r_DkR_-UkvRNXlzU,"MR34+8H Abdulpur Hajipara, Bangladesh",7MQCMR34+8H
INOVA HEALTH CARE,25.6531243,88.9182202,5,1,"['hospital', 'health', 'point_of_interest', 'establishment']","MAIN ROAD MOJAFFAR NAGAR NOTON BAZAR, পার্বতীপুর উপজেলা",ChIJ-8uF_Eet_DkRTV9m29EQno0,"MW39+67 Parbatipur, Bangladesh",7MQCMW39+67
