Place Name,Latitude,Longitude,Rating,User_Total_Rating,Types,Address,Place_ID,Compound_Code,Global_Code
Hafej Homio Hall,25.2774896,89.8288305,5,1,"['hospital', 'health', 'point_of_interest', 'establishment']",Bakshiganj Upazila,ChIJMXbZ2SNo_TkRGGlFE3EA51U,"7RGH+XG Bogarchar, Bangladesh",7MQF7RGH+XG
Zannat diagnostic centre and hospital,25.184411,89.8680506,not found,not found,"['hospital', 'health', 'point_of_interest', 'establishment']",Bakshiganj,ChIJ9_YuYONl_TkRuJO8jQrjbQc,"5VM9+Q6 Bakshiganj, Bangladesh",7MQF5VM9+Q6
Baitol aman jame mosjid,25.184411,89.8680506,5,2,"['hospital', 'health', 'point_of_interest', 'establishment']",Bakshiganj,ChIJ-X-DlUJl_TkRltiEJhji4MA,"5VM9+Q6 Bakshiganj, Bangladesh",7MQF5VM9+Q6
অক্সিজেন মেডিকেয়ার হল,25.1833511,89.8695846,not found,not found,"['hospital', 'health', 'point_of_interest', 'establishment']","Bakshiganj - Dasher Hat Road, Bakshiganj",ChIJWSUpurhl_TkRhT-rNP0HR_A,"5VM9+8R Bakshiganj, Bangladesh",7MQF5VM9+8R
সজীব সাকিব মেডিকেল হল,25.1843668,89.8722507,5,1,"['hospital', 'health', 'point_of_interest', 'establishment']","Unnamed Road, Bakshiganj",ChIJXdxjW4dl_TkRnYzjRbVf3QE,"5VMC+PW Bakshiganj, Bangladesh",7MQF5VMC+PW
Surjer Hashi Clinic,25.1901436,89.8695056,not found,not found,"['hospital', 'health', 'point_of_interest', 'establishment']",Bakshiganj,ChIJpT0X151n_TkRLvtGLzKqL_c,"5VR9+3R Bakshiganj, Bangladesh",7MQF5VR9+3R
দারুস সালাম হাসপাতাল বকশীগঞ্জ,25.1790392,89.8708117,not found,not found,"['hospital', 'health', 'point_of_interest', 'establishment']","নীলক্ষীয়া রোড, Bakshiganj",ChIJtxiX2vBl_TkRI2sQ27lyBG8,"5VHC+J8 Bakshiganj, Bangladesh",7MQF5VHC+J8
Darus Salam Hospital,25.1788326,89.8711571,5,3,"['hospital', 'health', 'point_of_interest', 'establishment']",Bakshiganj Upazila,ChIJM9zweY9l_TkRkVLIqXUlWiA,"5VHC+GF Bakshiganj, Bangladesh",7MQF5VHC+GF
Bakshiganj Upazila Health Complex,25.1775692,89.8706343,4.4,9,"['hospital', 'health', 'point_of_interest', 'establishment']",Bakshiganj Upazila,ChIJ5_fbNt1l_TkRLH52OdH-kEg,"5VHC+27 Bakshiganj, Bangladesh",7MQF5VHC+27
বকশীগঞ্জ উপজেলা স্বাস্থ্য কমপ্লেক্স,25.1774863,89.8705187,4.3,3,"['hospital', 'health', 'point_of_interest', 'establishment']",Rajendraganj,ChIJufFyu_Zl_TkRk-lOJlabL14,"5VGC+X6 Bakshiganj, Bangladesh",7MQF5VGC+X6
Bakshiganj Central Hospital,25.1774629,89.8705133,5,1,"['hospital', 'health', 'point_of_interest', 'establishment']",Rajendraganj,ChIJPaTx2jxl_TkRj9aR85pNUo4,"5VGC+X6 Bakshiganj, Bangladesh",7MQF5VGC+X6
Islamic mission,25.1899621,89.8508816,not found,not found,"['hospital', 'health', 'point_of_interest', 'establishment']",Bakshiganj - Dewanganj Road,ChIJLziftXtn_TkR70hP4p_i6dI,"5VQ2+X9 Bakshiganj, Bangladesh",7MQF5VQ2+X9
মেরুর চর উপসাস্থকেন্দ্র,25.1547511,89.8516714,not found,not found,"['hospital', 'health', 'point_of_interest', 'establishment']","মেরুর চর, Bakshiganj",ChIJu2cgTeVl_TkRyPOBxs7rq2k,"5V32+WM Gaibandha, Bangladesh",7MQF5V32+WM
চিনারচর কমিউনিটি ক্লিনিক,25.1701754,89.8234382,3,2,"['hospital', 'health', 'point_of_interest', 'establishment']",ইউনিয়ন পরিষদ রোড,ChIJiwmqZoJv_TkRPAyjSYvNuBw,"5RCF+39 Chinarchor, Bangladesh",7MQF5RCF+39
Abdul Malek Community Hospital,25.212842,89.9178031,not found,not found,"['hospital', 'health', 'point_of_interest', 'establishment']","শ্রীবরদী উপজেলা, Sowdagor Bari",ChIJ6y0ASVpn_TkRJes6Dn-L2QA,"6W79+44 Bhaiyadanga, Bangladesh",7MQF6W79+44
Tangari para community clinic,25.237729,89.8430581,not found,not found,"['hospital', 'health', 'point_of_interest', 'establishment']",Tangari para Road,ChIJxWX2K2Np_TkRgGLB0nwW6ps,"6RQV+36 Uthanerpara, Bangladesh",7MQF6RQV+36
Sreebordi Upzila Hospital,25.149808,89.934806,5,6,"['hospital', 'health', 'point_of_interest', 'establishment']",Sreebardi,ChIJr9j_LJtj_TkRtyMu79qp6S4,"4WXM+WW Sreebardi, Bangladesh",7MQF4WXM+WW
আব্দুল গনি অন্ধ কল্যাণ চক্ষু হাসপাতাল,25.147401,89.9393363,not found,not found,"['hospital', 'health', 'point_of_interest', 'establishment']",Sreebardi,ChIJ3wjDt69j_TkRBF09HV4gaDM,"4WWQ+XP Sreebardi, Bangladesh",7MQF4WWQ+XP
community health centre,25.2670142,89.8772661,not found,not found,"['hospital', 'health', 'point_of_interest', 'establishment']",Bakshiganj Upazila,ChIJsZHgLYln_TkRvzL0S213E9M,"7V8G+RW Uthanerpara, Bangladesh",7MQF7V8G+RW
Shekhdi Community Clinic,25.1403743,89.9499462,5,1,"['hospital', 'health', 'point_of_interest', 'establishment']",Sreebardi,ChIJk7Mnwglj_TkRfcjIRrU1UPk,"4WRX+4X Sreebardi, Bangladesh",7MQF4WRX+4X
SHEMUL,25.1528075,89.7575499,not found,not found,"['hospital', 'health', 'point_of_interest', 'establishment']",Dewanganj Upazila,ChIJLdjecHZt_TkR54WJTEq2iFE,"5Q35+42 Dewanganj, Bangladesh",7MQF5Q35+42
Gamaria Communiti Clinic,25.1487269,89.7709424,not found,not found,"['hospital', 'health', 'point_of_interest', 'establishment']",Dewanganj Upazila,ChIJrfPT0gBt_TkRdUoZiFGCB0g,"4QXC+F9 Dewanganj, Bangladesh",7MQF4QXC+F9
Dewangonj Adhunik Hospital,25.1415002,89.7728337,5,1,"['hospital', 'health', 'point_of_interest', 'establishment']",Kharma,ChIJJ8OyfStt_TkR5mBftkNL_28,"4QRF+J4 Dewanganj, Bangladesh",7MQF4QRF+J4
দেওয়ানগঞ্জ আধুনিক হসপিটাল,25.1410315,89.7729725,not found,not found,"['hospital', 'health', 'point_of_interest', 'establishment']",Kharma,ChIJo2rNNUxt_TkRO_Y863w8q-0,"4QRF+C5 Dewanganj, Bangladesh",7MQF4QRF+C5
Dewanganj Upazila Health Complex,25.1617691,89.7588987,4.3,7,"['hospital', 'health', 'point_of_interest', 'establishment']",Dewanganj,ChIJ5WkVAT9s_TkRzcrGM2qQemc,"5Q65+PH Dewanganj, Bangladesh",7MQF5Q65+PH
Hospital,25.1620068,89.7588372,not found,not found,"['hospital', 'health', 'point_of_interest', 'establishment']",Dewanganj,ChIJbzOsAD9s_TkRVXLHCLUQE6A,"5Q65+RG Dewanganj, Bangladesh",7MQF5Q65+RG
Upazila Health Complex,25.1620332,89.7584721,not found,not found,"['hospital', 'health', 'point_of_interest', 'establishment']",Dewanganj - Bahadurabad Road,ChIJgWH-6Q9t_TkRxuY-yeKWlcY,"5Q65+R9 Dewanganj, Bangladesh",7MQF5Q65+R9
animal hospital,25.1621789,89.7638302,not found,not found,"['hospital', 'health', 'point_of_interest', 'establishment']",Dewanganj Upazila,ChIJAyXOIURt_TkRGsDLc_49C2I,"5Q67+VG Dewanganj, Bangladesh",7MQF5Q67+VG
livestock office,25.1640858,89.7630741,not found,not found,"['hospital', 'health', 'point_of_interest', 'establishment']","A.Rouf Road, Dewanganj",ChIJ-___kD1s_TkR1RN-u1Vaz8A,"5Q77+J6 Dewanganj, Bangladesh",7MQF5Q77+J6
Pacific Dental care,25.1663301,89.7641976,4,1,"['hospital', 'health', 'point_of_interest', 'establishment']",Unnamed Road,ChIJeeSTzIdt_TkRkGqW7QSoxNs,"5Q87+GM Dewanganj, Bangladesh",7MQF5Q87+GM
Islamia Eye Hospital,25.1677648,89.7658224,5,1,"['hospital', 'health', 'point_of_interest', 'establishment']","দেওয়ানগঞ্জ উপজেলা, Bazar Road, Dewanganj Upazila",ChIJlSukMrpt_TkRG5_WEKU0no0,"5Q98+48 Dewanganj, Bangladesh",7MQF5Q98+48
Surjer Hashi Network Dewanganj 229,25.1726192,89.7620029,not found,not found,"['hospital', 'health', 'point_of_interest', 'establishment']",Dewanganj Upazila,ChIJjaFq9qNt_TkRipwD10GjZTk,"5QF6+2R Dewanganj, Bangladesh",7MQF5QF6+2R
Halkarchar Community Clinic,25.1684758,89.740822,3,1,"['hospital', 'health', 'point_of_interest', 'establishment']",Dewanganj Upazila,ChIJY1wPgTJt_TkR15ODzZsV6nY,"5P9R+98 Dewanganj, Bangladesh",7MQF5P9R+98
হাড়ীয়া বাড়ি জামে মসজিদ,25.1096221,89.7546739,not found,not found,"['hospital', 'health', 'point_of_interest', 'establishment']",Hariabari,ChIJI4WFMhNt_TkR7qGcpWfd9jo,"4Q53+RV Hariabari, Bangladesh",7MQF4Q53+RV
Sheikh Hasina Institute of Health Technology,25.0896086,89.781261,5,1,"['hospital', 'health', 'point_of_interest', 'establishment']","ইসলামপুর পৌরসভা, Islampur-Dewanganj Road, Dormokura",ChIJoZ4nxlhx_TkRKs1FiLHqZyw,"3QQJ+RG Dormokura, Bangladesh",7MQF3QQJ+RG
Belgacha Union Health Centre,25.0929504,89.7220346,5,1,"['hospital', 'health', 'point_of_interest', 'establishment']",Belgacha,ChIJuaKRD11z_TkRRrNeATDexxg,"3PVC+5R Belgacha, Bangladesh",7MQF3PVC+5R
Belgacha Union Family Health Centre,25.0929504,89.7220346,not found,not found,"['hospital', 'health', 'point_of_interest', 'establishment']",Belgacha,ChIJ7Wb6YQRz_TkRPIB-wOU4d4s,"3PVC+5R Belgacha, Bangladesh",7MQF3PVC+5R
চিনারচর কমিউনিটি ক্লিনিক,25.1701754,89.8234382,3,2,"['hospital', 'health', 'point_of_interest', 'establishment']",ইউনিয়ন পরিষদ রোড,ChIJiwmqZoJv_TkRPAyjSYvNuBw,"5RCF+39 Chinarchor, Bangladesh",7MQF5RCF+39
kaji Bari Comonity Clinick,25.0860881,89.7225221,5,1,"['hospital', 'health', 'point_of_interest', 'establishment']",Islampur Upazila,ChIJjcd8dQ5z_TkRamo_nFzbaMI,"3PPF+C2 পশ্চিম বামনা, Bangladesh",7MQF3PPF+C2
Dewangong Health Complex,25.2124303,89.7567693,not found,not found,"['hospital', 'health', 'point_of_interest', 'establishment']",Dewanganj Upazila,ChIJ7Ws4atNr_TkRPaisfcweRho,"6Q64+XP Bahadurabad, Bangladesh",7MQF6Q64+XP
Hafej Homio Hall,25.2774896,89.8288305,5,1,"['hospital', 'health', 'point_of_interest', 'establishment']",Bakshiganj Upazila,ChIJMXbZ2SNo_TkRGGlFE3EA51U,"7RGH+XG Bogarchar, Bangladesh",7MQF7RGH+XG
"Hospital, Health Center",25.329853,89.790906,5,1,"['hospital', 'health', 'point_of_interest', 'establishment']",Taratia Bazar - Sanandabari Road,ChIJ6x9wODND_TkR2OMKpCOqCtQ,"8QHR+W9 Dangdhara, Bangladesh",7MQF8QHR+W9
Zigabari government hospital,25.3300427,89.7563294,not found,not found,"['hospital', 'health', 'point_of_interest', 'establishment']",Dewanganj Upazila,ChIJZ-BDm2pB_TkR10Hsc6bcuAg,"8QJ4+2G Dangdhara, Bangladesh",7MQF8QJ4+2G
Raisa Medical Hall,25.3648929,89.7674092,not found,not found,"['hospital', 'health', 'point_of_interest', 'establishment']",Dewanganj Upazila,ChIJ4Sa0fmFB_TkR5Gquc-S3nPI,"9Q78+XX Sanandabari Hat, Bangladesh",7MQF9Q78+XX
Sanandabari Health Center,25.365311,89.7673938,not found,not found,"['hospital', 'health', 'point_of_interest', 'establishment']","Sanandabari Bazar - Moulavirchar Ferryghat Road, Sanandabari Hat",ChIJnXSWlVpB_TkRXhQLyjBa2GY,"9Q88+4X Sanandabari Hat, Bangladesh",7MQF9Q88+4X
"Dhoromchas Primary Health Center, Dhoromchas",25.350779,89.8499777,not found,not found,"['hospital', 'health', 'point_of_interest', 'establishment']",,ChIJv-y1M8lD_TkR1XL8TsW5m9E,"9R2X+8X Bagicha, Meghalaya, India",7MQF9R2X+8X
Md Torequl islam shamol,25.3320109,89.7272391,not found,not found,"['hospital', 'health', 'point_of_interest', 'establishment']",Fulchhari Upazila,ChIJA3gg-t1B_TkRjcElrffwdAs,"8PJG+RV Pechighat, Bangladesh",7MQF8PJG+RV
বাঘারচর কমিউনিটি ক্লিনিক,25.3878899,89.8072548,not found,not found,"['hospital', 'health', 'point_of_interest', 'establishment']",Dewanganj Upazila,ChIJhb_i42dF_TkRCyY9vTmh5Z0,"9RQ4+5W Dangdhara, Bangladesh",7MQF9RQ4+5W
বাঘার চর কমিউনিটি,25.3907864,89.8091843,not found,not found,"['hospital', 'health', 'point_of_interest', 'establishment']","Char Rajibpur - Rowmari Road, Dangdhara",ChIJDXrNVTZF_TkR_2RKkmh2BdQ,"9RR5+8M Dangdhara, Bangladesh",7MQF9RR5+8M
Akhi Antor Clinic,25.2782471,89.8275568,not found,not found,"['hospital', 'health', 'point_of_interest', 'establishment']",Nayapara Moor-Sarmara Bazar Road,ChIJKYLMNdxp_TkR9q4zDPyQazI,"7RHH+72 Bogarchar, Bangladesh",7MQF7RHH+72
আশ্রাব উদ্দিন হাসপাতাল,25.2772083,89.8277007,not found,not found,"['hospital', 'health', 'point_of_interest', 'establishment']","বকশীগঞ্জ উপজেলা, Ramrampur Sharmara",ChIJrembzB9p_TkRqBHEITHanUI,"7RGH+V3 Bogarchar, Bangladesh",7MQF7RGH+V3
Seba Medical Hall,25.2654154,89.8252198,not found,not found,"['hospital', 'health', 'point_of_interest', 'establishment']",Bogarchar - Taliapara Road,ChIJ09gQGY9p_TkRi3Sm2_3Ozxk,"7R8G+53 Bogarchar, Bangladesh",7MQF7R8G+53
Mahendraganj community Health Center,25.2983418,89.8641374,3.5,2,"['hospital', 'health', 'point_of_interest', 'establishment']","Kukurmua, Mahendraganj",ChIJ3enNgERd_TkRYogvPRkJvuw,"7VX7+8M Mahendraganj, Meghalaya, India",7MQF7VX7+8M
Hospital,25.2984549,89.8642802,3,1,"['hospital', 'health', 'point_of_interest', 'establishment']",MDR 5,ChIJj_WwgERd_TkR0_KZfrFKzW8,"7VX7+9P Mahendraganj, Meghalaya, India",7MQF7VX7+9P
CHC,25.2979717,89.8640693,not found,not found,"['hospital', 'health', 'point_of_interest', 'establishment']",Kukurmua,ChIJ-5eHL2dd_TkRvxdYeM0IDuY,"7VX7+5J Kukurmua, Meghalaya, India",7MQF7VX7+5J
Khamar Gedra Community Clinic,25.2793401,89.8774485,not found,not found,"['hospital', 'health', 'point_of_interest', 'establishment']",Lauchapra Obokash Kendro-Kamalpur Road,ChIJX8pPi9dn_TkRoy8ieSbG8Vg,"7VHG+PX Uthanerpara, Bangladesh",7MQF7VHG+PX
SHOPON TELECOM JALURCHORBAZAR,25.2416281,89.7610874,not found,not found,"['hospital', 'health', 'point_of_interest', 'establishment']","ঝালরচর বাজার, বাহাদুরাবাদ - হাটেভাঙ্গা রোড",ChIJydPpm4Fr_TkRru2n34xeaY4,"6QR6+MC Bahadurabad, Bangladesh",7MQF6QR6+MC
SHOPON TELE.COM,25.2415199,89.760353,not found,not found,"['hospital', 'health', 'point_of_interest', 'establishment']","ঝালরচর বাজার, বাহাদুরাবাদ - হাটেভাঙ্গা রোড",ChIJ7Z311DBr_TkRkPa0ACt1XAY,"6QR6+J4 Bahadurabad, Bangladesh",7MQF6QR6+J4
Ma pharmacy,25.259785,89.7192132,1,1,"['hospital', 'health', 'point_of_interest', 'establishment']",Fulchhari Upazila,ChIJhTaxvPdr_TkRnnteNTxGfb4,"7P59+WM Magrighat, Bangladesh",7MQF7P59+WM
community health centre,25.2670142,89.8772661,not found,not found,"['hospital', 'health', 'point_of_interest', 'establishment']",Bakshiganj Upazila,ChIJsZHgLYln_TkRvzL0S213E9M,"7V8G+RW Uthanerpara, Bangladesh",7MQF7V8G+RW
Hospital,25.0281126,89.8218236,not found,not found,"['hospital', 'health', 'point_of_interest', 'establishment']",Islampur - Melendah Road,ChIJk0R-BeZw_TkRM50T4wWfHSE,"2RHC+6P Durmut, Bangladesh",7MQF2RHC+6P
Sheikh Hasina Institute of Health Technology,25.0896086,89.781261,5,1,"['hospital', 'health', 'point_of_interest', 'establishment']","ইসলামপুর পৌরসভা, Islampur-Dewanganj Road, Dormokura",ChIJoZ4nxlhx_TkRKs1FiLHqZyw,"3QQJ+RG Dormokura, Bangladesh",7MQF3QQJ+RG
Bulbul Diagnostic Center,25.0790605,89.7932044,3.5,4,"['hospital', 'health', 'point_of_interest', 'establishment']",Islampur-Melendah Road,ChIJ05fLyulx_TkR_E7GUu2vTYo,"3QHV+J7 Dormokura, Bangladesh",7MQF3QHV+J7
শাহ কামাল হাসপাতাল,25.0793599,89.7962933,3,2,"['hospital', 'health', 'point_of_interest', 'establishment']",Islampur-Melendah Road,ChIJ8R5-Cdxx_TkR0aKilCxmmwM,"3QHW+PG Dormokura, Bangladesh",7MQF3QHW+PG
Islampur Upazila Health Complex,25.0779718,89.7993939,4,6,"['hospital', 'health', 'point_of_interest', 'establishment']",Islampur Upazila,ChIJMR7Wc8Rx_TkRL7tMiBI06tg,"3QHX+5Q Malmara, Bangladesh",7MQF3QHX+5Q
Islampur Upazila Health Complex,25.0778469,89.799385,4.2,13,"['hospital', 'health', 'point_of_interest', 'establishment']","Melendah Rd, ইসলামপুর",ChIJK-yu5ehx_TkRC9bbHojXpN8,"3QHX+4Q Malmara, Bangladesh",7MQF3QHX+4Q
Upzila Health Complex,25.0777505,89.800729,not found,not found,"['hospital', 'health', 'point_of_interest', 'establishment']",Islampur Upazila,ChIJi6onZyBx_TkReIKHm0IC8t4,"3RH2+47 Malmara, Bangladesh",7MQF3RH2+47
পাঁচবাড়ীয়া কমিউনিটি ক্লিনিক,25.0558122,89.7758354,5,2,"['hospital', 'health', 'point_of_interest', 'establishment']",Panchbaria,ChIJ89YghIdx_TkRSHW2LTk2Ueg,"3Q4G+88 Dhengarga, Bangladesh",7MQF3Q4G+88
আমবাড়ীয়া কমিউনিটি ক্লিনিক,25.0638813,89.8138118,not found,not found,"['hospital', 'health', 'point_of_interest', 'establishment']","Rd, Ambaria",ChIJd_avnrdx_TkR9P5XIwhisEU,"3R77+HG Ambaria, Bangladesh",7MQF3R77+HG
হাড়ীয়া বাড়ি জামে মসজিদ,25.1096221,89.7546739,not found,not found,"['hospital', 'health', 'point_of_interest', 'establishment']",Hariabari,ChIJI4WFMhNt_TkR7qGcpWfd9jo,"4Q53+RV Hariabari, Bangladesh",7MQF4Q53+RV
Boliadoho comiunity clinic,25.0682224,89.7425026,not found,not found,"['hospital', 'health', 'point_of_interest', 'establishment']",Islampur Upazila,ChIJ77Hh1Jdz_TkR2seYL6gjL-Q,"3P9V+72 Bamna, Bangladesh",7MQF3P9V+72
Durmut hospital,25.0451613,89.8261758,4.8,5,"['hospital', 'health', 'point_of_interest', 'establishment']",Melandaha,ChIJrWaFFPZw_TkRzSlTccOA1C4,"2RWG+3F Durmut, Bangladesh",7MQF2RWG+3F
STS Durmut,25.0403052,89.8234423,not found,not found,"['hospital', 'health', 'point_of_interest', 'establishment']","মেলান্দহ উপজেলা, durmut, melandoho",ChIJeztyCDdx_TkRoRX2AUNtTzE,"2RRF+49 Durmut, Bangladesh",7MQF2RRF+49
kaji Bari Comonity Clinick,25.0860881,89.7225221,5,1,"['hospital', 'health', 'point_of_interest', 'establishment']",Islampur Upazila,ChIJjcd8dQ5z_TkRamo_nFzbaMI,"3PPF+C2 পশ্চিম বামনা, Bangladesh",7MQF3PPF+C2
পচাবহলা কমিউনিটি ক্লিনিক,25.0267061,89.7700968,5,1,"['hospital', 'health', 'point_of_interest', 'establishment']",Unnamed Road,ChIJex-cO9xz_TkRfL3hwCsGvMc,"2QGC+M2 Baniabari, Bangladesh",7MQF2QGC+M2
Belgacha Union Health Centre,25.0929504,89.7220346,5,1,"['hospital', 'health', 'point_of_interest', 'establishment']",Belgacha,ChIJuaKRD11z_TkRRrNeATDexxg,"3PVC+5R Belgacha, Bangladesh",7MQF3PVC+5R
Belgacha Union Family Health Centre,25.0929504,89.7220346,not found,not found,"['hospital', 'health', 'point_of_interest', 'establishment']",Belgacha,ChIJ7Wb6YQRz_TkRPIB-wOU4d4s,"3PVC+5R Belgacha, Bangladesh",7MQF3PVC+5R
দেওয়ানগঞ্জ আধুনিক হসপিটাল,25.1410315,89.7729725,not found,not found,"['hospital', 'health', 'point_of_interest', 'establishment']",Kharma,ChIJo2rNNUxt_TkRO_Y863w8q-0,"4QRF+C5 Dewanganj, Bangladesh",7MQF4QRF+C5
Dewangonj Adhunik Hospital,25.1415002,89.7728337,5,1,"['hospital', 'health', 'point_of_interest', 'establishment']",Kharma,ChIJJ8OyfStt_TkR5mBftkNL_28,"4QRF+J4 Dewanganj, Bangladesh",7MQF4QRF+J4
Gamaria Communiti Clinic,25.1487269,89.7709424,not found,not found,"['hospital', 'health', 'point_of_interest', 'establishment']",Dewanganj Upazila,ChIJrfPT0gBt_TkRdUoZiFGCB0g,"4QXC+F9 Dewanganj, Bangladesh",7MQF4QXC+F9
kaji Bari Comonity Clinick,25.0860881,89.7225221,5,1,"['hospital', 'health', 'point_of_interest', 'establishment']",Islampur Upazila,ChIJjcd8dQ5z_TkRamo_nFzbaMI,"3PPF+C2 পশ্চিম বামনা, Bangladesh",7MQF3PPF+C2
Belgacha Union Health Centre,25.0929504,89.7220346,5,1,"['hospital', 'health', 'point_of_interest', 'establishment']",Belgacha,ChIJuaKRD11z_TkRRrNeATDexxg,"3PVC+5R Belgacha, Bangladesh",7MQF3PVC+5R
Belgacha Union Family Health Centre,25.0929504,89.7220346,not found,not found,"['hospital', 'health', 'point_of_interest', 'establishment']",Belgacha,ChIJ7Wb6YQRz_TkRPIB-wOU4d4s,"3PVC+5R Belgacha, Bangladesh",7MQF3PVC+5R
Boliadoho comiunity clinic,25.0682224,89.7425026,not found,not found,"['hospital', 'health', 'point_of_interest', 'establishment']",Islampur Upazila,ChIJ77Hh1Jdz_TkR2seYL6gjL-Q,"3P9V+72 Bamna, Bangladesh",7MQF3P9V+72
হাড়ীয়া বাড়ি জামে মসজিদ,25.1096221,89.7546739,not found,not found,"['hospital', 'health', 'point_of_interest', 'establishment']",Hariabari,ChIJI4WFMhNt_TkR7qGcpWfd9jo,"4Q53+RV Hariabari, Bangladesh",7MQF4Q53+RV
Sheikh Hasina Institute of Health Technology,25.0896086,89.781261,5,1,"['hospital', 'health', 'point_of_interest', 'establishment']","ইসলামপুর পৌরসভা, Islampur-Dewanganj Road, Dormokura",ChIJoZ4nxlhx_TkRKs1FiLHqZyw,"3QQJ+RG Dormokura, Bangladesh",7MQF3QQJ+RG
পাঁচবাড়ীয়া কমিউনিটি ক্লিনিক,25.0558122,89.7758354,5,2,"['hospital', 'health', 'point_of_interest', 'establishment']",Panchbaria,ChIJ89YghIdx_TkRSHW2LTk2Ueg,"3Q4G+88 Dhengarga, Bangladesh",7MQF3Q4G+88
Bulbul Diagnostic Center,25.0790605,89.7932044,3.5,4,"['hospital', 'health', 'point_of_interest', 'establishment']",Islampur-Melendah Road,ChIJ05fLyulx_TkR_E7GUu2vTYo,"3QHV+J7 Dormokura, Bangladesh",7MQF3QHV+J7
শাহ কামাল হাসপাতাল,25.0793599,89.7962933,3,2,"['hospital', 'health', 'point_of_interest', 'establishment']",Islampur-Melendah Road,ChIJ8R5-Cdxx_TkR0aKilCxmmwM,"3QHW+PG Dormokura, Bangladesh",7MQF3QHW+PG
পচাবহলা কমিউনিটি ক্লিনিক,25.0267061,89.7700968,5,1,"['hospital', 'health', 'point_of_interest', 'establishment']",Unnamed Road,ChIJex-cO9xz_TkRfL3hwCsGvMc,"2QGC+M2 Baniabari, Bangladesh",7MQF2QGC+M2
Islampur Upazila Health Complex,25.0779718,89.7993939,4,6,"['hospital', 'health', 'point_of_interest', 'establishment']",Islampur Upazila,ChIJMR7Wc8Rx_TkRL7tMiBI06tg,"3QHX+5Q Malmara, Bangladesh",7MQF3QHX+5Q
Islampur Upazila Health Complex,25.0778469,89.799385,4.2,13,"['hospital', 'health', 'point_of_interest', 'establishment']","Melendah Rd, ইসলামপুর",ChIJK-yu5ehx_TkRC9bbHojXpN8,"3QHX+4Q Malmara, Bangladesh",7MQF3QHX+4Q
Upzila Health Complex,25.0777505,89.800729,not found,not found,"['hospital', 'health', 'point_of_interest', 'establishment']",Islampur Upazila,ChIJi6onZyBx_TkReIKHm0IC8t4,"3RH2+47 Malmara, Bangladesh",7MQF3RH2+47
দেওয়ানগঞ্জ আধুনিক হসপিটাল,25.1410315,89.7729725,not found,not found,"['hospital', 'health', 'point_of_interest', 'establishment']",Kharma,ChIJo2rNNUxt_TkRO_Y863w8q-0,"4QRF+C5 Dewanganj, Bangladesh",7MQF4QRF+C5
Dewangonj Adhunik Hospital,25.1415002,89.7728337,5,1,"['hospital', 'health', 'point_of_interest', 'establishment']",Kharma,ChIJJ8OyfStt_TkR5mBftkNL_28,"4QRF+J4 Dewanganj, Bangladesh",7MQF4QRF+J4
SHEMUL,25.1528075,89.7575499,not found,not found,"['hospital', 'health', 'point_of_interest', 'establishment']",Dewanganj Upazila,ChIJLdjecHZt_TkR54WJTEq2iFE,"5Q35+42 Dewanganj, Bangladesh",7MQF5Q35+42
Gamaria Communiti Clinic,25.1487269,89.7709424,not found,not found,"['hospital', 'health', 'point_of_interest', 'establishment']",Dewanganj Upazila,ChIJrfPT0gBt_TkRdUoZiFGCB0g,"4QXC+F9 Dewanganj, Bangladesh",7MQF4QXC+F9
Dewanganj Upazila Health Complex,25.1617691,89.7588987,4.3,7,"['hospital', 'health', 'point_of_interest', 'establishment']",Dewanganj,ChIJ5WkVAT9s_TkRzcrGM2qQemc,"5Q65+PH Dewanganj, Bangladesh",7MQF5Q65+PH
Upazila Health Complex,25.1620332,89.7584721,not found,not found,"['hospital', 'health', 'point_of_interest', 'establishment']",Dewanganj - Bahadurabad Road,ChIJgWH-6Q9t_TkRxuY-yeKWlcY,"5Q65+R9 Dewanganj, Bangladesh",7MQF5Q65+R9
Hospital,25.1620068,89.7588372,not found,not found,"['hospital', 'health', 'point_of_interest', 'establishment']",Dewanganj,ChIJbzOsAD9s_TkRVXLHCLUQE6A,"5Q65+RG Dewanganj, Bangladesh",7MQF5Q65+RG
Hospital,25.0281126,89.8218236,not found,not found,"['hospital', 'health', 'point_of_interest', 'establishment']",Islampur - Melendah Road,ChIJk0R-BeZw_TkRM50T4wWfHSE,"2RHC+6P Durmut, Bangladesh",7MQF2RHC+6P
হাড়ীয়া বাড়ি জামে মসজিদ,25.1096221,89.7546739,not found,not found,"['hospital', 'health', 'point_of_interest', 'establishment']",Hariabari,ChIJI4WFMhNt_TkR7qGcpWfd9jo,"4Q53+RV Hariabari, Bangladesh",7MQF4Q53+RV
Sheikh Hasina Institute of Health Technology,25.0896086,89.781261,5,1,"['hospital', 'health', 'point_of_interest', 'establishment']","ইসলামপুর পৌরসভা, Islampur-Dewanganj Road, Dormokura",ChIJoZ4nxlhx_TkRKs1FiLHqZyw,"3QQJ+RG Dormokura, Bangladesh",7MQF3QQJ+RG
দেওয়ানগঞ্জ আধুনিক হসপিটাল,25.1410315,89.7729725,not found,not found,"['hospital', 'health', 'point_of_interest', 'establishment']",Kharma,ChIJo2rNNUxt_TkRO_Y863w8q-0,"4QRF+C5 Dewanganj, Bangladesh",7MQF4QRF+C5
Dewangonj Adhunik Hospital,25.1415002,89.7728337,5,1,"['hospital', 'health', 'point_of_interest', 'establishment']",Kharma,ChIJJ8OyfStt_TkR5mBftkNL_28,"4QRF+J4 Dewanganj, Bangladesh",7MQF4QRF+J4
Bulbul Diagnostic Center,25.0790605,89.7932044,3.5,4,"['hospital', 'health', 'point_of_interest', 'establishment']",Islampur-Melendah Road,ChIJ05fLyulx_TkR_E7GUu2vTYo,"3QHV+J7 Dormokura, Bangladesh",7MQF3QHV+J7
শাহ কামাল হাসপাতাল,25.0793599,89.7962933,3,2,"['hospital', 'health', 'point_of_interest', 'establishment']",Islampur-Melendah Road,ChIJ8R5-Cdxx_TkR0aKilCxmmwM,"3QHW+PG Dormokura, Bangladesh",7MQF3QHW+PG
Gamaria Communiti Clinic,25.1487269,89.7709424,not found,not found,"['hospital', 'health', 'point_of_interest', 'establishment']",Dewanganj Upazila,ChIJrfPT0gBt_TkRdUoZiFGCB0g,"4QXC+F9 Dewanganj, Bangladesh",7MQF4QXC+F9
Islampur Upazila Health Complex,25.0779718,89.7993939,4,6,"['hospital', 'health', 'point_of_interest', 'establishment']",Islampur Upazila,ChIJMR7Wc8Rx_TkRL7tMiBI06tg,"3QHX+5Q Malmara, Bangladesh",7MQF3QHX+5Q
Islampur Upazila Health Complex,25.0778469,89.799385,4.2,13,"['hospital', 'health', 'point_of_interest', 'establishment']","Melendah Rd, ইসলামপুর",ChIJK-yu5ehx_TkRC9bbHojXpN8,"3QHX+4Q Malmara, Bangladesh",7MQF3QHX+4Q
Upzila Health Complex,25.0777505,89.800729,not found,not found,"['hospital', 'health', 'point_of_interest', 'establishment']",Islampur Upazila,ChIJi6onZyBx_TkReIKHm0IC8t4,"3RH2+47 Malmara, Bangladesh",7MQF3RH2+47
SHEMUL,25.1528075,89.7575499,not found,not found,"['hospital', 'health', 'point_of_interest', 'establishment']",Dewanganj Upazila,ChIJLdjecHZt_TkR54WJTEq2iFE,"5Q35+42 Dewanganj, Bangladesh",7MQF5Q35+42
Belgacha Union Health Centre,25.0929504,89.7220346,5,1,"['hospital', 'health', 'point_of_interest', 'establishment']",Belgacha,ChIJuaKRD11z_TkRRrNeATDexxg,"3PVC+5R Belgacha, Bangladesh",7MQF3PVC+5R
Belgacha Union Family Health Centre,25.0929504,89.7220346,not found,not found,"['hospital', 'health', 'point_of_interest', 'establishment']",Belgacha,ChIJ7Wb6YQRz_TkRPIB-wOU4d4s,"3PVC+5R Belgacha, Bangladesh",7MQF3PVC+5R
Boliadoho comiunity clinic,25.0682224,89.7425026,not found,not found,"['hospital', 'health', 'point_of_interest', 'establishment']",Islampur Upazila,ChIJ77Hh1Jdz_TkR2seYL6gjL-Q,"3P9V+72 Bamna, Bangladesh",7MQF3P9V+72
kaji Bari Comonity Clinick,25.0860881,89.7225221,5,1,"['hospital', 'health', 'point_of_interest', 'establishment']",Islampur Upazila,ChIJjcd8dQ5z_TkRamo_nFzbaMI,"3PPF+C2 পশ্চিম বামনা, Bangladesh",7MQF3PPF+C2
animal hospital,25.1621789,89.7638302,not found,not found,"['hospital', 'health', 'point_of_interest', 'establishment']",Dewanganj Upazila,ChIJAyXOIURt_TkRGsDLc_49C2I,"5Q67+VG Dewanganj, Bangladesh",7MQF5Q67+VG
Dewanganj Upazila Health Complex,25.1617691,89.7588987,4.3,7,"['hospital', 'health', 'point_of_interest', 'establishment']",Dewanganj,ChIJ5WkVAT9s_TkRzcrGM2qQemc,"5Q65+PH Dewanganj, Bangladesh",7MQF5Q65+PH
Hospital,25.1620068,89.7588372,not found,not found,"['hospital', 'health', 'point_of_interest', 'establishment']",Dewanganj,ChIJbzOsAD9s_TkRVXLHCLUQE6A,"5Q65+RG Dewanganj, Bangladesh",7MQF5Q65+RG
Upazila Health Complex,25.1620332,89.7584721,not found,not found,"['hospital', 'health', 'point_of_interest', 'establishment']",Dewanganj - Bahadurabad Road,ChIJgWH-6Q9t_TkRxuY-yeKWlcY,"5Q65+R9 Dewanganj, Bangladesh",7MQF5Q65+R9
Hazrat Shah Jamal (R)General Hospital LTD.,24.9252148,89.9389925,4.4,40,"['hospital', 'health', 'point_of_interest', 'establishment']","Pach Rasta Mor, Jamalpur",ChIJDRo25Wh__TkRzq3pFcdhmO8,"WWGQ+3H Jamalpur, Bangladesh",7MPFWWGQ+3H
Porichorja Clinic,24.9260074,89.9467838,4,7,"['hospital', 'health', 'point_of_interest', 'establishment']",Jamalpur,ChIJl8A7Gmt__TkR41Xv2fIp1nY,"WWGW+CP Jamalpur, Bangladesh",7MPFWWGW+CP
Matri Sodon Hospital,24.9272142,89.9458221,4.3,4,"['hospital', 'health', 'point_of_interest', 'establishment']","Muslimabad Road, Jamalpur",ChIJf_4K0Gp__TkR7yfvb-hYgOw,"WWGW+V8 Jamalpur, Bangladesh",7MPFWWGW+V8
Amena General Hospital,24.9276736,89.9440226,5,1,"['hospital', 'health', 'point_of_interest', 'establishment']","2 Miapara Rd, Jamalpur 2000 Miapara Road, Jamalpur",ChIJM5p0qmp__TkRAQx6XZFPCUI,"WWHV+3J Jamalpur, Bangladesh",7MPFWWHV+3J
Jamalpur Central Hospital,24.9332171,89.9421193,4.1,31,"['hospital', 'health', 'point_of_interest', 'establishment']",Jamalpur,ChIJKVTeej5__TkRmBzqQFclAA0,"WWMR+7R Jamalpur, Bangladesh",7MPFWWMR+7R
হেলথকেয়ার হাসপাতাল,24.9328036,89.9384629,4,4,"['hospital', 'health', 'point_of_interest', 'establishment']","100 College Road, Jamalpur",ChIJS7gHRDl__TkRb6JFNLK9f0U,"WWMQ+49 Jamalpur, Bangladesh",7MPFWWMQ+49
Al Sina Hospital,24.9147387,89.9409233,5,2,"['hospital', 'health', 'point_of_interest', 'establishment']",Jamalpur Sadar Upazila,ChIJLctQwlx__TkRouzYknWf9dc,"WW7R+V9 Jamalpur, Bangladesh",7MPFWW7R+V9
Upashom General Hospital,24.9357785,89.9399393,4.3,3,"['hospital', 'health', 'point_of_interest', 'establishment']",Jamalpur Sadar Upazila,ChIJ11Ybbjx__TkRLFgcOGulDIk,"WWPQ+8X Jamalpur, Bangladesh",7MPFWWPQ+8X
Doctors General Hospital,24.9090951,89.9499848,4,1,"['hospital', 'health', 'point_of_interest', 'establishment']",Station Road,ChIJWfg-uWN__TkRMD9G9K6dBj8,"WW5X+JX Jamalpur, Bangladesh",7MPFWW5X+JX
Sobuj Homiyo Hall,24.8598734,89.9442422,3,1,"['hospital', 'health', 'point_of_interest', 'establishment']",Joydevpur - Tangail - Jamalpur Highway,ChIJQb3r0KGB_TkRdvHfT2wc9PQ,"VW5V+WM Kendua Bazar, Bangladesh",7MPFVW5V+WM
পরিচর্যা ক্লিনিক,24.9261373,89.9468044,2,1,"['hospital', 'health', 'point_of_interest', 'establishment']","Shahid harun Sarak, Jamalpur",ChIJpZ25ZZJ__TkRzZ49l_37s7U,"WWGW+FP Jamalpur, Bangladesh",7MPFWWGW+FP
Manab Seba Hospital & Diagnostic Center (মানবসেবা হাসপাতাল),24.926088,89.9481274,4,1,"['hospital', 'health', 'point_of_interest', 'establishment']","Shahid Harun Sharak, Sadar Medical Rd 2000, জামালপুর",ChIJPz1H4mV__TkRxrYWZeZqRyw,"WWGX+C7 Jamalpur, Bangladesh",7MPFWWGX+C7
মাতৃকল্যান হাসপাতাল,24.9271306,89.9467206,not found,not found,"['hospital', 'health', 'point_of_interest', 'establishment']",Jamalpur Sadar Upazila,ChIJ1QmUf7d__TkRUQ96li3yFuw,"WWGW+VM Jamalpur, Bangladesh",7MPFWWGW+VM
Punom Nursing Home,24.9265608,89.9481824,not found,not found,"['hospital', 'health', 'point_of_interest', 'establishment']",Jamalpur,ChIJ06EUXWt__TkRdFXCebxgC-0,"WWGX+J7 Jamalpur, Bangladesh",7MPFWWGX+J7
Uropa Hospital,24.927183,89.948297,not found,not found,"['hospital', 'health', 'point_of_interest', 'establishment']","Unnamed Road, Jamalpur",ChIJ3R9VXxl__TkRLCet6kvIil0,"WWGX+V8 Jamalpur, Bangladesh",7MPFWWGX+V8
"Jamalpur Apollo hospital,jamalpur",24.923802,89.942906,not found,not found,"['hospital', 'health', 'point_of_interest', 'establishment']","মোড়, দেওয়ান পাড়া, জামালপুর",ChIJX0ovh5Z__TkRagrfR6ewLF8,"WWFV+G5 Jamalpur, Bangladesh",7MPFWWFV+G5
Monowara Consultant And Diagnostic Center,24.9211067,89.9462076,4,2,"['hospital', 'health', 'point_of_interest', 'establishment']",Jamalpur,ChIJXWEBnWl__TkRrLXm5ps4qag,"WWCW+CF Jamalpur, Bangladesh",7MPFWWCW+CF
নাকিব উদ্দিন হসপিটাল,24.9227125,89.9506014,not found,not found,"['hospital', 'health', 'point_of_interest', 'establishment']",NakibUddin Hospital,ChIJwQlsiYx__TkRJGkvlEPuPZI,"WXF2+36 Jamalpur, Bangladesh",7MPFWXF2+36
নাকিব উদ্দিন হাসপাতালে,24.9226997,89.9506044,4,8,"['hospital', 'health', 'point_of_interest', 'establishment']","Mukanda Bari Road, Jamalpur",ChIJ3WcwLmx__TkRDVOIm4weE9U,"WXF2+36 Jamalpur, Bangladesh",7MPFWXF2+36
Dr. AKM Zaman,24.9205503,89.9454349,not found,not found,"['hospital', 'health', 'point_of_interest', 'establishment']","New College Road, Jamalpur",ChIJ-3tbcwp__TkRojIgAOgYgaI,"WWCW+65 Jamalpur, Bangladesh",7MPFWWCW+65
Jowel Medical Hall,24.8178145,89.977187,5,1,"['hospital', 'health', 'point_of_interest', 'establishment']",Jamalpur,ChIJozIpKcmA_TkRlVxK5XRBMCI,"RX9G+4V Jamalpur, Bangladesh",7MPFRX9G+4V
Sobuj Homiyo Hall,24.8598734,89.9442422,3,1,"['hospital', 'health', 'point_of_interest', 'establishment']",Joydevpur - Tangail - Jamalpur Highway,ChIJQb3r0KGB_TkRdvHfT2wc9PQ,"VW5V+WM Kendua Bazar, Bangladesh",7MPFVW5V+WM
Doctors General Hospital,24.9090951,89.9499848,4,1,"['hospital', 'health', 'point_of_interest', 'establishment']",Station Road,ChIJWfg-uWN__TkRMD9G9K6dBj8,"WW5X+JX Jamalpur, Bangladesh",7MPFWW5X+JX
Al Sina Hospital,24.9147387,89.9409233,5,2,"['hospital', 'health', 'point_of_interest', 'establishment']",Jamalpur Sadar Upazila,ChIJLctQwlx__TkRouzYknWf9dc,"WW7R+V9 Jamalpur, Bangladesh",7MPFWW7R+V9
Porichorja Clinic,24.9260074,89.9467838,4,7,"['hospital', 'health', 'point_of_interest', 'establishment']",Jamalpur,ChIJl8A7Gmt__TkR41Xv2fIp1nY,"WWGW+CP Jamalpur, Bangladesh",7MPFWWGW+CP
Matri Sodon Hospital,24.9272142,89.9458221,4.3,4,"['hospital', 'health', 'point_of_interest', 'establishment']","Muslimabad Road, Jamalpur",ChIJf_4K0Gp__TkR7yfvb-hYgOw,"WWGW+V8 Jamalpur, Bangladesh",7MPFWWGW+V8
Amena General Hospital,24.9276736,89.9440226,5,1,"['hospital', 'health', 'point_of_interest', 'establishment']","2 Miapara Rd, Jamalpur 2000 Miapara Road, Jamalpur",ChIJM5p0qmp__TkRAQx6XZFPCUI,"WWHV+3J Jamalpur, Bangladesh",7MPFWWHV+3J
Hazrat Shah Jamal (R)General Hospital LTD.,24.9252148,89.9389925,4.4,40,"['hospital', 'health', 'point_of_interest', 'establishment']","Pach Rasta Mor, Jamalpur",ChIJDRo25Wh__TkRzq3pFcdhmO8,"WWGQ+3H Jamalpur, Bangladesh",7MPFWWGQ+3H
Jamalpur Central Hospital,24.9332171,89.9421193,4.1,31,"['hospital', 'health', 'point_of_interest', 'establishment']",Jamalpur,ChIJKVTeej5__TkRmBzqQFclAA0,"WWMR+7R Jamalpur, Bangladesh",7MPFWWMR+7R
হেলথকেয়ার হাসপাতাল,24.9328036,89.9384629,4,4,"['hospital', 'health', 'point_of_interest', 'establishment']","100 College Road, Jamalpur",ChIJS7gHRDl__TkRb6JFNLK9f0U,"WWMQ+49 Jamalpur, Bangladesh",7MPFWWMQ+49
Nandina Sheikh Anwar Hossain Privet Medical,24.8687708,90.033562,1,1,"['hospital', 'health', 'point_of_interest', 'establishment']",Nandina,ChIJG3VzS-MqVjcRTYpYuUrkoDo,"V29M+GC Nandina, Bangladesh",7MPGV29M+GC
Nandina Privet Clinic,24.8701964,90.0337469,3.5,2,"['hospital', 'health', 'point_of_interest', 'establishment']","Station Road, Jamalpur",ChIJH57qauMqVjcRoA8-k6DqsZI,"V2CM+3F Nandina, Bangladesh",7MPGV2CM+3F
নান্দিনা জেনারেল হাসপাতাল,24.8702373,90.0337459,not found,not found,"['hospital', 'health', 'point_of_interest', 'establishment']",Nandina,ChIJ-RC7tlcrVjcRSm3giVWwh9o,"V2CM+3F Nandina, Bangladesh",7MPGV2CM+3F
"Nandina Sheikh Anwar Hossain General Hospital, nandina, Jamalpur",24.87023,90.0337278,not found,not found,"['hospital', 'health', 'point_of_interest', 'establishment']",Nandina,ChIJ6TXaKtArVjcREYQN6m2NW8s,"V2CM+3F Nandina, Bangladesh",7MPGV2CM+3F
Nandina Government Hospital,24.8702488,90.0333403,4.9,13,"['hospital', 'health', 'point_of_interest', 'establishment']",Jamalpur Sadar Upazila,ChIJyT1FaOMqVjcRbMOImcUEaIk,"V2CM+38 Nandina, Bangladesh",7MPGV2CM+38
মেসার্স আদিব মেডিকেল হল,24.8685884,90.0314432,not found,not found,"['hospital', 'health', 'point_of_interest', 'establishment']",নান্দিনা,ChIJL52uuKQrVjcRUWJGR3uTyPg,"V29J+CH Nandina, Bangladesh",7MPGV29J+CH
Comfort Diagnostic & Health Complex,24.8717756,90.0327649,5,3,"['hospital', 'health', 'point_of_interest', 'establishment']",Nandina,ChIJOz79BOwrVjcRr93_RlKLQ6k,"V2CM+P4 Nandina, Bangladesh",7MPGV2CM+P4
likhon medical hall/লিখন মেডিকেল হল,24.8712723,90.0306308,5,3,"['hospital', 'health', 'point_of_interest', 'establishment']",Nandina,ChIJhYxDU-QrVjcRmw1C6ZQENq8,"V2CJ+G7 Nandina, Bangladesh",7MPGV2CJ+G7
Nandina TB Clinic,24.8710823,90.0297457,not found,not found,"['hospital', 'health', 'point_of_interest', 'establishment']","Station Road, নান্দিনা",ChIJi_-IBeUqVjcRyCcSZa63NYQ,"V2CH+CV Nandina, Bangladesh",7MPGV2CH+CV
Shaikat Palace সৈকত প্যালেস,24.8669515,90.0299324,5,6,"['hospital', 'lodging', 'health', 'point_of_interest', 'establishment']","জামালপুর সদর উপজেলা, Nandina puraton para",ChIJCzYf6CorVjcR8WeNnWNG488,"V28H+QX Nandina, Bangladesh",7MPGV28H+QX
Santo Homio Hall,24.8681811,90.1167391,5,1,"['hospital', 'health', 'point_of_interest', 'establishment']",Jamalpur Sadar Upazila,ChIJ3QSyejItVjcRsl8DXfdwVdA,"V498+7M Narundi, Bangladesh",7MPGV498+7M
ইউনিয়ন স্বাস্থ্য ও পরিবার কেন্দ্র,24.8654628,90.118329,not found,not found,"['hospital', 'health', 'point_of_interest', 'establishment']",Jamalpur Sadar Upazila,ChIJO7GkqDstVjcR4mrOgzZAcVI,"V489+58 Narundi, Bangladesh",7MPGV489+58
Dowatala Govt. Hospital,24.8917846,90.1246608,not found,not found,"['hospital', 'health', 'point_of_interest', 'establishment']",Jamalpur Sadar Upazila,ChIJ02Ts2cotVjcR-XyhFiohV7I,"V4RF+PV Bachhur Algi, Bangladesh",7MPGV4RF+PV
"স্বাস্থ্য ও পরিবার কল্যাণ কেন্দ্র, মোহনপুর",24.8454655,90.085801,3,2,"['hospital', 'health', 'point_of_interest', 'establishment']",Jamalpur Sadar Upazila,ChIJFU3OemUsVjcRI8iBYW4K1WY,"R3WP+58 Lahirikanda, Bangladesh",7MPGR3WP+58
"UH&FWC,Mohonpur,Bashchara Union",24.8454509,90.0858076,5,1,"['hospital', 'health', 'point_of_interest', 'establishment']","-জামালপুর রোড়,মোহনপুর,সদর উপজেলা,জামালপুর, Mymensingh",ChIJA23QemUsVjcRtNO9KMB9M_Y,"R3WP+58 Lahirikanda, Bangladesh",7MPGR3WP+58
Gopalpur general hospital,24.8321827,90.1002043,not found,not found,"['hospital', 'health', 'point_of_interest', 'establishment']",Jamalpur Sadar Upazila,ChIJTbwwicQtVjcR0sdCpFdl6Dw,"R4J2+V3 Aralia, Bangladesh",7MPGR4J2+V3
Panacea Health Center,24.8295485,90.1036573,5,2,"['hospital', 'health', 'point_of_interest', 'establishment']",Jamalpur Sadar Upazila,ChIJkVsXI9ktVjcRCRHSkCj60sw,"R4H3+RF Aralia, Bangladesh",7MPGR4H3+RF
চন্ডিমন্ডপ আব্দুল আজিজ কমিউনিটি ক্লিনিক,24.8555003,90.0741691,not found,not found,"['hospital', 'health', 'point_of_interest', 'establishment']",Muktagacha-Jamalpur Road,ChIJkzod3NIrVjcR33R9q3YVr_s,"V34F+6M Lahirikanda, Bangladesh",7MPGV34F+6M
ভারুয়াখালী কমিউনিটি ক্লিনিক,24.8183866,90.1239794,not found,not found,"['hospital', 'health', 'point_of_interest', 'establishment']",Jamalpur Sadar Upazila,ChIJ_7TeJyotVjcRoeOsus8nnfI,"R49F+9H Varuakhali, Bangladesh",7MPGR49F+9H
ইউনিয়ন স্বাস্থ্য কমপ্লেক্স,24.8733348,90.172864,5,3,"['hospital', 'health', 'point_of_interest', 'establishment']",Jamalpur Sadar Upazila,ChIJoQU64DQzVjcRqi1z8TLfBV4,"V5FF+84 Piyarpur, Bangladesh",7MPGV5FF+84
সরকারি স্বাস্থ্য কমপ্লেক্স,24.8733296,90.172866,5,1,"['hospital', 'health', 'point_of_interest', 'establishment']",Jamalpur Sadar Upazila,ChIJ0Vr3noMzVjcRJDHdV0LoMJQ,"V5FF+84 Piyarpur, Bangladesh",7MPGV5FF+84
Union Health Complex,24.8734683,90.172918,3.5,2,"['hospital', 'health', 'point_of_interest', 'establishment']",Jamalpur Sadar Upazila,ChIJF6xjp-4yVjcR97yM5qZiJrk,"V5FF+95 Piyarpur, Bangladesh",7MPGV5FF+95
শাহাদাত হোমিও হল,24.9312146,90.1069833,5,1,"['hospital', 'health', 'point_of_interest', 'establishment']",Beltoli Bazar,ChIJ66Xd2dzTVzcRISOcCjOdX0I,"W4J4+FQ Fatiamari, Bangladesh",7MPGW4J4+FQ
শাহাদাত হোমিও হল বেলতলি বাজার,24.9313038,90.1070248,not found,not found,"['hospital', 'health', 'point_of_interest', 'establishment']","Unnamed Road, Fatiamari",ChIJT1VtDhXTVzcRaDoA825XF9I,"W4J4+GR Fatiamari, Bangladesh",7MPGW4J4+GR
Doctors General Hospital,24.8567435,90.0373201,not found,not found,"['hospital', 'health', 'point_of_interest', 'establishment']",Jamalpur,ChIJw41_fQMrVjcR1i5DOrRz-zE,"V24P+MW Nandina, Bangladesh",7MPGV24P+MW
স্বাস্থ্য ডট কম,24.8567435,90.0373201,not found,not found,"['hospital', 'health', 'point_of_interest', 'establishment']",Jamalpur Sadar Upazila,ChIJf2RTWKaH_TkRm26sIany_Z4,"V24P+MW Nandina, Bangladesh",7MPGV24P+MW
ডক্টরস জেনারেল হাসপাতাল,24.8567435,90.0373201,not found,not found,"['hospital', 'health', 'point_of_interest', 'establishment']","Moar, Doripara Bypass",ChIJiSlvsHArVjcRkvFxs_p0oJc,"V24P+MW Nandina, Bangladesh",7MPGV24P+MW
Renesa Pvt Hospital,24.8567435,90.0373201,not found,not found,"['hospital', 'health', 'point_of_interest', 'establishment']",Jamalpur,ChIJ42A8cecrVjcRE2QXhQySu5o,"V24P+MW Nandina, Bangladesh",7MPGV24P+MW
Nandina Privet Clinic,24.8701964,90.0337469,3.5,2,"['hospital', 'health', 'point_of_interest', 'establishment']","Station Road, Jamalpur",ChIJH57qauMqVjcRoA8-k6DqsZI,"V2CM+3F Nandina, Bangladesh",7MPGV2CM+3F
নান্দিনা জেনারেল হাসপাতাল,24.8702373,90.0337459,not found,not found,"['hospital', 'health', 'point_of_interest', 'establishment']",Nandina,ChIJ-RC7tlcrVjcRSm3giVWwh9o,"V2CM+3F Nandina, Bangladesh",7MPGV2CM+3F
Medaxis Health Center,29.1833969,77.833108,4.5,4,"['hospital', 'health', 'point_of_interest', 'establishment']",Phalauda,ChIJ0WT3uYFzDDkR5GvhPucyyj4,"5RMM+96 Phalauda, Uttar Pradesh, India",7JXV5RMM+96
SDS Global Super Speciality Hospital,29.0674051,77.7095282,3.4,96,"['hospital', 'health', 'point_of_interest', 'establishment']","120/122, NH - 58, Modipuram, Opp. Agriculture University, Meerut",ChIJxQz83aRvDDkRQg5RV8HW8Vk,"3P85+XR Meerut, Uttar Pradesh, India",7JXV3P85+XR
BANSALA HOSPITAL,29.0919961,77.7956741,4,1,"['hospital', 'health', 'point_of_interest', 'establishment']",Mail,ChIJ5eIwlblxDDkRu_H-3-kTcbA,"3QRW+Q7 Mail, Uttar Pradesh, India",7JXV3QRW+Q7
Faiz Shifa Khana,29.1107299,77.7785857,not found,not found,"['hospital', 'health', 'point_of_interest', 'establishment']","Mohalla Qaziyaan, Lawar NP",ChIJoZ7zSbxxDDkRPzv6FVD0Wso,"4Q6H+7C Lawar NP, Uttar Pradesh, India",7JXV4Q6H+7C
Dr. Jayveer,29.1087327,77.7787322,4,1,"['hospital', 'health', 'point_of_interest', 'establishment']","Saini Nagar, Chindori Road, Lawar NP",ChIJP6C4J71xDDkR763rOR13Y0s,"4Q5H+FF Lawar NP, Uttar Pradesh, India",7JXV4Q5H+FF
Kirti Medical Stor,29.1083885,77.7787916,4.3,4,"['hospital', 'health', 'point_of_interest', 'establishment']",Lawar NP,ChIJuU_a2bxxDDkRdQ2OprbA-A8,"4Q5H+9G Lawar NP, Uttar Pradesh, India",7JXV4Q5H+9G
Ravi memorial clinic,29.108175,77.7777535,5,1,"['hospital', 'health', 'point_of_interest', 'establishment']",Lawar NP,ChIJjxdu0d1xDDkRTUxStrIxCCU,"4Q5H+74 Lawar NP, Uttar Pradesh, India",7JXV4Q5H+74
Paliwal Ultrasound Center,29.1058063,77.7776607,5,1,"['hospital', 'health', 'point_of_interest', 'establishment']","Unnamed Road, Lawar NP",ChIJqwYpa5RxDDkRh6lZXVrmu5g,"4Q4H+83 Lawar NP, Uttar Pradesh, India",7JXV4Q4H+83
MR Session Site APHC Lawad,29.1097445,77.774665,not found,not found,"['hospital', 'health', 'point_of_interest', 'establishment']","Daurala-Masuri Road, Lawar NP",ChIJx9lrXGlxDDkRgOYY1IHiAcc,"4Q5F+VV Lawar NP, Uttar Pradesh, India",7JXV4Q5F+VV
Prathmik Swasthya Kendra,29.1106668,77.7729703,not found,not found,"['hospital', 'health', 'point_of_interest', 'establishment']",Lawar NP,ChIJKxKNHL5xDDkRjo_CbCxvvv4,"4Q6F+75 Lawar NP, Uttar Pradesh, India",7JXV4Q6F+75
prathmik chikitsa kendra lawar,29.1108245,77.7728378,not found,not found,"['hospital', 'health', 'point_of_interest', 'establishment']",Lawar NP,ChIJc0vJJ-VxDDkRIU6F3qrhQiU,"4Q6F+84 Lawar NP, Uttar Pradesh, India",7JXV4Q6F+84
Primary Health Center,29.0958,77.8563,not found,not found,"['hospital', 'health', 'point_of_interest', 'establishment']","Mawana Khurd, Meerut, NH-119, Meerut Pauri National Highway, Meerut, Meerut",ChIJHdLAfd92DDkRkWvV-QLCwtM,"3VW4+8G Meerut, Uttar Pradesh, India",7JXV3VW4+8G
Prathmik Suwathya Kantra Mawana Khurd,29.0947039,77.8555591,not found,not found,"['hospital', 'health', 'point_of_interest', 'establishment']",Mawana Khurd,ChIJO2wLkrZ3DDkRECifYcFp08s,"3VV4+V6 Mawana Khurd, Uttar Pradesh, India",7JXV3VV4+V6
Valentis Cancer Hospital,29.0721861,77.8199239,4.2,150,"['physiotherapist', 'hospital', 'doctor', 'health', 'point_of_interest', 'establishment']","Mussoorie,, Mawana Road, Meerut",ChIJKcZOO8dwDDkR72dAX6WTaX0,"3RC9+VX Meerut, Uttar Pradesh, India",7JXV3RC9+VX
Ujjwal Health Care Center,29.0696866,77.8245,not found,not found,"['hospital', 'health', 'point_of_interest', 'establishment']",Masuri,ChIJYZ_8QZlxDDkRwFYysbbig_E,"3R9F+VR Masuri, Uttar Pradesh, India",7JXV3R9F+VR
Ujjwal Health care center,29.0690328,77.825172,5,1,"['hospital', 'health', 'point_of_interest', 'establishment']",Masuri,ChIJl8QqOmVxDDkRnfAQxfnQJhc,"3R9G+J3 Masuri, Uttar Pradesh, India",7JXV3R9G+J3
Mehraj pain relief centre,29.0686706,77.8249898,not found,not found,"['hospital', 'health', 'point_of_interest', 'establishment']","National Highway 34, Masuri",ChIJkci49FhxDDkRUWZ_nj75wYo,"3R9F+FX Masuri, Uttar Pradesh, India",7JXV3R9F+FX
Sanjay Medical Store,29.1546779,77.7761419,not found,not found,"['hospital', 'health', 'point_of_interest', 'establishment']",Mahalka,ChIJryyo-zhyDDkRsGOCzAkvgJ8,"5Q3G+VF Mahalka, Uttar Pradesh, India",7JXV5Q3G+VF
Dr. VIJAYPAL CLINIC,29.1463214,77.8705094,not found,not found,"['hospital', 'health', 'point_of_interest', 'establishment']","138 Street No, Pillona",ChIJV-d2LyZ0DDkRPC2TdmbybjI,"4VWC+G6 Pillona, Uttar Pradesh, India",7JXV4VWC+G6
priya medical store,29.1835225,77.8324052,not found,not found,"['hospital', 'health', 'point_of_interest', 'establishment']",Phalauda,ChIJETJ6lYFzDDkRacYm-yxzK8k,"5RMJ+CX Phalauda, Uttar Pradesh, India",7JXV5RMJ+CX
Hospital,25.0281126,89.8218236,not found,not found,"['hospital', 'health', 'point_of_interest', 'establishment']",Islampur - Melendah Road,ChIJk0R-BeZw_TkRM50T4wWfHSE,"2RHC+6P Durmut, Bangladesh",7MQF2RHC+6P
Madarganj Upazila Health Complex,24.8940909,89.7171718,4.1,15,"['hospital', 'health', 'point_of_interest', 'establishment']",Madarganj Upazila,ChIJ3fR8seef_TkRZvlbRvOcCIo,"VPV8+JV Madarganj, Bangladesh",7MPFVPV8+JV
Shahriar Health Complex,24.9947463,89.7531461,1,1,"['hospital', 'health', 'point_of_interest', 'establishment']",Baniabari,ChIJDfz9bW91_TkRxWQ9AVm1JL0,"XQV3+V7 Mahmudpur Bazar Area, Bangladesh",7MPFXQV3+V7
Shahid Nuru Rahman Jamaly Helth Center,24.9603242,89.7402373,5,1,"['hospital', 'health', 'point_of_interest', 'establishment']",মাদারগঞ্জ - মাহমুদপুর - মেলান্দহ রোড,ChIJfZbi2Ep1_TkRhdFO-TFEHiM,"XP6R+43 Nischintapur, Bangladesh",7MPFXP6R+43
পচাবহলা কমিউনিটি ক্লিনিক,25.0267061,89.7700968,5,1,"['hospital', 'health', 'point_of_interest', 'establishment']",Unnamed Road,ChIJex-cO9xz_TkRfL3hwCsGvMc,"2QGC+M2 Baniabari, Bangladesh",7MQF2QGC+M2
নাংলা কমিউনিটি ক্লিনিক,24.9659988,89.8063174,5,3,"['hospital', 'health', 'point_of_interest', 'establishment']",Unnamed Road,ChIJj6NbrF13_TkROyjx_9hNI9E,"XR84+9G বন্দরৌহা, Bangladesh",7MPFXR84+9G
4 No Nangla Community Hospital,24.9659527,89.8063402,not found,not found,"['hospital', 'health', 'point_of_interest', 'establishment']",Melandaha,ChIJH8IZIHF3_TkRC9ls_ArVlsU,"XR84+9G বন্দরৌহা, Bangladesh",7MPFXR84+9G
"মন্ডল বাড়ী, ফাজিলপুর, মাদারগঞ্জ, জামালপুর।",24.9480586,89.7264455,not found,not found,"['hospital', 'health', 'point_of_interest', 'establishment']",Unnamed Road,ChIJ__4Dsdp1_TkRdKrUxrjJpMo,"WPXG+6H Nischintapur, Bangladesh",7MPFWPXG+6H
রিয়ান মেডিকেল হল,24.9540449,89.7181853,4,1,"['hospital', 'health', 'point_of_interest', 'establishment']",Unnamed Road,ChIJS1BjisF1_TkRenrLi1IEl9Y,"XP39+J7 Nischintapur, Bangladesh",7MPFXP39+J7
ভালুকা কমিউনিটি,25.0186264,89.8161778,not found,not found,"['hospital', 'health', 'point_of_interest', 'establishment']",Melandaha Upazila,ChIJ_VovJ7dx_TkRo4A9-ksz-S4,"2R98+FF Melandaha, Bangladesh",7MQF2R98+FF
Teghoria Suburban Health Center,24.9530174,89.7178161,not found,not found,"['hospital', 'health', 'point_of_interest', 'establishment']",Tegharia,ChIJzQ0fXz11_TkRZD3_i8Vzv7s,"XP39+64 Nischintapur, Bangladesh",7MPFXP39+64
Melandah Health Complex,24.9860973,89.8278225,5,1,"['hospital', 'health', 'point_of_interest', 'establishment']",Melandaha,ChIJ-_BppUZ3_TkR-e8seIS0HXQ,"XRPH+C4 Melandaha, Bangladesh",7MPFXRPH+C4
মেলান্দহ প্রাণিসম্পদ কর্মকর্তার কার্যালয়,24.9817803,89.8305813,not found,not found,"['hospital', 'health', 'point_of_interest', 'establishment']","Bazar, Melandaha",ChIJQe_zgmx3_TkR-Gpl8DHR3-E,"XRJJ+P6 Melandaha, Bangladesh",7MPFXRJJ+P6
সূর্যের হাসি ক্লিনিক,24.9766015,89.8299642,not found,not found,"['hospital', 'health', 'point_of_interest', 'establishment']",Melandaha Upazila,ChIJAR9laOx3_TkRzGMS53s_vyg,"XRGH+JX Melandaha, Bangladesh",7MPFXRGH+JX
Surjer Hashi Clinic Melandah,24.9765438,89.8300338,not found,not found,"['hospital', 'health', 'point_of_interest', 'establishment']",Melandaha,ChIJb2mUjuJ3_TkRMbFT1QalrBI,"XRGJ+J2 Melandaha, Bangladesh",7MPFXRGJ+J2
kathma clinic,24.9853897,89.6989646,not found,not found,"['hospital', 'health', 'point_of_interest', 'establishment']",কাট্মা কৃষ্ণনগর,ChIJ7wRwc9oL_TkR8bouGMmfnqU,"XMPX+5H কাট্মা কৃষ্ণনগর, Bangladesh",7MPFXMPX+5H
Gopalpur Community Clinic,24.9319517,89.7356321,4,1,"['hospital', 'health', 'point_of_interest', 'establishment']",Madarganj-Melandaha Road,ChIJC2HKaIx1_TkRbuLykRQFHtQ,"WPJP+Q7 Madarganj, Bangladesh",7MPFWPJP+Q7
Melandah Hospital,24.9821383,89.8359001,not found,not found,"['hospital', 'health', 'point_of_interest', 'establishment']",Melandaha Upazila,ChIJYxkADmZ3_TkR9954Irdxdog,"XRJP+V9 Melandaha, Bangladesh",7MPFXRJP+V9
"Upazilla Health Complex , Melandaha, Dhaka Division, Bangladesh",24.9821864,89.835955,4.7,7,"['hospital', 'health', 'point_of_interest', 'establishment']",Melandaha,ChIJcSgepUZ3_TkRS5Qokov-QIo,"XRJP+V9 Melandaha, Bangladesh",7MPFXRJP+V9
Matree Chaya General Hospital,24.9815365,89.8363158,3,1,"['hospital', 'health', 'point_of_interest', 'establishment']",Adhipait,ChIJWS-46r53_TkRJi4cZrNX1Ic,"XRJP+JG Melandaha, Bangladesh",7MPFXRJP+JG
Hazrat Shah Jamal (R)General Hospital LTD.,24.9252148,89.9389925,4.4,40,"['hospital', 'health', 'point_of_interest', 'establishment']","Pach Rasta Mor, Jamalpur",ChIJDRo25Wh__TkRzq3pFcdhmO8,"WWGQ+3H Jamalpur, Bangladesh",7MPFWWGQ+3H
হেলথকেয়ার হাসপাতাল,24.9328036,89.9384629,4,4,"['hospital', 'health', 'point_of_interest', 'establishment']","100 College Road, Jamalpur",ChIJS7gHRDl__TkRb6JFNLK9f0U,"WWMQ+49 Jamalpur, Bangladesh",7MPFWWMQ+49
Upashom General Hospital,24.9357785,89.9399393,4.3,3,"['hospital', 'health', 'point_of_interest', 'establishment']",Jamalpur Sadar Upazila,ChIJ11Ybbjx__TkRLFgcOGulDIk,"WWPQ+8X Jamalpur, Bangladesh",7MPFWWPQ+8X
Jamalpur Central Hospital,24.9332171,89.9421193,4.1,31,"['hospital', 'health', 'point_of_interest', 'establishment']",Jamalpur,ChIJKVTeej5__TkRmBzqQFclAA0,"WWMR+7R Jamalpur, Bangladesh",7MPFWWMR+7R
Amena General Hospital,24.9276736,89.9440226,5,1,"['hospital', 'health', 'point_of_interest', 'establishment']","2 Miapara Rd, Jamalpur 2000 Miapara Road, Jamalpur",ChIJM5p0qmp__TkRAQx6XZFPCUI,"WWHV+3J Jamalpur, Bangladesh",7MPFWWHV+3J
Al Sina Hospital,24.9147387,89.9409233,5,2,"['hospital', 'health', 'point_of_interest', 'establishment']",Jamalpur Sadar Upazila,ChIJLctQwlx__TkRouzYknWf9dc,"WW7R+V9 Jamalpur, Bangladesh",7MPFWW7R+V9
Matri Sodon Hospital,24.9272142,89.9458221,4.3,4,"['hospital', 'health', 'point_of_interest', 'establishment']","Muslimabad Road, Jamalpur",ChIJf_4K0Gp__TkR7yfvb-hYgOw,"WWGW+V8 Jamalpur, Bangladesh",7MPFWWGW+V8
Porichorja Clinic,24.9260074,89.9467838,4,7,"['hospital', 'health', 'point_of_interest', 'establishment']",Jamalpur,ChIJl8A7Gmt__TkR41Xv2fIp1nY,"WWGW+CP Jamalpur, Bangladesh",7MPFWWGW+CP
Doctors General Hospital,24.9090951,89.9499848,4,1,"['hospital', 'health', 'point_of_interest', 'establishment']",Station Road,ChIJWfg-uWN__TkRMD9G9K6dBj8,"WW5X+JX Jamalpur, Bangladesh",7MPFWW5X+JX
Hospital,25.0281126,89.8218236,not found,not found,"['hospital', 'health', 'point_of_interest', 'establishment']",Islampur - Melendah Road,ChIJk0R-BeZw_TkRM50T4wWfHSE,"2RHC+6P Durmut, Bangladesh",7MQF2RHC+6P
AM A Rashid Chokkho Hospital,24.9442106,89.8657112,not found,not found,"['hospital', 'health', 'point_of_interest', 'establishment']",Melandaha Upazila,ChIJcx8V3bJ5_TkRT8yKjHXINN8,"WVV8+M7 Shihata, Bangladesh",7MPFWVV8+M7
"Alhajj M A Rashid Maa, Shishu O Chokkhu Hospital",24.9515936,89.8588675,4,2,"['hospital', 'health', 'point_of_interest', 'establishment']","Maloncho,Melandaha Upazila, জামালপুর",ChIJp2UuSy14_TkRVIZoz6dBGUo,"XV25+JG Melandaha, Bangladesh",7MPFXV25+JG
Suma Homeo Hall,24.9322211,89.8666798,not found,not found,"['hospital', 'health', 'point_of_interest', 'establishment']",Shihata Bajar,ChIJHetDBjp5_TkR_nidtScCIPg,"WVJ8+VM Shihata, Bangladesh",7MPFWVJ8+VM
"আলহাজ্ব এম এ রশিদ মা, শিশু ও চক্ষু হাসপাতাল",24.9534853,89.8565196,not found,not found,"['hospital', 'health', 'point_of_interest', 'establishment']",Melandaha Upazila,ChIJLWRetLh5_TkRzxUTmGvxqD8,"XV34+9J Melandaha, Bangladesh",7MPFXV34+9J
"AlHaj M.A. Rashid Ma, Shishu O Chokkho Hospital",24.9545981,89.8566962,5,3,"['hospital', 'health', 'point_of_interest', 'establishment']",Maloncho Bazar,ChIJL67fcSR5_TkRvEyUwx8qwsc,"XV34+RM Melandaha, Bangladesh",7MPFXV34+RM
Mahiramkul Health Center,24.9296997,89.8524976,4.3,3,"['hospital', 'health', 'point_of_interest', 'establishment']",Melandaha Upazila,ChIJ9SNPSSB4_TkR81LVX_mbstQ,"WVH2+VX Melandaha, Bangladesh",7MPFWVH2+VX
Rayhan medical hall,24.9258019,89.8762231,not found,not found,"['hospital', 'health', 'point_of_interest', 'establishment']",Jamalpur - Madarganj Road,ChIJTRovmkN5_TkR9hKOjgQlYq0,"WVGG+8F Shihata, Bangladesh",7MPFWVGG+8F
tara medical centre,24.9499983,89.8962307,not found,not found,"['hospital', 'health', 'point_of_interest', 'establishment']",Jamalpur - Meledah Road,ChIJrbatP_14_TkRTxqvME9FVNI,"WVXW+XF Charpolisha, Bangladesh",7MPFWVXW+XF
Surjer Hashi Clinic Melandah,24.9765438,89.8300338,not found,not found,"['hospital', 'health', 'point_of_interest', 'establishment']",Melandaha,ChIJb2mUjuJ3_TkRMbFT1QalrBI,"XRGJ+J2 Melandaha, Bangladesh",7MPFXRGJ+J2
সূর্যের হাসি ক্লিনিক,24.9766015,89.8299642,not found,not found,"['hospital', 'health', 'point_of_interest', 'establishment']",Melandaha Upazila,ChIJAR9laOx3_TkRzGMS53s_vyg,"XRGH+JX Melandaha, Bangladesh",7MPFXRGH+JX
Hospital,25.0281126,89.8218236,not found,not found,"['hospital', 'health', 'point_of_interest', 'establishment']",Islampur - Melendah Road,ChIJk0R-BeZw_TkRM50T4wWfHSE,"2RHC+6P Durmut, Bangladesh",7MQF2RHC+6P
মেলান্দহ প্রাণিসম্পদ কর্মকর্তার কার্যালয়,24.9817803,89.8305813,not found,not found,"['hospital', 'health', 'point_of_interest', 'establishment']","Bazar, Melandaha",ChIJQe_zgmx3_TkR-Gpl8DHR3-E,"XRJJ+P6 Melandaha, Bangladesh",7MPFXRJJ+P6
Melandah Health Complex,24.9860973,89.8278225,5,1,"['hospital', 'health', 'point_of_interest', 'establishment']",Melandaha,ChIJ-_BppUZ3_TkR-e8seIS0HXQ,"XRPH+C4 Melandaha, Bangladesh",7MPFXRPH+C4
সূর্যের হাসি ক্লিনিক,24.9766015,89.8299642,not found,not found,"['hospital', 'health', 'point_of_interest', 'establishment']",Melandaha Upazila,ChIJAR9laOx3_TkRzGMS53s_vyg,"XRGH+JX Melandaha, Bangladesh",7MPFXRGH+JX
Surjer Hashi Clinic Melandah,24.9765438,89.8300338,not found,not found,"['hospital', 'health', 'point_of_interest', 'establishment']",Melandaha,ChIJb2mUjuJ3_TkRMbFT1QalrBI,"XRGJ+J2 Melandaha, Bangladesh",7MPFXRGJ+J2
Melandah Hospital,24.9821383,89.8359001,not found,not found,"['hospital', 'health', 'point_of_interest', 'establishment']",Melandaha Upazila,ChIJYxkADmZ3_TkR9954Irdxdog,"XRJP+V9 Melandaha, Bangladesh",7MPFXRJP+V9
"Upazilla Health Complex , Melandaha, Dhaka Division, Bangladesh",24.9821864,89.835955,4.7,7,"['hospital', 'health', 'point_of_interest', 'establishment']",Melandaha,ChIJcSgepUZ3_TkRS5Qokov-QIo,"XRJP+V9 Melandaha, Bangladesh",7MPFXRJP+V9
Matree Chaya General Hospital,24.9815365,89.8363158,3,1,"['hospital', 'health', 'point_of_interest', 'establishment']",Adhipait,ChIJWS-46r53_TkRJi4cZrNX1Ic,"XRJP+JG Melandaha, Bangladesh",7MPFXRJP+JG
নাংলা কমিউনিটি ক্লিনিক,24.9659988,89.8063174,5,3,"['hospital', 'health', 'point_of_interest', 'establishment']",Unnamed Road,ChIJj6NbrF13_TkROyjx_9hNI9E,"XR84+9G বন্দরৌহা, Bangladesh",7MPFXR84+9G
4 No Nangla Community Hospital,24.9659527,89.8063402,not found,not found,"['hospital', 'health', 'point_of_interest', 'establishment']",Melandaha,ChIJH8IZIHF3_TkRC9ls_ArVlsU,"XR84+9G বন্দরৌহা, Bangladesh",7MPFXR84+9G
"AlHaj M.A. Rashid Ma, Shishu O Chokkho Hospital",24.9545981,89.8566962,5,3,"['hospital', 'health', 'point_of_interest', 'establishment']",Maloncho Bazar,ChIJL67fcSR5_TkRvEyUwx8qwsc,"XV34+RM Melandaha, Bangladesh",7MPFXV34+RM
"আলহাজ্ব এম এ রশিদ মা, শিশু ও চক্ষু হাসপাতাল",24.9534853,89.8565196,not found,not found,"['hospital', 'health', 'point_of_interest', 'establishment']",Melandaha Upazila,ChIJLWRetLh5_TkRzxUTmGvxqD8,"XV34+9J Melandaha, Bangladesh",7MPFXV34+9J
ভালুকা কমিউনিটি,25.0186264,89.8161778,not found,not found,"['hospital', 'health', 'point_of_interest', 'establishment']",Melandaha Upazila,ChIJ_VovJ7dx_TkRo4A9-ksz-S4,"2R98+FF Melandaha, Bangladesh",7MQF2R98+FF
"Alhajj M A Rashid Maa, Shishu O Chokkhu Hospital",24.9515936,89.8588675,4,2,"['hospital', 'health', 'point_of_interest', 'establishment']","Maloncho,Melandaha Upazila, জামালপুর",ChIJp2UuSy14_TkRVIZoz6dBGUo,"XV25+JG Melandaha, Bangladesh",7MPFXV25+JG
AM A Rashid Chokkho Hospital,24.9442106,89.8657112,not found,not found,"['hospital', 'health', 'point_of_interest', 'establishment']",Melandaha Upazila,ChIJcx8V3bJ5_TkRT8yKjHXINN8,"WVV8+M7 Shihata, Bangladesh",7MPFWVV8+M7
Mahiramkul Health Center,24.9296997,89.8524976,4.3,3,"['hospital', 'health', 'point_of_interest', 'establishment']",Melandaha Upazila,ChIJ9SNPSSB4_TkR81LVX_mbstQ,"WVH2+VX Melandaha, Bangladesh",7MPFWVH2+VX
STS Durmut,25.0403052,89.8234423,not found,not found,"['hospital', 'health', 'point_of_interest', 'establishment']","মেলান্দহ উপজেলা, durmut, melandoho",ChIJeztyCDdx_TkRoRX2AUNtTzE,"2RRF+49 Durmut, Bangladesh",7MQF2RRF+49
Suma Homeo Hall,24.9322211,89.8666798,not found,not found,"['hospital', 'health', 'point_of_interest', 'establishment']",Shihata Bajar,ChIJHetDBjp5_TkR_nidtScCIPg,"WVJ8+VM Shihata, Bangladesh",7MPFWVJ8+VM
Durmut hospital,25.0451613,89.8261758,4.8,5,"['hospital', 'health', 'point_of_interest', 'establishment']",Melandaha,ChIJrWaFFPZw_TkRzSlTccOA1C4,"2RWG+3F Durmut, Bangladesh",7MQF2RWG+3F
Shahriar Health Complex,24.9947463,89.7531461,1,1,"['hospital', 'health', 'point_of_interest', 'establishment']",Baniabari,ChIJDfz9bW91_TkRxWQ9AVm1JL0,"XQV3+V7 Mahmudpur Bazar Area, Bangladesh",7MPFXQV3+V7
Madarganj Upazila Health Complex,24.8940909,89.7171718,4.1,15,"['hospital', 'health', 'point_of_interest', 'establishment']",Madarganj Upazila,ChIJ3fR8seef_TkRZvlbRvOcCIo,"VPV8+JV Madarganj, Bangladesh",7MPFVPV8+JV
Surjer Hashi Clinic,24.8934038,89.7079335,not found,not found,"['hospital', 'health', 'point_of_interest', 'establishment']",Jamalpur - Madarganj Road,ChIJu8dch6if_TkR-Ft65QrCD24,"VPV5+95 Gabargram, Bangladesh",7MPFVPV5+95
sufiya medical hall,24.8882889,89.7062507,not found,not found,"['hospital', 'health', 'point_of_interest', 'establishment']",Madarganj Upazila,ChIJ-2JnFs-f_TkRvu3h3woFGyo,"VPQ4+8G Gabargram, Bangladesh",7MPFVPQ4+8G
মাদারগঞ্জ উপজেলা মা ও শিশু স্বাস্থ্য কমপ্লেক্স,24.8871421,89.7058079,not found,not found,"['hospital', 'health', 'point_of_interest', 'establishment']",Madarganj Upazila,ChIJZULdN6Sf_TkRX1my0MHEy-c,"VPP4+V8 Gabargram, Bangladesh",7MPFVPP4+V8
"উপজেলা হেলথ কমপ্লেক্স, মাদারগঞ্জ",24.8938586,89.7166856,5,3,"['hospital', 'health', 'point_of_interest', 'establishment']","Madarganj - Jahangirabad Road, Panchgachha",ChIJazWYS-af_TkRouM_02XJl6Q,"VPV8+GM Madarganj, Bangladesh",7MPFVPV8+GM
উপজেলা হেলথ কমপ্লেক্স,24.8939257,89.7171649,not found,not found,"['hospital', 'health', 'point_of_interest', 'establishment']",Madarganj Upazila,ChIJVeu-LPCf_TkRSVtXTOf4r7g,"VPV8+HV Madarganj, Bangladesh",7MPFVPV8+HV
মাদারগঞ্জ উপজেলা সাস্থ্য কম্পলেক্স,24.8940201,89.7172616,5,2,"['hospital', 'health', 'point_of_interest', 'establishment']",Madarganj Upazila,ChIJKeU8seef_TkRx6kSLBtu7VY,"VPV8+JW Madarganj, Bangladesh",7MPFVPV8+JW
তারতাপাড়া হাজিবাড়ী কমিউনিটি ক্লিনিক,24.8880554,89.722846,not found,not found,"['hospital', 'health', 'point_of_interest', 'establishment']",Madarganj Upazila,ChIJ-9kzvDCf_TkRzTZ3f7YUnlU,"VPQF+64 Tartapara, Bangladesh",7MPFVPQF+64
Upazila Livestock Office,24.9078281,89.7193011,not found,not found,"['hospital', 'health', 'point_of_interest', 'establishment']","Union, 4 no",ChIJCTQazbZ1_TkRnb7e4tpEOvA,"WP59+4P Madarganj, Bangladesh",7MPFWP59+4P
পশু হাসপাতাল,24.9078875,89.7192962,not found,not found,"['hospital', 'health', 'point_of_interest', 'establishment']",Madarganj,ChIJyRZ_Fdp1_TkRVGjgRL2TOUY,"WP59+5P Madarganj, Bangladesh",7MPFWP59+5P
হযরত ফতেমা রা ডায়াগনস্টিক সেন্টার,24.9091526,89.7199454,not found,not found,"['hospital', 'health', 'point_of_interest', 'establishment']","Jamalpur - Madarganj Road, Madarganj",ChIJaZKRtpB1_TkR7JRQUvtB_zk,"WP59+MX Madarganj, Bangladesh",7MPFWP59+MX
আলতাশ্রীফ হাসপাতাল,24.909067,89.7205869,not found,not found,"['hospital', 'health', 'point_of_interest', 'establishment']",Madarganj Upazila,ChIJlfhfdrl1_TkR_ab3qfbcLvI,"WP5C+J6 Madarganj, Bangladesh",7MPFWP5C+J6
অাল-তাসরিফ জেনারেল হাসপাতাল,24.9092138,89.7206184,not found,not found,"['hospital', 'health', 'point_of_interest', 'establishment']","Madarganj Bus Stand, জামালপুর-মাদারগঞ্জ রোড",ChIJPbV8Lp51_TkRplovMZAIzB4,"WP5C+M6 Madarganj, Bangladesh",7MPFWP5C+M6
Al Tasrif General Hospital Private Ltd,24.9093144,89.7207687,not found,not found,"['hospital', 'health', 'point_of_interest', 'establishment']","Madarganj Bus Stand, জামালপুর-মাদারগঞ্জ রোড",ChIJrZZoO5d1_TkR2cbPkMGaBqY,"WP5C+P8 Madarganj, Bangladesh",7MPFWP5C+P8
Royal Friendship Hospital,24.9096888,89.7218492,4.7,3,"['hospital', 'health', 'point_of_interest', 'establishment']",Madarganj Upazila,ChIJWatCi3l1_TkRAzfktik9Kxs,"WP5C+VP Madarganj, Bangladesh",7MPFWP5C+VP
রয়েল ফ্রেন্ডশিপ হাসপাতাল,24.9098063,89.7218451,not found,not found,"['hospital', 'health', 'point_of_interest', 'establishment']","Madarganj Bus Stand, জামালপুর-মাদারগঞ্জ রোড",ChIJYavZltd1_TkRaYnXDhfqRFo,"WP5C+WP Madarganj, Bangladesh",7MPFWP5C+WP
মিশন মেডিকেল হল,24.9130559,89.7252295,not found,not found,"['hospital', 'doctor', 'health', 'point_of_interest', 'establishment']","থানা মোড়, Madarganj",ChIJvcZoh6h1_TkRSOR-P-RTZLs,"WP7G+63 Madarganj, Bangladesh",7MPFWP7G+63
Madarganj Upazila Health Complex,24.8802883,89.7567693,not found,not found,"['hospital', 'health', 'point_of_interest', 'establishment']",Madarganj Upazila,ChIJ_____z-e_TkRGYu-o_2h5vQ,"VQJ4+4P Banda Gajaria, Bangladesh",7MPFVQJ4+4P
Gopalpur Community Clinic,24.9319517,89.7356321,4,1,"['hospital', 'health', 'point_of_interest', 'establishment']",Madarganj-Melandaha Road,ChIJC2HKaIx1_TkRbuLykRQFHtQ,"WPJP+Q7 Madarganj, Bangladesh",7MPFWPJP+Q7
জামথল কবরস্থান,24.927272,89.6687006,not found,not found,"['hospital', 'health', 'point_of_interest', 'establishment']",Sariakandi Upazila,ChIJ05MhXpwL_TkRDHxMizCAcsc,"WMG9+WF Pakuria, Bangladesh",7MPFWMG9+WF
Madarganj Upazila Health Complex,24.8940909,89.7171718,4.1,15,"['hospital', 'health', 'point_of_interest', 'establishment']",Madarganj Upazila,ChIJ3fR8seef_TkRZvlbRvOcCIo,"VPV8+JV Madarganj, Bangladesh",7MPFVPV8+JV
Upazila Livestock Office,24.9078281,89.7193011,not found,not found,"['hospital', 'health', 'point_of_interest', 'establishment']","Union, 4 no",ChIJCTQazbZ1_TkRnb7e4tpEOvA,"WP59+4P Madarganj, Bangladesh",7MPFWP59+4P
পশু হাসপাতাল,24.9078875,89.7192962,not found,not found,"['hospital', 'health', 'point_of_interest', 'establishment']",Madarganj,ChIJyRZ_Fdp1_TkRVGjgRL2TOUY,"WP59+5P Madarganj, Bangladesh",7MPFWP59+5P
হযরত ফতেমা রা ডায়াগনস্টিক সেন্টার,24.9091526,89.7199454,not found,not found,"['hospital', 'health', 'point_of_interest', 'establishment']","Jamalpur - Madarganj Road, Madarganj",ChIJaZKRtpB1_TkR7JRQUvtB_zk,"WP59+MX Madarganj, Bangladesh",7MPFWP59+MX
আলতাশ্রীফ হাসপাতাল,24.909067,89.7205869,not found,not found,"['hospital', 'health', 'point_of_interest', 'establishment']",Madarganj Upazila,ChIJlfhfdrl1_TkR_ab3qfbcLvI,"WP5C+J6 Madarganj, Bangladesh",7MPFWP5C+J6
অাল-তাসরিফ জেনারেল হাসপাতাল,24.9092138,89.7206184,not found,not found,"['hospital', 'health', 'point_of_interest', 'establishment']","Madarganj Bus Stand, জামালপুর-মাদারগঞ্জ রোড",ChIJPbV8Lp51_TkRplovMZAIzB4,"WP5C+M6 Madarganj, Bangladesh",7MPFWP5C+M6
Al Tasrif General Hospital Private Ltd,24.9093144,89.7207687,not found,not found,"['hospital', 'health', 'point_of_interest', 'establishment']","Madarganj Bus Stand, জামালপুর-মাদারগঞ্জ রোড",ChIJrZZoO5d1_TkR2cbPkMGaBqY,"WP5C+P8 Madarganj, Bangladesh",7MPFWP5C+P8
Royal Friendship Hospital,24.9096888,89.7218492,4.7,3,"['hospital', 'health', 'point_of_interest', 'establishment']",Madarganj Upazila,ChIJWatCi3l1_TkRAzfktik9Kxs,"WP5C+VP Madarganj, Bangladesh",7MPFWP5C+VP
রয়েল ফ্রেন্ডশিপ হাসপাতাল,24.9098063,89.7218451,not found,not found,"['hospital', 'health', 'point_of_interest', 'establishment']","Madarganj Bus Stand, জামালপুর-মাদারগঞ্জ রোড",ChIJYavZltd1_TkRaYnXDhfqRFo,"WP5C+WP Madarganj, Bangladesh",7MPFWP5C+WP
মিশন মেডিকেল হল,24.9130559,89.7252295,not found,not found,"['hospital', 'doctor', 'health', 'point_of_interest', 'establishment']","থানা মোড়, Madarganj",ChIJvcZoh6h1_TkRSOR-P-RTZLs,"WP7G+63 Madarganj, Bangladesh",7MPFWP7G+63
মাদারগঞ্জ উপজেলা সাস্থ্য কম্পলেক্স,24.8940201,89.7172616,5,2,"['hospital', 'health', 'point_of_interest', 'establishment']",Madarganj Upazila,ChIJKeU8seef_TkRx6kSLBtu7VY,"VPV8+JW Madarganj, Bangladesh",7MPFVPV8+JW
উপজেলা হেলথ কমপ্লেক্স,24.8939257,89.7171649,not found,not found,"['hospital', 'health', 'point_of_interest', 'establishment']",Madarganj Upazila,ChIJVeu-LPCf_TkRSVtXTOf4r7g,"VPV8+HV Madarganj, Bangladesh",7MPFVPV8+HV
"উপজেলা হেলথ কমপ্লেক্স, মাদারগঞ্জ",24.8938586,89.7166856,5,3,"['hospital', 'health', 'point_of_interest', 'establishment']","Madarganj - Jahangirabad Road, Panchgachha",ChIJazWYS-af_TkRouM_02XJl6Q,"VPV8+GM Madarganj, Bangladesh",7MPFVPV8+GM
Surjer Hashi Clinic,24.8934038,89.7079335,not found,not found,"['hospital', 'health', 'point_of_interest', 'establishment']",Jamalpur - Madarganj Road,ChIJu8dch6if_TkR-Ft65QrCD24,"VPV5+95 Gabargram, Bangladesh",7MPFVPV5+95
তারতাপাড়া হাজিবাড়ী কমিউনিটি ক্লিনিক,24.8880554,89.722846,not found,not found,"['hospital', 'health', 'point_of_interest', 'establishment']",Madarganj Upazila,ChIJ-9kzvDCf_TkRzTZ3f7YUnlU,"VPQF+64 Tartapara, Bangladesh",7MPFVPQF+64
sufiya medical hall,24.8882889,89.7062507,not found,not found,"['hospital', 'health', 'point_of_interest', 'establishment']",Madarganj Upazila,ChIJ-2JnFs-f_TkRvu3h3woFGyo,"VPQ4+8G Gabargram, Bangladesh",7MPFVPQ4+8G
মাদারগঞ্জ উপজেলা মা ও শিশু স্বাস্থ্য কমপ্লেক্স,24.8871421,89.7058079,not found,not found,"['hospital', 'health', 'point_of_interest', 'establishment']",Madarganj Upazila,ChIJZULdN6Sf_TkRX1my0MHEy-c,"VPP4+V8 Gabargram, Bangladesh",7MPFVPP4+V8
Gopalpur Community Clinic,24.9319517,89.7356321,4,1,"['hospital', 'health', 'point_of_interest', 'establishment']",Madarganj-Melandaha Road,ChIJC2HKaIx1_TkRbuLykRQFHtQ,"WPJP+Q7 Madarganj, Bangladesh",7MPFWPJP+Q7
"মন্ডল বাড়ী, ফাজিলপুর, মাদারগঞ্জ, জামালপুর।",24.9480586,89.7264455,not found,not found,"['hospital', 'health', 'point_of_interest', 'establishment']",Unnamed Road,ChIJ__4Dsdp1_TkRdKrUxrjJpMo,"WPXG+6H Nischintapur, Bangladesh",7MPFWPXG+6H
Madarganj Upazila Health Complex,24.8802883,89.7567693,not found,not found,"['hospital', 'health', 'point_of_interest', 'establishment']",Madarganj Upazila,ChIJ_____z-e_TkRGYu-o_2h5vQ,"VQJ4+4P Banda Gajaria, Bangladesh",7MPFVQJ4+4P
Hazrat Shah Jamal (R)General Hospital LTD.,24.9252148,89.9389925,4.4,40,"['hospital', 'health', 'point_of_interest', 'establishment']","Pach Rasta Mor, Jamalpur",ChIJDRo25Wh__TkRzq3pFcdhmO8,"WWGQ+3H Jamalpur, Bangladesh",7MPFWWGQ+3H
Porichorja Clinic,24.9260074,89.9467838,4,7,"['hospital', 'health', 'point_of_interest', 'establishment']",Jamalpur,ChIJl8A7Gmt__TkR41Xv2fIp1nY,"WWGW+CP Jamalpur, Bangladesh",7MPFWWGW+CP
Matri Sodon Hospital,24.9272142,89.9458221,4.3,4,"['hospital', 'health', 'point_of_interest', 'establishment']","Muslimabad Road, Jamalpur",ChIJf_4K0Gp__TkR7yfvb-hYgOw,"WWGW+V8 Jamalpur, Bangladesh",7MPFWWGW+V8
Amena General Hospital,24.9276736,89.9440226,5,1,"['hospital', 'health', 'point_of_interest', 'establishment']","2 Miapara Rd, Jamalpur 2000 Miapara Road, Jamalpur",ChIJM5p0qmp__TkRAQx6XZFPCUI,"WWHV+3J Jamalpur, Bangladesh",7MPFWWHV+3J
Jamalpur Central Hospital,24.9332171,89.9421193,4.1,31,"['hospital', 'health', 'point_of_interest', 'establishment']",Jamalpur,ChIJKVTeej5__TkRmBzqQFclAA0,"WWMR+7R Jamalpur, Bangladesh",7MPFWWMR+7R
হেলথকেয়ার হাসপাতাল,24.9328036,89.9384629,4,4,"['hospital', 'health', 'point_of_interest', 'establishment']","100 College Road, Jamalpur",ChIJS7gHRDl__TkRb6JFNLK9f0U,"WWMQ+49 Jamalpur, Bangladesh",7MPFWWMQ+49
Al Sina Hospital,24.9147387,89.9409233,5,2,"['hospital', 'health', 'point_of_interest', 'establishment']",Jamalpur Sadar Upazila,ChIJLctQwlx__TkRouzYknWf9dc,"WW7R+V9 Jamalpur, Bangladesh",7MPFWW7R+V9
Upashom General Hospital,24.9357785,89.9399393,4.3,3,"['hospital', 'health', 'point_of_interest', 'establishment']",Jamalpur Sadar Upazila,ChIJ11Ybbjx__TkRLFgcOGulDIk,"WWPQ+8X Jamalpur, Bangladesh",7MPFWWPQ+8X
Doctors General Hospital,24.9090951,89.9499848,4,1,"['hospital', 'health', 'point_of_interest', 'establishment']",Station Road,ChIJWfg-uWN__TkRMD9G9K6dBj8,"WW5X+JX Jamalpur, Bangladesh",7MPFWW5X+JX
Sobuj Homiyo Hall,24.8598734,89.9442422,3,1,"['hospital', 'health', 'point_of_interest', 'establishment']",Joydevpur - Tangail - Jamalpur Highway,ChIJQb3r0KGB_TkRdvHfT2wc9PQ,"VW5V+WM Kendua Bazar, Bangladesh",7MPFVW5V+WM
পরিচর্যা ক্লিনিক,24.9261373,89.9468044,2,1,"['hospital', 'health', 'point_of_interest', 'establishment']","Shahid harun Sarak, Jamalpur",ChIJpZ25ZZJ__TkRzZ49l_37s7U,"WWGW+FP Jamalpur, Bangladesh",7MPFWWGW+FP
Manab Seba Hospital & Diagnostic Center (মানবসেবা হাসপাতাল),24.926088,89.9481274,4,1,"['hospital', 'health', 'point_of_interest', 'establishment']","Shahid Harun Sharak, Sadar Medical Rd 2000, জামালপুর",ChIJPz1H4mV__TkRxrYWZeZqRyw,"WWGX+C7 Jamalpur, Bangladesh",7MPFWWGX+C7
মাতৃকল্যান হাসপাতাল,24.9271306,89.9467206,not found,not found,"['hospital', 'health', 'point_of_interest', 'establishment']",Jamalpur Sadar Upazila,ChIJ1QmUf7d__TkRUQ96li3yFuw,"WWGW+VM Jamalpur, Bangladesh",7MPFWWGW+VM
Punom Nursing Home,24.9265608,89.9481824,not found,not found,"['hospital', 'health', 'point_of_interest', 'establishment']",Jamalpur,ChIJ06EUXWt__TkRdFXCebxgC-0,"WWGX+J7 Jamalpur, Bangladesh",7MPFWWGX+J7
Uropa Hospital,24.927183,89.948297,not found,not found,"['hospital', 'health', 'point_of_interest', 'establishment']","Unnamed Road, Jamalpur",ChIJ3R9VXxl__TkRLCet6kvIil0,"WWGX+V8 Jamalpur, Bangladesh",7MPFWWGX+V8
"Jamalpur Apollo hospital,jamalpur",24.923802,89.942906,not found,not found,"['hospital', 'health', 'point_of_interest', 'establishment']","মোড়, দেওয়ান পাড়া, জামালপুর",ChIJX0ovh5Z__TkRagrfR6ewLF8,"WWFV+G5 Jamalpur, Bangladesh",7MPFWWFV+G5
Monowara Consultant And Diagnostic Center,24.9211067,89.9462076,4,2,"['hospital', 'health', 'point_of_interest', 'establishment']",Jamalpur,ChIJXWEBnWl__TkRrLXm5ps4qag,"WWCW+CF Jamalpur, Bangladesh",7MPFWWCW+CF
নাকিব উদ্দিন হসপিটাল,24.9227125,89.9506014,not found,not found,"['hospital', 'health', 'point_of_interest', 'establishment']",NakibUddin Hospital,ChIJwQlsiYx__TkRJGkvlEPuPZI,"WXF2+36 Jamalpur, Bangladesh",7MPFWXF2+36
নাকিব উদ্দিন হাসপাতালে,24.9226997,89.9506044,4,8,"['hospital', 'health', 'point_of_interest', 'establishment']","Mukanda Bari Road, Jamalpur",ChIJ3WcwLmx__TkRDVOIm4weE9U,"WXF2+36 Jamalpur, Bangladesh",7MPFWXF2+36
Dr. AKM Zaman,24.9205503,89.9454349,not found,not found,"['hospital', 'health', 'point_of_interest', 'establishment']","New College Road, Jamalpur",ChIJ-3tbcwp__TkRojIgAOgYgaI,"WWCW+65 Jamalpur, Bangladesh",7MPFWWCW+65
Madarganj Upazila Health Complex,24.8940909,89.7171718,4.1,15,"['hospital', 'health', 'point_of_interest', 'establishment']",Madarganj Upazila,ChIJ3fR8seef_TkRZvlbRvOcCIo,"VPV8+JV Madarganj, Bangladesh",7MPFVPV8+JV
"Polisha Community Hospital, Madargonj",24.8565416,89.777256,2,1,"['hospital', 'health', 'point_of_interest', 'establishment']",Madarganj Upazila,ChIJLx5QzSqc_TkRum9aaTJOvcQ,"VQ4G+JW Banda Gajaria, Bangladesh",7MPFVQ4G+JW
Konica Medicin Corner,24.855704,89.776256,not found,not found,"['hospital', 'health', 'point_of_interest', 'establishment']",Madarganj Upazila,ChIJXYojr1Wd_TkR26uD30uQrwY,"VQ4G+7G Banda Gajaria, Bangladesh",7MPFVQ4G+7G
Master Medical Hall & Diagnostic Center,24.8292059,89.8009134,5,1,"['hospital', 'health', 'point_of_interest', 'establishment']",Madarganj Upazila,ChIJNUVHyh2d_TkRpFFQ-mGc_Ns,"RRH2+M9 Banda Gajaria, Bangladesh",7MPFRRH2+M9
Chinna Community clinic,24.8280579,89.7828386,not found,not found,"['hospital', 'health', 'point_of_interest', 'establishment']",Chhinna,ChIJ1ZCZ1i2d_TkRyOISiPGg2qg,"RQHM+64 Banda Gajaria, Bangladesh",7MPFRQHM+64
Madarganj Upazila Health Complex,24.8802883,89.7567693,not found,not found,"['hospital', 'health', 'point_of_interest', 'establishment']",Madarganj Upazila,ChIJ_____z-e_TkRGYu-o_2h5vQ,"VQJ4+4P Banda Gajaria, Bangladesh",7MPFVQJ4+4P
Hospital mur,24.8949297,89.7755068,not found,not found,"['hospital', 'health', 'point_of_interest', 'establishment']",Unnamed Road,ChIJDzHMTjWf_TkRVbrLhbgUBNA,"VQVG+X6 Banda Gajaria, Bangladesh",7MPFVQVG+X6
Gunaritala Hospital,24.8952661,89.775475,not found,not found,"['hospital', 'health', 'point_of_interest', 'establishment']",Madarganj Upazila,ChIJG0nBfwee_TkRjsTipYOr9X0,"VQWG+45 Banda Gajaria, Bangladesh",7MPFVQWG+45
"গুনারীতলা, সাস্থ্য কম্পলেক্স",24.8952639,89.7752802,not found,not found,"['hospital', 'health', 'point_of_interest', 'establishment']",Madarganj Upazila,ChIJCeAEfLaf_TkReH3EdkJydt4,"VQWG+44 Banda Gajaria, Bangladesh",7MPFVQWG+44
ফেইথ ডেন্টাল কেয়ার ভাটারা,24.8120769,89.8434589,not found,not found,"['hospital', 'health', 'point_of_interest', 'establishment']",Sarishabari Upazila,ChIJQQn-i4Wd_TkR7pEeoifh7pU,"RR6V+R9 Zafarshahi, Bangladesh",7MPFRR6V+R9
Mesta Govt. Hospital,24.8367221,89.8655355,3,1,"['hospital', 'health', 'point_of_interest', 'establishment']",Mesta School Road,ChIJufIkwz6D_TkR5nc4zChrPDQ,"RVP8+M6 Zafarshahi, Bangladesh",7MPFRVP8+M6
Faith Dental Care,24.8147208,89.8567067,5,1,"['hospital', 'health', 'point_of_interest', 'establishment']","Vatara Bazar Road, Zafarshahi",ChIJ-S6jzlaD_TkR0qTyOFe-v74,"RV74+VM Zafarshahi, Bangladesh",7MPFRV74+VM
ফেইথ ডেন্টাল কেয়ার,24.8147144,89.8567945,5,1,"['hospital', 'health', 'point_of_interest', 'establishment']","Vatara Bazar Road, Zafarshahi",ChIJyaUgTnOD_TkRENL4kFJhNh8,"RV74+VP Zafarshahi, Bangladesh",7MPFRV74+VP
Hashil Satellite Clinic,24.8154071,89.8574379,3,1,"['hospital', 'health', 'point_of_interest', 'establishment']","Jamalpur - Sarishabari Road, Zafarshahi",ChIJqfFAKlGD_TkRLtoxTf5ohB0,"RV84+5X Zafarshahi, Bangladesh",7MPFRV84+5X
Char chataria Health complex,24.7735212,89.7927648,not found,not found,"['hospital', 'health', 'point_of_interest', 'establishment']",Sarishabari,ChIJHzuh2Meb_TkRSQa51yVt68g,"QQFV+C4 Sidhli, Bangladesh",7MPFQQFV+C4
তারতাপাড়া হাজিবাড়ী কমিউনিটি ক্লিনিক,24.8880554,89.722846,not found,not found,"['hospital', 'health', 'point_of_interest', 'establishment']",Madarganj Upazila,ChIJ-9kzvDCf_TkRzTZ3f7YUnlU,"VPQF+64 Tartapara, Bangladesh",7MPFVPQF+64
Rayhan medical hol,24.9225799,89.7710225,5,1,"['hospital', 'health', 'point_of_interest', 'establishment']",Madarganj Upazila,ChIJVUhEl6Z1_TkR2jWo6TL01tE,"WQFC+2C বন্দরৌহা, Bangladesh",7MPFWQFC+2C
রুহিলী কমিউনিটি ক্লিনিক,24.8691852,89.87862,not found,not found,"['hospital', 'health', 'point_of_interest', 'establishment']",Melandaha Upazila,ChIJB3yhtcuD_TkRXr-XkIOwZwY,"VV9H+MC Kendua Bazar, Bangladesh",7MPFVV9H+MC
Hashil Hospital,24.8422937,89.8828545,5,4,"['hospital', 'health', 'point_of_interest', 'establishment']","Hashil, Hashil School Road",ChIJaSbFLg-D_TkR1e8mC_FQXT0,"RVRM+W4 Kendua Bazar, Bangladesh",7MPFRVRM+W4
মাদারগঞ্জ উপজেলা সাস্থ্য কম্পলেক্স,24.8940201,89.7172616,5,2,"['hospital', 'health', 'point_of_interest', 'establishment']",Madarganj Upazila,ChIJKeU8seef_TkRx6kSLBtu7VY,"VPV8+JW Madarganj, Bangladesh",7MPFVPV8+JW
Hazrat Shah Jamal (R)General Hospital LTD.,24.9252148,89.9389925,4.4,40,"['hospital', 'health', 'point_of_interest', 'establishment']","Pach Rasta Mor, Jamalpur",ChIJDRo25Wh__TkRzq3pFcdhmO8,"WWGQ+3H Jamalpur, Bangladesh",7MPFWWGQ+3H
Porichorja Clinic,24.9260074,89.9467838,4,7,"['hospital', 'health', 'point_of_interest', 'establishment']",Jamalpur,ChIJl8A7Gmt__TkR41Xv2fIp1nY,"WWGW+CP Jamalpur, Bangladesh",7MPFWWGW+CP
Matri Sodon Hospital,24.9272142,89.9458221,4.3,4,"['hospital', 'health', 'point_of_interest', 'establishment']","Muslimabad Road, Jamalpur",ChIJf_4K0Gp__TkR7yfvb-hYgOw,"WWGW+V8 Jamalpur, Bangladesh",7MPFWWGW+V8
Amena General Hospital,24.9276736,89.9440226,5,1,"['hospital', 'health', 'point_of_interest', 'establishment']","2 Miapara Rd, Jamalpur 2000 Miapara Road, Jamalpur",ChIJM5p0qmp__TkRAQx6XZFPCUI,"WWHV+3J Jamalpur, Bangladesh",7MPFWWHV+3J
Jamalpur Central Hospital,24.9332171,89.9421193,4.1,31,"['hospital', 'health', 'point_of_interest', 'establishment']",Jamalpur,ChIJKVTeej5__TkRmBzqQFclAA0,"WWMR+7R Jamalpur, Bangladesh",7MPFWWMR+7R
হেলথকেয়ার হাসপাতাল,24.9328036,89.9384629,4,4,"['hospital', 'health', 'point_of_interest', 'establishment']","100 College Road, Jamalpur",ChIJS7gHRDl__TkRb6JFNLK9f0U,"WWMQ+49 Jamalpur, Bangladesh",7MPFWWMQ+49
Al Sina Hospital,24.9147387,89.9409233,5,2,"['hospital', 'health', 'point_of_interest', 'establishment']",Jamalpur Sadar Upazila,ChIJLctQwlx__TkRouzYknWf9dc,"WW7R+V9 Jamalpur, Bangladesh",7MPFWW7R+V9
Upashom General Hospital,24.9357785,89.9399393,4.3,3,"['hospital', 'health', 'point_of_interest', 'establishment']",Jamalpur Sadar Upazila,ChIJ11Ybbjx__TkRLFgcOGulDIk,"WWPQ+8X Jamalpur, Bangladesh",7MPFWWPQ+8X
Doctors General Hospital,24.9090951,89.9499848,4,1,"['hospital', 'health', 'point_of_interest', 'establishment']",Station Road,ChIJWfg-uWN__TkRMD9G9K6dBj8,"WW5X+JX Jamalpur, Bangladesh",7MPFWW5X+JX
Sobuj Homiyo Hall,24.8598734,89.9442422,3,1,"['hospital', 'health', 'point_of_interest', 'establishment']",Joydevpur - Tangail - Jamalpur Highway,ChIJQb3r0KGB_TkRdvHfT2wc9PQ,"VW5V+WM Kendua Bazar, Bangladesh",7MPFVW5V+WM
পরিচর্যা ক্লিনিক,24.9261373,89.9468044,2,1,"['hospital', 'health', 'point_of_interest', 'establishment']","Shahid harun Sarak, Jamalpur",ChIJpZ25ZZJ__TkRzZ49l_37s7U,"WWGW+FP Jamalpur, Bangladesh",7MPFWWGW+FP
Manab Seba Hospital & Diagnostic Center (মানবসেবা হাসপাতাল),24.926088,89.9481274,4,1,"['hospital', 'health', 'point_of_interest', 'establishment']","Shahid Harun Sharak, Sadar Medical Rd 2000, জামালপুর",ChIJPz1H4mV__TkRxrYWZeZqRyw,"WWGX+C7 Jamalpur, Bangladesh",7MPFWWGX+C7
মাতৃকল্যান হাসপাতাল,24.9271306,89.9467206,not found,not found,"['hospital', 'health', 'point_of_interest', 'establishment']",Jamalpur Sadar Upazila,ChIJ1QmUf7d__TkRUQ96li3yFuw,"WWGW+VM Jamalpur, Bangladesh",7MPFWWGW+VM
Punom Nursing Home,24.9265608,89.9481824,not found,not found,"['hospital', 'health', 'point_of_interest', 'establishment']",Jamalpur,ChIJ06EUXWt__TkRdFXCebxgC-0,"WWGX+J7 Jamalpur, Bangladesh",7MPFWWGX+J7
Uropa Hospital,24.927183,89.948297,not found,not found,"['hospital', 'health', 'point_of_interest', 'establishment']","Unnamed Road, Jamalpur",ChIJ3R9VXxl__TkRLCet6kvIil0,"WWGX+V8 Jamalpur, Bangladesh",7MPFWWGX+V8
"Jamalpur Apollo hospital,jamalpur",24.923802,89.942906,not found,not found,"['hospital', 'health', 'point_of_interest', 'establishment']","মোড়, দেওয়ান পাড়া, জামালপুর",ChIJX0ovh5Z__TkRagrfR6ewLF8,"WWFV+G5 Jamalpur, Bangladesh",7MPFWWFV+G5
Monowara Consultant And Diagnostic Center,24.9211067,89.9462076,4,2,"['hospital', 'health', 'point_of_interest', 'establishment']",Jamalpur,ChIJXWEBnWl__TkRrLXm5ps4qag,"WWCW+CF Jamalpur, Bangladesh",7MPFWWCW+CF
নাকিব উদ্দিন হসপিটাল,24.9227125,89.9506014,not found,not found,"['hospital', 'health', 'point_of_interest', 'establishment']",NakibUddin Hospital,ChIJwQlsiYx__TkRJGkvlEPuPZI,"WXF2+36 Jamalpur, Bangladesh",7MPFWXF2+36
নাকিব উদ্দিন হাসপাতালে,24.9226997,89.9506044,4,8,"['hospital', 'health', 'point_of_interest', 'establishment']","Mukanda Bari Road, Jamalpur",ChIJ3WcwLmx__TkRDVOIm4weE9U,"WXF2+36 Jamalpur, Bangladesh",7MPFWXF2+36
Dr. AKM Zaman,24.9205503,89.9454349,not found,not found,"['hospital', 'health', 'point_of_interest', 'establishment']","New College Road, Jamalpur",ChIJ-3tbcwp__TkRojIgAOgYgaI,"WWCW+65 Jamalpur, Bangladesh",7MPFWWCW+65
JFCL Medical Center,24.6730311,89.8249215,3.8,5,"['hospital', 'health', 'point_of_interest', 'establishment']",Sarishabari Upazila,ChIJkaDRhk6Q_TkR3s_Xg3MVnYY,"MRFF+6X Tarakandi, Bangladesh",7MPFMRFF+6X
মা হোমিও হল,24.650193,89.811625,4,1,"['hospital', 'health', 'point_of_interest', 'establishment']",Sarishabari Upazila,ChIJnzoXyMeR_TkRkiTzcA3hK5w,"MR26+3J Dayalpur, Bangladesh",7MPFMR26+3J
হারুন ডায়াগনস্টিক সেন্টার,24.7056634,89.8289606,not found,not found,"['hospital', 'health', 'point_of_interest', 'establishment']",Tarakandi Sarishabari Road,ChIJMQw0Wl-R_TkRVAByRwqz6Yo,"PR4H+7H Gendarpara, Bangladesh",7MPFPR4H+7H
হারুন মেডিকেল হল,24.7057513,89.8291735,2,1,"['hospital', 'health', 'point_of_interest', 'establishment']",Tarakandi Sarishabari Road,ChIJH5e05TKR_TkRrSw76lxLvHg,"PR4H+8M Gendarpara, Bangladesh",7MPFPR4H+8M
Kobi Medical Hall Gadaduba,24.6805741,89.8621801,not found,not found,"['hospital', 'health', 'point_of_interest', 'establishment']",Unnamed Road,ChIJjxHcCcWP_TkRsQMnSOFGuK8,"MVJ6+6V Gendarpara, Bangladesh",7MPFMVJ6+6V
মাজালিয়া কমিউনিটি ক্লিনিক,24.7050795,89.8559352,5,3,"['hospital', 'health', 'point_of_interest', 'establishment']",Tarakandi - Dhanbari Road,ChIJFyx0kfqP_TkRNHIaHQ9dG4o,"PV44+29 Majalia, Bangladesh",7MPFPV44+29
ডিক্রীরবন্দ কমিউনিটি ক্লিনিক এন্ড হাসপাতাল,24.7145183,89.8487375,5,2,"['hospital', 'health', 'point_of_interest', 'establishment']","near, সরিষাবাড়ী",ChIJsVlSzeyb_TkR-Flww3JE64s,"PR7X+RF Majalia, Bangladesh",7MPFPR7X+RF
পিংনা সরকারী হাসপাতাল,24.6157952,89.8093048,not found,not found,"['hospital', 'health', 'point_of_interest', 'establishment']",Pingna,ChIJo4mYNtST_TkRn92QDrSgqx8,"JR85+8P Pingna, Bangladesh",7MPFJR85+8P
Mushuddi Health Complex,24.6724778,89.8984677,not found,not found,"['hospital', 'health', 'point_of_interest', 'establishment']",Musuddi,ChIJNXx8nxyP_TkR89Lh-EEoqIA,"MVCX+X9 Musuddi, Bangladesh",7MPFMVCX+X9
Tarafder Dental care,24.727977,89.7840195,not found,not found,"['hospital', 'health', 'point_of_interest', 'establishment']",Malipara,ChIJxRnFsT2b_TkREsLGRZT4Cj4,"PQHM+5J Malipara, Bangladesh",7MPFPQHM+5J
আমিনা বেগম মেমোরিয়াল হসপিটাল এন্ড হেল্থ ক্লিনিক,24.7474394,89.8255632,3,2,"['hospital', 'health', 'point_of_interest', 'establishment']",Sarishabari,ChIJN3M3Gu-a_TkRWeTwVtZyWps,"PRWG+X6 Sarishabari, Bangladesh",7MPFPRWG+X6
Aleya Eye Hospital,24.7543163,89.8350427,not found,not found,"['hospital', 'health', 'point_of_interest', 'establishment']",Sarishabari,ChIJp9JX_Eeb_TkRTfKmK_NRDYU,"QR3P+P2 Sarishabari, Bangladesh",7MPFQR3P+P2
NAHAR DRIEMS,24.7544698,89.8347698,not found,not found,"['hospital', 'health', 'point_of_interest', 'establishment']","Tarakandi Sarishabari Road, Sarishabari",ChIJYxAWLpSb_TkR7skpL9BtJZY,"QR3M+QW Sarishabari, Bangladesh",7MPFQR3M+QW
"সমতকুড় কমিউনিটি ক্লিনিক,ধানবাড়ি,টাংগাইল",24.6410833,89.9079305,4,1,"['hospital', 'health', 'point_of_interest', 'establishment']",Dhanbari Road,ChIJ63Z1BG6P_TkRDLN4zoV9SOo,"JWR5+C5 Pankata, Bangladesh",7MPFJWR5+C5
Shisua- Bagmara Community clinic,24.7531904,89.8052779,5,2,"['hospital', 'health', 'point_of_interest', 'establishment']",Sarishabari Upazila,ChIJQ0mP1hab_TkRWzT0Nq41L0g,"QR34+74 Bausi, Bangladesh",7MPFQR34+74
Baba Ma Dental Care,24.755279,89.8346608,not found,not found,"['hospital', 'health', 'point_of_interest', 'establishment']","Tarakandi Sarishabari Road, Sarishabari",ChIJH8mHBPeb_TkRD1NgvvRh1po,"QR4M+4V Sarishabari, Bangladesh",7MPFQR4M+4V
"Upazila Health Complex, Sarishabari, Jamalpur",24.7552498,89.8358522,5,8,"['hospital', 'health', 'point_of_interest', 'establishment']",Sarishabari,ChIJn_gxG9ya_TkRX5OnU3Blids,"QR4P+38 Sarishabari, Bangladesh",7MPFQR4P+38
যমুনা মেডিকেল সেন্টার,24.7556463,89.8351566,5,3,"['hospital', 'health', 'point_of_interest', 'establishment']","Tarakandi Sarishabari Road, Sarishabari",ChIJ28gTlgCb_TkRojr7mfWTbTM,"QR4P+73 Sarishabari, Bangladesh",7MPFQR4P+73
Ma Medical Hall,24.7557828,89.8354074,not found,not found,"['hospital', 'health', 'point_of_interest', 'establishment']","Tarakandi Sarishabari Road, Sarishabari",ChIJN3KsBXqb_TkR1H3k0qwlREw,"QR4P+85 Sarishabari, Bangladesh",7MPFQR4P+85
Monsurnagar Union Hospital,24.7407274,89.7733624,not found,not found,"['hospital', 'health', 'point_of_interest', 'establishment']","Village-Shalgram, PO-Kumariyabari 2055, PS- 6710, Dist.-Sirajganj, Division-, কাজিপুর",ChIJb0sM_4qZ_TkRWgVHByf17eA,"PQRF+78 Malipara, Bangladesh",7MPFPQRF+78
পিংনা সরকারী হাসপাতাল,24.6157952,89.8093048,not found,not found,"['hospital', 'health', 'point_of_interest', 'establishment']",Pingna,ChIJo4mYNtST_TkRn92QDrSgqx8,"JR85+8P Pingna, Bangladesh",7MPFJR85+8P
মা হোমিও হল,24.650193,89.811625,4,1,"['hospital', 'health', 'point_of_interest', 'establishment']",Sarishabari Upazila,ChIJnzoXyMeR_TkRkiTzcA3hK5w,"MR26+3J Dayalpur, Bangladesh",7MPFMR26+3J
JFCL Medical Center,24.6730311,89.8249215,3.8,5,"['hospital', 'health', 'point_of_interest', 'establishment']",Sarishabari Upazila,ChIJkaDRhk6Q_TkR3s_Xg3MVnYY,"MRFF+6X Tarakandi, Bangladesh",7MPFMRFF+6X
NDP Office,24.577467,89.761953,not found,not found,"['hospital', 'health', 'point_of_interest', 'establishment']",6700 Rupsha Bazar Road,ChIJobQUQFmV_TkRMd2Vj4tjZEE,"HQG6+XQ Sirajganj, Bangladesh",7MPFHQG6+XQ
Jhawail Sastho Kendro,24.5970533,89.8723429,not found,not found,"['hospital', 'health', 'point_of_interest', 'establishment']",Chatutia Road,ChIJRT3C7MCN_TkRWl5Qg_zN8Yw,"HVWC+RW Jhaoail, Bangladesh",7MPFHVWC+RW
jhawail general hospital,24.5968307,89.8723476,not found,not found,"['hospital', 'health', 'point_of_interest', 'establishment']",Jhawail Road,ChIJkZfhksCN_TkRlYcuYzi-S5M,"HVWC+PW Jhaoail, Bangladesh",7MPFHVWC+PW
tegori hospital,24.5707496,89.7649417,not found,not found,"['hospital', 'health', 'point_of_interest', 'establishment']","সিরাজগঞ্জ সদর উপজেলা, near",ChIJc6KNzu6V_TkRTnUgLO4gU2o,"HQC7+7X Sirajganj, Bangladesh",7MPFHQC7+7X
হক ন্যাশনাল ক্লিনিক,24.564131,89.8532086,4.5,2,"['hospital', 'health', 'point_of_interest', 'establishment']",Gopalpur,ChIJo3CiSXyN_TkRRLRedT5i4pc,"HV73+M7 Hemnagar, Bangladesh",7MPFHV73+M7
Kobi Medical Hall Gadaduba,24.6805741,89.8621801,not found,not found,"['hospital', 'health', 'point_of_interest', 'establishment']",Unnamed Road,ChIJjxHcCcWP_TkRsQMnSOFGuK8,"MVJ6+6V Gendarpara, Bangladesh",7MPFMVJ6+6V
হারুন ডায়াগনস্টিক সেন্টার,24.7056634,89.8289606,not found,not found,"['hospital', 'health', 'point_of_interest', 'establishment']",Tarakandi Sarishabari Road,ChIJMQw0Wl-R_TkRVAByRwqz6Yo,"PR4H+7H Gendarpara, Bangladesh",7MPFPR4H+7H
হারুন মেডিকেল হল,24.7057513,89.8291735,2,1,"['hospital', 'health', 'point_of_interest', 'establishment']",Tarakandi Sarishabari Road,ChIJH5e05TKR_TkRrSw76lxLvHg,"PR4H+8M Gendarpara, Bangladesh",7MPFPR4H+8M
"সমতকুড় কমিউনিটি ক্লিনিক,ধানবাড়ি,টাংগাইল",24.6410833,89.9079305,4,1,"['hospital', 'health', 'point_of_interest', 'establishment']",Dhanbari Road,ChIJ63Z1BG6P_TkRDLN4zoV9SOo,"JWR5+C5 Pankata, Bangladesh",7MPFJWR5+C5
মাজালিয়া কমিউনিটি ক্লিনিক,24.7050795,89.8559352,5,3,"['hospital', 'health', 'point_of_interest', 'establishment']",Tarakandi - Dhanbari Road,ChIJFyx0kfqP_TkRNHIaHQ9dG4o,"PV44+29 Majalia, Bangladesh",7MPFPV44+29
Mushuddi Health Complex,24.6724778,89.8984677,not found,not found,"['hospital', 'health', 'point_of_interest', 'establishment']",Musuddi,ChIJNXx8nxyP_TkR89Lh-EEoqIA,"MVCX+X9 Musuddi, Bangladesh",7MPFMVCX+X9
Chatila Upo Saththo Kendro,24.5921731,89.9126866,3,1,"['hospital', 'health', 'point_of_interest', 'establishment']",Gopalpur Upazila,ChIJGw0kXGyM_TkRSQf_qkDgxKA,"HWR7+V3 Chanpur, Bangladesh",7MPFHWR7+V3
Nagda Shimla Shastho Kendro,24.6140727,89.9165404,not found,not found,"['hospital', 'health', 'point_of_interest', 'establishment']",Shimla Road,ChIJp_P9TwOM_TkRTc7ZdRLrtsY,"JW78+JJ Nagda Simla, Bangladesh",7MPFJW78+JJ
Natuar Para Hospital,24.6792754,89.7205054,not found,not found,"['hospital', 'health', 'point_of_interest', 'establishment']",Kazipur Upazila,ChIJ-fgdDsaX_TkRD8vCMsTKdaU,"MPHC+P6 Nischintapur, Bangladesh",7MPFMPHC+P6
ডিক্রীরবন্দ কমিউনিটি ক্লিনিক এন্ড হাসপাতাল,24.7145183,89.8487375,5,2,"['hospital', 'health', 'point_of_interest', 'establishment']","near, সরিষাবাড়ী",ChIJsVlSzeyb_TkR-Flww3JE64s,"PR7X+RF Majalia, Bangladesh",7MPFPR7X+RF
Active Care Physiotherapy Center,24.5890469,89.9196317,not found,not found,"['hospital', 'health', 'point_of_interest', 'establishment']","Alif digital hol, Bazar",ChIJPQHZ_AGN_TkRYsEEfA-BLHc,"HWQ9+JV Chanpur, Bangladesh",7MPFHWQ9+JV
Pogaldigha Union Sub Center,24.7111152,89.8134017,not found,not found,"['hospital', 'premise', 'health', 'point_of_interest', 'establishment']",not found,ChIJN4gf03-Q_TkRTYtYc3fJ_Ns,not found,not found
Ma Medical Hall,24.7557828,89.8354074,not found,not found,"['hospital', 'health', 'point_of_interest', 'establishment']","Tarakandi Sarishabari Road, Sarishabari",ChIJN3KsBXqb_TkR1H3k0qwlREw,"QR4P+85 Sarishabari, Bangladesh",7MPFQR4P+85
যমুনা মেডিকেল সেন্টার,24.7556463,89.8351566,5,3,"['hospital', 'health', 'point_of_interest', 'establishment']","Tarakandi Sarishabari Road, Sarishabari",ChIJ28gTlgCb_TkRojr7mfWTbTM,"QR4P+73 Sarishabari, Bangladesh",7MPFQR4P+73
"Upazila Health Complex, Sarishabari, Jamalpur",24.7552498,89.8358522,5,8,"['hospital', 'health', 'point_of_interest', 'establishment']",Sarishabari,ChIJn_gxG9ya_TkRX5OnU3Blids,"QR4P+38 Sarishabari, Bangladesh",7MPFQR4P+38
Baba Ma Dental Care,24.755279,89.8346608,not found,not found,"['hospital', 'health', 'point_of_interest', 'establishment']","Tarakandi Sarishabari Road, Sarishabari",ChIJH8mHBPeb_TkRD1NgvvRh1po,"QR4M+4V Sarishabari, Bangladesh",7MPFQR4M+4V
NAHAR DRIEMS,24.7544698,89.8347698,not found,not found,"['hospital', 'health', 'point_of_interest', 'establishment']","Tarakandi Sarishabari Road, Sarishabari",ChIJYxAWLpSb_TkR7skpL9BtJZY,"QR3M+QW Sarishabari, Bangladesh",7MPFQR3M+QW
Aleya Eye Hospital,24.7543163,89.8350427,not found,not found,"['hospital', 'health', 'point_of_interest', 'establishment']",Sarishabari,ChIJp9JX_Eeb_TkRTfKmK_NRDYU,"QR3P+P2 Sarishabari, Bangladesh",7MPFQR3P+P2
Baushi Bangali Upo Sasto kendro,24.7793961,89.8560244,not found,not found,"['hospital', 'health', 'point_of_interest', 'establishment']",Bausi,ChIJawmmnVmF_TkRNxdEeBT1h5k,"QVH4+QC Bausi, Bangladesh",7MPFQVH4+QC
আমিনা বেগম মেমোরিয়াল হসপিটাল এন্ড হেল্থ ক্লিনিক,24.7474394,89.8255632,3,2,"['hospital', 'health', 'point_of_interest', 'establishment']",Sarishabari,ChIJN3M3Gu-a_TkRWeTwVtZyWps,"PRWG+X6 Sarishabari, Bangladesh",7MPFPRWG+X6
Shisua- Bagmara Community clinic,24.7531904,89.8052779,5,2,"['hospital', 'health', 'point_of_interest', 'establishment']",Sarishabari Upazila,ChIJQ0mP1hab_TkRWzT0Nq41L0g,"QR34+74 Bausi, Bangladesh",7MPFQR34+74
Char chataria Health complex,24.7735212,89.7927648,not found,not found,"['hospital', 'health', 'point_of_interest', 'establishment']",Sarishabari,ChIJHzuh2Meb_TkRSQa51yVt68g,"QQFV+C4 Sidhli, Bangladesh",7MPFQQFV+C4
ফেইথ ডেন্টাল কেয়ার ভাটারা,24.8120769,89.8434589,not found,not found,"['hospital', 'health', 'point_of_interest', 'establishment']",Sarishabari Upazila,ChIJQQn-i4Wd_TkR7pEeoifh7pU,"RR6V+R9 Zafarshahi, Bangladesh",7MPFRR6V+R9
Faith Dental Care,24.8147208,89.8567067,5,1,"['hospital', 'health', 'point_of_interest', 'establishment']","Vatara Bazar Road, Zafarshahi",ChIJ-S6jzlaD_TkR0qTyOFe-v74,"RV74+VM Zafarshahi, Bangladesh",7MPFRV74+VM
ফেইথ ডেন্টাল কেয়ার,24.8147144,89.8567945,5,1,"['hospital', 'health', 'point_of_interest', 'establishment']","Vatara Bazar Road, Zafarshahi",ChIJyaUgTnOD_TkRENL4kFJhNh8,"RV74+VP Zafarshahi, Bangladesh",7MPFRV74+VP
Hashil Satellite Clinic,24.8154071,89.8574379,3,1,"['hospital', 'health', 'point_of_interest', 'establishment']","Jamalpur - Sarishabari Road, Zafarshahi",ChIJqfFAKlGD_TkRLtoxTf5ohB0,"RV84+5X Zafarshahi, Bangladesh",7MPFRV84+5X
ডিক্রীরবন্দ কমিউনিটি ক্লিনিক এন্ড হাসপাতাল,24.7145183,89.8487375,5,2,"['hospital', 'health', 'point_of_interest', 'establishment']","near, সরিষাবাড়ী",ChIJsVlSzeyb_TkR-Flww3JE64s,"PR7X+RF Majalia, Bangladesh",7MPFPR7X+RF
হারুন মেডিকেল হল,24.7057513,89.8291735,2,1,"['hospital', 'health', 'point_of_interest', 'establishment']",Tarakandi Sarishabari Road,ChIJH5e05TKR_TkRrSw76lxLvHg,"PR4H+8M Gendarpara, Bangladesh",7MPFPR4H+8M
হারুন ডায়াগনস্টিক সেন্টার,24.7056634,89.8289606,not found,not found,"['hospital', 'health', 'point_of_interest', 'establishment']",Tarakandi Sarishabari Road,ChIJMQw0Wl-R_TkRVAByRwqz6Yo,"PR4H+7H Gendarpara, Bangladesh",7MPFPR4H+7H
মাজালিয়া কমিউনিটি ক্লিনিক,24.7050795,89.8559352,5,3,"['hospital', 'health', 'point_of_interest', 'establishment']",Tarakandi - Dhanbari Road,ChIJFyx0kfqP_TkRNHIaHQ9dG4o,"PV44+29 Majalia, Bangladesh",7MPFPV44+29
Tarafder Dental care,24.727977,89.7840195,not found,not found,"['hospital', 'health', 'point_of_interest', 'establishment']",Malipara,ChIJxRnFsT2b_TkREsLGRZT4Cj4,"PQHM+5J Malipara, Bangladesh",7MPFPQHM+5J
Monsurnagar Union Hospital,24.7407274,89.7733624,not found,not found,"['hospital', 'health', 'point_of_interest', 'establishment']","Village-Shalgram, PO-Kumariyabari 2055, PS- 6710, Dist.-Sirajganj, Division-, কাজিপুর",ChIJb0sM_4qZ_TkRWgVHByf17eA,"PQRF+78 Malipara, Bangladesh",7MPFPQRF+78
ডিজিটাল হসপিটাল ভালুকা,24.4094543,90.386566,not found,not found,"['hospital', 'health', 'point_of_interest', 'establishment']",Dhaka - Mymensingh Highway,ChIJCav78o5vVjcRwQlUjd6-tLc,"C95P+QJ Bhaluka, Bangladesh",7MPGC95P+QJ
Bhaluka Modern Eye Hospital,24.4095282,90.386973,4,1,"['hospital', 'health', 'point_of_interest', 'establishment']","Modern Eye Hospital, Hwy, Bhaluka 2240, ভালুকা",ChIJpwg-Z7xuVjcR0mC5CxlRpXM,"C95P+RQ Bhaluka, Bangladesh",7MPGC95P+RQ
Bhaluka Digital Hospital & Diagnostic Center,24.4095505,90.3864305,3.3,12,"['hospital', 'health', 'point_of_interest', 'establishment']","N3, Bhaluka",ChIJ678Ki7xuVjcRi9ZYOxtOEwY,"C95P+RH Bhaluka, Bangladesh",7MPGC95P+RH
ফাহিম জেনারেল হাসপাতাল,24.4055307,90.3863072,not found,not found,"['hospital', 'health', 'point_of_interest', 'establishment']",Bhaluka,ChIJgeH58i5vVjcRA4PjaXjuhFA,"C94P+6G Bhaluka, Bangladesh",7MPGC94P+6G
Fahim Hospital & Diagnostic Centre,24.4055119,90.3862823,not found,not found,"['hospital', 'health', 'point_of_interest', 'establishment']","Bhaluka Upazila, Raihan plaza, bhaluka bus stand Bhaluka",ChIJISNSq35vVjcRmmBnGBwuk50,"C94P+6G Bhaluka, Bangladesh",7MPGC94P+6G
"Doctors Clinic, Bhaluka, Mymensingh.",24.4060385,90.3844782,4.5,2,"['hospital', 'health', 'point_of_interest', 'establishment']","Post Office Road, Bhaluka",ChIJ_4MvY4hvVjcRhJ-oaNnLpiY,"C94M+CQ Bhaluka, Bangladesh",7MPGC94M+CQ
Tahmina General Hospital,24.405157,90.3871313,4.5,2,"['hospital', 'health', 'point_of_interest', 'establishment']","Bhaluka - Gafargaon Road, Bhaluka",ChIJY601hr1uVjcR1JpumuQ8eZM,"C94P+3V Bhaluka, Bangladesh",7MPGC94P+3V
Mahir Hospital,24.4052596,90.3845181,3,1,"['hospital', 'health', 'point_of_interest', 'establishment']","ভালুকা উপজেলা, Panch Raster Moore, Bhaluka Bazar, Bazar Post Office Road",ChIJUxrWDnBvVjcR369gqrfjlFY,"C94M+4R Bhaluka, Bangladesh",7MPGC94M+4R
Sheba Hospital,24.4062522,90.3902225,5,2,"['hospital', 'health', 'point_of_interest', 'establishment']",Bhaluka,ChIJdzo0b6VvVjcRDZuFFMAXC9c,"C94R+G3 Bhaluka, Bangladesh",7MPGC94R+G3
Bhaluka Upazila Health Complex,24.4070121,90.3820453,4.1,37,"['hospital', 'health', 'point_of_interest', 'establishment']",Bhaluka,ChIJm4i2YKJuVjcRipd9qVMTrl0,"C94J+RR Bhaluka, Bangladesh",7MPGC94J+RR
Kolotan Hospital,24.4047131,90.3835539,not found,not found,"['hospital', 'health', 'point_of_interest', 'establishment']",Bhaluka,ChIJ40dnCkxvVjcRNApGFJjpVa0,"C93M+VC Bhaluka, Bangladesh",7MPGC93M+VC
Master Hospital,24.4039861,90.3846955,not found,not found,"['hospital', 'health', 'point_of_interest', 'establishment']",Unnamed Road,ChIJZ-wfx8lvVjcRfX_NCjAxts8,"C93M+HV Bhaluka, Bangladesh",7MPGC93M+HV
Bhaluka Upazilla Health Complex Jame Masque,24.40627,90.3820133,3,2,"['hospital', 'health', 'point_of_interest', 'establishment']","Bhaluka Bridge, Bhaluka - Shakhipur Road, Bhaluka",ChIJ2UJ0azBvVjcReIzuEZ1sSy4,"C94J+GR Bhaluka, Bangladesh",7MPGC94J+GR
"Upazilla Health Complex, Bhaluka",24.4062549,90.3818386,5,1,"['hospital', 'health', 'point_of_interest', 'establishment']",Bhaluka,ChIJP00mxPVvVjcRTdcfrJHrP8c,"C94J+GP Bhaluka, Bangladesh",7MPGC94J+GP
Valuka Upozila Health Complex,24.4060956,90.3816452,not found,not found,"['hospital', 'health', 'point_of_interest', 'establishment']",Bhaluka,ChIJMYnV4TlvVjcRmu5yrRw-Zjo,"C94J+CM Bhaluka, Bangladesh",7MPGC94J+CM
"মোহাম্মদীয়া হাসপাতাল, ভালুকা",24.4023652,90.3861831,not found,not found,"['hospital', 'health', 'point_of_interest', 'establishment']",N3,ChIJxWgAFNlvVjcRegGAvsDztNs,"C92P+WF Bhaluka, Bangladesh",7MPGC92P+WF
Mohmmodia Model Hospital,24.4023752,90.3859477,4,1,"['hospital', 'health', 'point_of_interest', 'establishment']",Bhaluka,ChIJJZM-G9tvVjcRpUQ7J2aDRXc,"C92P+X9 Bhaluka, Bangladesh",7MPGC92P+X9
Bhaluka General Hospital,24.4026021,90.3842157,4.6,5,"['hospital', 'health', 'point_of_interest', 'establishment']",Bhaluka,ChIJi4eYh5duVjcRNNdcZ_lnzPY,"C93M+2M Bhaluka, Bangladesh",7MPGC93M+2M
Supreme New Square Hospital & Diagnostic Center,24.4197406,90.3894957,4.7,3,"['hospital', 'health', 'point_of_interest', 'establishment']","Bhaluka, Mymensingh., Dhaka - Mymensingh Highway",ChIJVbUWKLduVjcR9UEc4i9Nevo,"C99Q+VQ Bhaluka, Bangladesh",7MPGC99Q+VQ
চাপড়বাড়ী কমিউনিটি ক্লিনিক,24.4235437,90.3937413,1,1,"['hospital', 'health', 'point_of_interest', 'establishment']",Bhaluka Upazila,ChIJW9SBP91vVjcRrUQUXFiJ6WQ,"C9FV+CF Bhaluka, Bangladesh",7MPGC9FV+CF
Akhalia H.C,24.630461,90.2747031,5,5,"['hospital', 'health', 'point_of_interest', 'establishment']","ফুলবাড়িয়া উপজেলা, Gouripur Hospital Rd, Fulbaria",ChIJeU_AZs84VjcRJg_mPICPXhM,"J7JF+5V Fulbaria, Bangladesh",7MPGJ7JF+5V
Fulbaria health care,24.631585,90.2709665,not found,not found,"['hospital', 'health', 'point_of_interest', 'establishment']",Fulbaria Upazila,ChIJfxadUsI5VjcRUJpmD4l9sz8,"J7JC+J9 Fulbaria, Bangladesh",7MPGJ7JC+J9
md kobir hossain,24.6316813,90.2702959,not found,not found,"['hospital', 'health', 'point_of_interest', 'establishment']",Fulbaria hospital rud,ChIJ9633ihg5VjcRnThN9c6tCCY,"J7JC+M4 Fulbaria, Bangladesh",7MPGJ7JC+M4
Popular Medical Center,24.6306185,90.2723012,4.5,6,"['hospital', 'health', 'point_of_interest', 'establishment']","Hospital Road, ফুলবাড়িয়া",ChIJHdQb9M84VjcRaetADysZaZs,"J7JC+6W Fulbaria, Bangladesh",7MPGJ7JC+6W
BRAC Health Center,24.6304623,90.2725384,5,1,"['hospital', 'health', 'point_of_interest', 'establishment']",Z3032,ChIJ1VvvsyE5VjcRg6Xd0Rjzyes,"J7JF+52 Fulbaria, Bangladesh",7MPGJ7JF+52
দাতে মামুনস..,24.6304601,90.2725499,5,3,"['hospital', 'health', 'point_of_interest', 'establishment']","Unnamed Road, Fulbaria",ChIJk234iWc5VjcRnF5XSapTwpQ,"J7JF+52 Fulbaria, Bangladesh",7MPGJ7JF+52
AL Shefa Dwakhana,24.6303292,90.2734192,not found,not found,"['hospital', 'health', 'point_of_interest', 'establishment']","Fulbaria Hospital rod, Mymensingh",ChIJl7igNPs5VjcRRffM_5ROsfY,"J7JF+49 Fulbaria, Bangladesh",7MPGJ7JF+49
ফুলবাড়িয়ায় উপজেলা স্বাস্থ্য কমপ্লেক্সের,24.6270036,90.2835756,4.6,5,"['hospital', 'health', 'point_of_interest', 'establishment']",ময়মনসিংহ,ChIJqeCNl8k4VjcR3KBthmlAUFg,"J7GM+RC Fulbaria, Bangladesh",7MPGJ7GM+RC
ঝিনুক ফার্মেসি,24.6255346,90.286293,not found,not found,"['hospital', 'health', 'point_of_interest', 'establishment']",Fulbaria Upazila,ChIJE8ImLPY5VjcRZ9vUDXwvy1E,"J7GP+6G Fulbaria, Bangladesh",7MPGJ7GP+6G
মাসুদ মেডিকেল হল,24.6018699,90.2280776,3,3,"['hospital', 'health', 'point_of_interest', 'establishment']",Unnamed Road,ChIJ23mzt6Y-VjcRMeBSthWrDz4,"J62H+P6 Bakta, Bangladesh",7MPGJ62H+P6
এলাহি মেডিকেল হল,24.66642,90.3221751,not found,not found,"['hospital', 'health', 'point_of_interest', 'establishment']",Fulbaria Upazila,ChIJ8x2H61tHVjcRluongC1_As4,"M88C+HV Deukhola, Bangladesh",7MPGM88C+HV
এলাহি মেডিকেল হল add-by Md Aminul islam,24.6671576,90.3222855,not found,not found,"['hospital', 'health', 'point_of_interest', 'establishment']","ফুলবাড়িয়া উপজেলা, vill:charkalibazail p.o: alimnagor p.s:fulbaria dist:",ChIJX1KA5CtHVjcR-2gi3T1MZmo,"M88C+VW Deukhola, Bangladesh",7MPGM88C+VW
Arif Pharmachy,24.6894641,90.2928727,5,1,"['hospital', 'health', 'point_of_interest', 'establishment']","Telegram bazar, Basna Road",ChIJi2Crh5k5VjcRKTIiIVxzy7s,"M7QV+Q4 Namakatlasen, Bangladesh",7MPGM7QV+Q4
Dobor Dosta Community clinic,24.6230082,90.3374309,not found,not found,"['hospital', 'health', 'point_of_interest', 'establishment']",Radhakanai Dhurdhuri,ChIJ06Zp2qVHVjcRcjc7ixaqRFQ,"J8FP+6X Radhakanai Dhurdhuri, Bangladesh",7MPGJ8FP+6X
রসুলপুর কমিউনিটি ক্লিনিক,24.6718022,90.2130069,5,1,"['hospital', 'health', 'point_of_interest', 'establishment']",Fulbaria Upazila,ChIJK0-PPhI7VjcRxhM7TLP_L6c,"M6C7+P6 Bade Pabaijan, Bangladesh",7MPGM6C7+P6
Medicare Diagnostic & Diabetes Centre,24.5715532,90.2620041,5,1,"['hospital', 'health', 'point_of_interest', 'establishment']",Fulbaria Main Road,ChIJqWU8xwo_VjcRD7lUsF5E7ZU,"H7C6+JR Fulbaria, Bangladesh",7MPGH7C6+JR
বাহার চালা কমিউনিটি ক্লিনিক,24.5818778,90.2261456,not found,not found,"['hospital', 'health', 'point_of_interest', 'establishment']",Fulbaria Upazila,ChIJI-iGqQY_VjcRhdgP8Hpvt4k,"H6JG+QF Rangamatia, Bangladesh",7MPGH6JG+QF
