Place Name,Latitude,Longitude,Rating,User_Total_Rating,Types,Address,Place_ID,Compound_Code,Global_Code
North Gopalpur Hospital,22.6311853,89.8869161,not found,not found,"['hospital', 'health', 'point_of_interest', 'establishment']",Kachua Upazila,ChIJcbD_SH34_zkRT9V2sVBZXYo,"JVJP+FQ Kachua, Bangladesh",7MJFJVJP+FQ
Seba clinic,22.6602436,89.7895478,not found,not found,"['hospital', 'health', 'point_of_interest', 'establishment']","Lake Road, Nagerbazar Road, বাগেরহাট",ChIJ_4GEFIr3_zkRg5rJQkCmwGI,"MQ6Q+3R Bagerhat, Bangladesh",7MJFMQ6Q+3R
মেসার্স মেঘনা ফার্মেসি এন্ড মেডিকেল সেন্টার,22.6586943,89.7901171,not found,not found,"['hospital', 'health', 'point_of_interest', 'establishment']",Bagerhat,ChIJbYjszxb3_zkRgHN8BT9Z5IE,"MQ5R+F2 Bagerhat, Bangladesh",7MJFMQ5R+F2
Maternity Hospital,22.657828,89.792106,5,2,"['hospital', 'health', 'point_of_interest', 'establishment']","Alia Madrasa Road, Bagerhat",ChIJhXShrWf2_zkRYIJL-j8Uvzw,"MQ5R+4R Bagerhat, Bangladesh",7MJFMQ5R+4R
"Mother and Child Hospital, Bagerhat",22.6577794,89.7921985,3,3,"['hospital', 'health', 'point_of_interest', 'establishment']","Alia Madrasa Road, Bagerhat",ChIJN5zvrWf2_zkR-RZRJSxeuOc,"MQ5R+4V Bagerhat, Bangladesh",7MJFMQ5R+4V
"SUFIA MEMORIAL MAA -SHISU & GENERAL HOSPITAL, Bagerhat",22.6642377,89.7886667,not found,not found,"['hospital', 'health', 'point_of_interest', 'establishment']","College Road, Bagerhat",ChIJ_9JTUnD3_zkRdhSjlKmYntI,"MQ7Q+MF Bagerhat, Bangladesh",7MJFMQ7Q+MF
Bagerhatd x-ray &digital diagnostic center near Bagerhat,22.6639188,89.7929721,5,1,"['hospital', 'health', 'point_of_interest', 'establishment']","Main Road, Bagerhat",ChIJgfzXawD3_zkRvOGSP2VfXm8,"MQ7V+H5 Bagerhat, Bangladesh",7MJFMQ7V+H5
"সূর্যের হাসি ক্লিনিক,বাগেরহাট",22.6641572,89.7928021,not found,not found,"['hospital', 'health', 'point_of_interest', 'establishment']","Main Road, Bagerhat",ChIJ_ff6m0b3_zkRXOcBmP7XRLs,"MQ7V+M4 Bagerhat, Bangladesh",7MJFMQ7V+M4
woodland Diagnostic Center,22.664205,89.7928233,5,1,"['hospital', 'health', 'point_of_interest', 'establishment']",Bagerhat,ChIJL4GC9mD2_zkRRtGyq4Fp8oU,"MQ7V+M4 Bagerhat, Bangladesh",7MJFMQ7V+M4
"Janoni Diagnostic centr, Main Road, Bagerha.",22.6611752,89.795031,not found,not found,"['hospital', 'health', 'point_of_interest', 'establishment']","Post Office Road, Bagerhat",ChIJa_jwb6H3_zkRRcy--ROM5eE,"MQ6W+F2 Bagerhat, Bangladesh",7MJFMQ6W+F2
Diabetic Hospital,22.6583744,89.7948677,4.3,3,"['hospital', 'health', 'point_of_interest', 'establishment']","Khanjahan Ali Raod, Bagerhat",ChIJa0h5gF32_zkRWmJ-VjB-3-c,"MQ5V+8W Bagerhat, Bangladesh",7MJFMQ5V+8W
Surjer Hashi Clinic,22.6606921,89.7961977,5,5,"['hospital', 'health', 'point_of_interest', 'establishment']",Bagerhat,ChIJLz0rzl32_zkRoYcnIVurCpc,"MQ6W+7F Bagerhat, Bangladesh",7MJFMQ6W+7F
Kazi Clinic,22.666696,89.7906512,4.5,2,"['hospital', 'health', 'point_of_interest', 'establishment']",Bagerhat,ChIJ96TR52H2_zkRIz_JZmxgLIk,"MQ8R+M7 Bagerhat, Bangladesh",7MJFMQ8R+M7
কাজী ক্লিনিক,22.6667861,89.7909037,3,1,"['hospital', 'health', 'point_of_interest', 'establishment']",মুনিগঞ্জ,ChIJY9D2tWH3_zkRBmhOW-X3uds,"MQ8R+P9 Bagerhat, Bangladesh",7MJFMQ8R+P9
Bagerhat Sadar Hospital,22.6669455,89.7886825,4.3,20,"['hospital', 'health', 'point_of_interest', 'establishment']","Sadar Hospital Road, বাগেরহাট",ChIJZfsjDGL2_zkRhQZVcP2HfvQ,"MQ8Q+QF Bagerhat, Bangladesh",7MJFMQ8Q+QF
Sadar Hospital Road,22.6676623,89.7894003,not found,not found,"['hospital', 'health', 'point_of_interest', 'establishment']",Bagerhat,ChIJDSFW_on2_zkRVtS950k_wuQ,"MQ9Q+3Q Bagerhat, Bangladesh",7MJFMQ9Q+3Q
Govt. Bokkho Badhi Clinic,22.6676885,89.7893433,5,2,"['hospital', 'health', 'point_of_interest', 'establishment']",Bagerhat,ChIJMcmi_on2_zkRF02KBlDXXtE,"MQ9Q+3P Bagerhat, Bangladesh",7MJFMQ9Q+3P
Bagerhat 250 Bed Hospital,22.6679524,89.7885363,5,1,"['hospital', 'health', 'point_of_interest', 'establishment']",Bagerhat,ChIJVdelKT73_zkRicWIXX9c3BU,"MQ9Q+5C Bagerhat, Bangladesh",7MJFMQ9Q+5C
Bagerhat Eye Hospital,22.655542,89.7775357,3,3,"['hospital', 'health', 'point_of_interest', 'establishment']",Bagerhat,ChIJcT7sKXj2_zkRJkpuOvq5C7Y,"MQ4H+62 Bagerhat, Bangladesh",7MJFMQ4H+62
Katakhaly Bazaar Hospital,22.7404708,89.7698289,1,1,"['hospital', 'health', 'point_of_interest', 'establishment']",Baruipara,ChIJ35m1wd3z_zkROhGjYB49YEs,"PQR9+5W Baruipara, Bangladesh",7MJFPQR9+5W
ইউনিয়ন স্বাস্থ্য কমপ্লেক্স বিষ্ণুপুর,22.731497,89.789995,5,1,"['hospital', 'health', 'point_of_interest', 'establishment']",Mulgor Road,ChIJMzX_ISTx_zkRvu-AcH6sYlc,"PQJQ+HX Baruipara, Bangladesh",7MJFPQJQ+HX
Fakirhat Sisu Clinic,22.763875,89.7309744,not found,not found,"['hospital', 'health', 'point_of_interest', 'establishment']","ফকিরহাট উপজেলা, Fakirhat Hospital Main Road , Pagla, Shamnagar",ChIJm3JdanDz_zkR84UUb7X1xn4,"QP7J+G9 Baruipara, Bangladesh",7MJFQP7J+G9
Bagerhat eye Hospital,22.6605735,89.7660304,not found,not found,"['hospital', 'health', 'point_of_interest', 'establishment']","Khulna - Bagerhat Highway, Bagerhat",ChIJQetnXnb1_zkR5XBKnMC2RBw,"MQ68+6C Bagerhat, Bangladesh",7MJFMQ68+6C
Megnitala Ma O Sisu Hospital,22.6595996,89.7677752,2,1,"['hospital', 'health', 'point_of_interest', 'establishment']","Bagerhat - Khulna Road, Bagerhat",ChIJOZSHKdf1_zkRUj9xRjoqbc4,"MQ59+R4 Bagerhat, Bangladesh",7MJFMQ59+R4
"Union Health Complex ,Vanderkhola",22.6554516,89.7661526,not found,not found,"['hospital', 'health', 'point_of_interest', 'establishment']","Mollahat Upazila, vandarkhola bazar",ChIJV1VVVcX1_zkRCQBqr0yc23Y,"MQ48+5F Bagerhat, Bangladesh",7MJFMQ48+5F
Janani diagnostic,22.6554516,89.7661527,not found,not found,"['hospital', 'health', 'point_of_interest', 'establishment']",Bagerhat,ChIJcUYC0bD1_zkRWjKq7taNpU4,"MQ48+5F Bagerhat, Bangladesh",7MJFMQ48+5F
Digital Diagnostic Center,22.7775166,89.7074279,4,1,"['hospital', 'health', 'point_of_interest', 'establishment']","Besides Fakir hat Thana, Health Complex, ফকিরহাট",ChIJAQAAAM_y_zkREmpypx27jFA,"QPH4+2X Fakirhat, Bangladesh",7MJFQPH4+2X
Take Care Digital Diagnostic,22.7775166,89.7074279,not found,not found,"['hospital', 'health', 'point_of_interest', 'establishment']","Rasel complex.1st floor,Kata khali, ফকিরহাট",ChIJAQAAAM_y_zkR2WA7gXxB0o0,"QPH4+2X Fakirhat, Bangladesh",7MJFQPH4+2X
KHALSHIBUNIA HOSPITAL,22.6818492,89.4767241,5,1,"['hospital', 'health', 'point_of_interest', 'establishment']",Batiaghata,ChIJkb-0VcyG_zkRKYPTha1Y8JY,"MFJG+PM Batiaghata, Bangladesh",7MJFMFJG+PM
UHC dacope,22.6019662,89.5173747,not found,not found,"['hospital', 'health', 'point_of_interest', 'establishment']",Dacope,ChIJt3x3NLgpADoRBy6AzBTo8nE,"JG28+QW Dacope, Bangladesh",7MJFJG28+QW
UHC dacope,22.5996132,89.517204,not found,not found,"['hospital', 'health', 'point_of_interest', 'establishment']",Dacope,ChIJuSZKPVMpADoRfP_vPNqhygw,"HGX8+RV Dacope, Bangladesh",7MJFHGX8+RV
Dacope Upazila Health Complex,22.5996075,89.5179125,not found,not found,"['hospital', 'health', 'point_of_interest', 'establishment']",Dacope,ChIJAfuElugpADoRZ36qB7yvMlY,"HGX9+R5 Dacope, Bangladesh",7MJFHGX9+R5
"Upazilla Health Complex, Dacope, Khulna.",22.5993736,89.5180523,5,1,"['hospital', 'health', 'point_of_interest', 'establishment']","Chalna, Dacope",ChIJkbbUtKgpADoRS8FwIgtw-2E,"HGX9+P6 Dacope, Bangladesh",7MJFHGX9+P6
MSTPP Medical Centre,22.5879511,89.5637025,5,6,"['hospital', 'health', 'point_of_interest', 'establishment']",Rampal Upazila,ChIJZ4fwWi4nADoRznJZ4TUgXIA,"HHQ7+5F Dacope, Bangladesh",7MJFHHQ7+5F
Kalikaprosad Community Clinic (কালিকাপ্রসাদ কমিউনিটি ক্লিনিক),22.6152912,89.5846183,5,1,"['hospital', 'health', 'point_of_interest', 'establishment']","Kalikaprosad Community Clinic,Post:Kalakherber, Bangladesh.( উপজেলাঃ জেলাঃ বাগেরহাট,।, Rampal",ChIJ7QFtDoEnADoRVvKZ6eeO4aI,"JH8M+4R Chitra, Bangladesh",7MJFJH8M+4R
Raipur Community Clinic,22.6559541,89.4372448,5,1,"['hospital', 'health', 'point_of_interest', 'establishment']",Surkhali Road,ChIJgaijq5OB_zkR9xcMcDV0Ehc,"MC4P+9V Batiaghata, Bangladesh",7MJFMC4P+9V
Rajnagar Union Health & Family Welfare Centre,22.5994166,89.5881803,5,1,"['hospital', 'health', 'point_of_interest', 'establishment']",Khulna - Mongla Hwy,ChIJn6aykXUnADoR3S2wPa6cBv4,"HHXQ+Q7 Chitra, Bangladesh",7MJFHHXQ+Q7
Debitala Community Clinic,22.6980828,89.5122967,not found,not found,"['hospital', 'health', 'point_of_interest', 'establishment']",Batiaghata,ChIJp36Dw1eH_zkRq3kkY6a3b48,"MGX6+6W Batiaghata, Bangladesh",7MJFMGX6+6W
Kailashganj Clinic,22.5108241,89.5183788,not found,not found,"['hospital', 'health', 'point_of_interest', 'establishment']",Dacope Upazila,ChIJ_xB-CqEvADoRae_pZ5-m4oY,"GG69+89 Kailashganj, Bangladesh",7MJFGG69+89
Government Bhanderkote Hospital,22.6929574,89.5627785,not found,not found,"['hospital', 'health', 'point_of_interest', 'establishment']",Batiaghata Upazila,ChIJiVbux72I_zkRI_2mNlK4I_8,"MHV7+54 Vhanderkote, Bangladesh",7MJFMHV7+54
Akra Community Clinic,22.6776238,89.4206107,not found,not found,"['hospital', 'health', 'point_of_interest', 'establishment']",Dumuria Upazila,ChIJtfVvb7eB_zkRNpcNDmft3Wo,"MCHC+26 Akra, Bangladesh",7MJFMCHC+26
Dacope Upazila Health Complex,22.5994035,89.5176149,not found,not found,"['premise', 'hospital', 'health', 'point_of_interest', 'establishment']",Dacope,ChIJZZtG6zYoADoRJKA2JWHyaAU,not found,not found
Mongla Port Hospital (মংলা বন্দর হাসপাতাল),22.4942196,89.6016171,5,2,"['hospital', 'health', 'point_of_interest', 'establishment']",Mongla,ChIJJ5osAkYkADoRfM1Z6kLaAVo,"FJV2+MJ Mongla, Bangladesh",7MJFFJV2+MJ
Mongla Upazila Health Complex,22.4942196,89.6016171,4.6,5,"['hospital', 'health', 'point_of_interest', 'establishment']",Mongla,ChIJOVnoU4YkADoRRNCibP2OQHw,"FJV2+MJ Mongla, Bangladesh",7MJFFJV2+MJ
Mongla Port Hospital,22.494574,89.5970343,5,2,"['hospital', 'health', 'point_of_interest', 'establishment']",Mongla Upazila,ChIJReZDmAQlADoR-7-wfcl855Y,"FHVW+RR Mongla, Bangladesh",7MJFFHVW+RR
Mongla Government Hospital,22.472953,89.6176709,4.3,4,"['hospital', 'health', 'point_of_interest', 'establishment']",Mongla,ChIJES50UYYkADoRNFRuzgO8FzE,"FJF9+53 Mongla, Bangladesh",7MJFFJF9+53
"Upazilla Health Complex, Mongla",22.4727448,89.617627,not found,not found,"['hospital', 'health', 'point_of_interest', 'establishment']",Mongla Upazila,ChIJJex_MLklADoRv1wCj8DJuTs,"FJF9+33 Mongla, Bangladesh",7MJFFJF9+33
Mongla Livestock hospital,22.4703887,89.6143443,not found,not found,"['hospital', 'health', 'point_of_interest', 'establishment']",Mongla,ChIJv921NI8kADoR2PwnJLc6LCQ,"FJC7+5P Mongla, Bangladesh",7MJFFJC7+5P
St. Paul's Hospital,22.4669379,89.6094811,3.3,4,"['hospital', 'health', 'point_of_interest', 'establishment']","Rd, মংলা",ChIJ608UsY0kADoR1fMiEJGPBLg,"FJ85+QQ Mongla, Bangladesh",7MJFFJ85+QQ
Burirdanga Government Hospital (বুড়িরডাংগা সরকারি হাসপাতাল),22.5346498,89.6093024,5,1,"['hospital', 'health', 'point_of_interest', 'establishment']",Mongla Upazila,ChIJU4BavCknADoRwF4WtCaYe-E,"GJM5+VP Mongla, Bangladesh",7MJFGJM5+VP
উপজেলা হেলেথ কেয়ার হাসপাতালে,22.5538611,89.6528863,not found,not found,"['hospital', 'health', 'point_of_interest', 'establishment']",Rampal,ChIJZUNiVtwhADoRbPuq9WgaFhM,"HM33+G5 Rampal, Bangladesh",7MJFHM33+G5
Hospital,22.5538638,89.6528844,not found,not found,"['hospital', 'health', 'point_of_interest', 'establishment']",Rampal,ChIJJROryoQhADoRt-xGz6Ipuyg,"HM33+G5 Rampal, Bangladesh",7MJFHM33+G5
সুন্দরবন ইউনিয়ন স্বাস্থ্য ও পরিবার কল্যাণ কেন্দ্র,22.4541819,89.6775908,not found,not found,"['hospital', 'health', 'point_of_interest', 'establishment']",Mongla Upazila,ChIJVXKfsugjADoRBiIWxFa_GDw,"FM3H+M2 Banstala, Bangladesh",7MJFFM3H+M2
পশু হাসপাতাল,22.5607655,89.6548944,5,3,"['hospital', 'health', 'point_of_interest', 'establishment']",Rampal To Khulna Link Road,ChIJvVS2XaUhADoRgOhvXm2BO8M,"HM63+8X Rampal, Bangladesh",7MJFHM63+8X
Rampal Upazila Health Complex,22.5877107,89.6497052,not found,not found,"['hospital', 'health', 'point_of_interest', 'establishment']",Rampal,ChIJrbS2w-4gADoRtR33uQX7Nds,"HJQX+3V Rampal, Bangladesh",7MJFHJQX+3V
কোদালিয়া ইউনিয়ন স্বাস্থ্য ও পরিবার কল্যান কেন্দ্র,22.8552032,89.817361,4,2,"['hospital', 'health', 'point_of_interest', 'establishment']","বাগেরহাট সদর উপজেলা, Kodalia,kodalia,mollahat",ChIJ9d7V1Kvv_zkRUhRWOoo2daM,"VR48+3W Chitalmari Union, Bangladesh",7MJFVR48+3W
টুঙ্গিপাড়া পশু হাসপাতাল,22.8931617,89.8905265,not found,not found,"['hospital', 'health', 'point_of_interest', 'establishment']",Tungipara Upazila,ChIJ1V1MErvl_zkRirNLfEGfji8,"VVVR+76 Patgati, Bangladesh",7MJFVVVR+76
"Upazila Health Complex, Tungipara",22.8939923,89.8897451,3.6,5,"['hospital', 'health', 'point_of_interest', 'establishment']",Tungipara Upazila,ChIJzcVDfS3k_zkRyI_0TwTlMFo,"VVVQ+HV Patgati, Bangladesh",7MJFVVVQ+HV
Kalatala Hospital,22.8448436,89.9168394,not found,not found,"['hospital', 'health', 'point_of_interest', 'establishment']","Kalatala Hospital & Madical, 1 Baraguni-Kalatala Road",ChIJ0W7jvZrk_zkR5o9MMCReGjg,"RWV8+WP Kalatala Union, Bangladesh",7MJFRWV8+WP
"Upozila health complex, Tungipara, Gopalgonj",22.8945665,89.890408,not found,not found,"['hospital', 'health', 'point_of_interest', 'establishment']",Tungipara,ChIJWwD8Ekrl_zkRCPuF8jrNKLM,"VVVR+R5 Patgati, Bangladesh",7MJFVVVR+R5
Nargis Memorial Surgical Clinic,22.7958847,89.8717153,not found,not found,"['hospital', 'health', 'point_of_interest', 'establishment']","Aruaborni Charpara Road, Chitalmari Union",ChIJhySJSRn7_zkR9GMCVGYPI9U,"QVWC+9M Chitalmari Union, Bangladesh",7MJFQVWC+9M
Chitalmari Hospital,22.7955887,89.8726916,4,7,"['hospital', 'health', 'point_of_interest', 'establishment']",Bagerhat Patgati Road,ChIJUdlZ9cb6_zkRcOEN8n3toFw,"QVWF+63 Chitalmari Union, Bangladesh",7MJFQVWF+63
Chitalmari Health complex,22.7955659,89.872696,not found,not found,"['hospital', 'health', 'point_of_interest', 'establishment']",Chitalmari Upazila,ChIJ0y2w_7X7_zkROqm9LBoqM8I,"QVWF+63 Chitalmari Union, Bangladesh",7MJFQVWF+63
শিশু হাসপাতাল,22.901433,89.8846141,not found,not found,"['hospital', 'health', 'point_of_interest', 'establishment']",Tungipara Upazila,ChIJJavXJU_l_zkRB8DNzIBmPjk,"WV2M+HR Tungipara, Bangladesh",7MJFWV2M+HR
‌চ‌িতলমরী পশু হাসপাতাল,22.7948197,89.8735318,not found,not found,"['hospital', 'health', 'point_of_interest', 'establishment']","Hospital Road, Chitalmari Union",ChIJB9Uk1JT7_zkRzUE3ynyxM30,"QVVF+WC Chitalmari Union, Bangladesh",7MJFQVVF+WC
Sheikh Luthfor Rahman dental hospital and collage,22.855711,89.9239397,not found,not found,"['hospital', 'health', 'point_of_interest', 'establishment']","Gopalgon j- Tungipara - Nazirpur - Pirojpur Road, Kalatala Union",ChIJf6G5nUbl_zkRbEIO7Far7HM,"VW4F+7H Kalatala Union, Bangladesh",7MJFVW4F+7H
GIMADANGA COMMIUNITY CLINIC,22.9106824,89.8741819,not found,not found,"['hospital', 'health', 'point_of_interest', 'establishment']",Gopalgon j- Tungipara - Nazirpur - Pirojpur Road,ChIJqZtY4bXn_zkRKV9eRDI-xbQ,"WV6F+7M Tungipara, Bangladesh",7MJFWV6F+7M
Shaikh Sahera Khatun Hospital,22.9077272,89.8962488,not found,not found,"['hospital', 'health', 'point_of_interest', 'establishment']",Tungipara,ChIJS7cU30nn_zkR_hjME2C8nos,"WV5W+3F Tungipara, Bangladesh",7MJFWV5W+3F
Shaildah Community Clinic,22.8443434,89.9377312,not found,not found,"['hospital', 'health', 'point_of_interest', 'establishment']",Kalatala Union,ChIJ6yw1RG7j_zkR7lxPZ9enhjI,"RWVQ+P3 Kalatala Union, Bangladesh",7MJFRWVQ+P3
শৈলদাহ কমিউনিটি ক্লিনিক,22.8443239,89.9380038,not found,not found,"['hospital', 'health', 'point_of_interest', 'establishment']",Kalatala Union,ChIJF3m2Q27j_zkRJzLKrDhlb1w,"RWVQ+P6 Kalatala Union, Bangladesh",7MJFRWVQ+P6
"চরবানিয়ারী ইউনিয়ন স্বাস্থ্য কেন্দ্র, গরীবপুর",22.7866645,89.9000922,2.3,3,"['hospital', 'health', 'point_of_interest', 'establishment']",Chitalmari Upazila,ChIJX2svKBb7_zkR2njU0yX8kV4,"QWP2+M2 Shantoshpur Union, Bangladesh",7MJFQWP2+M2
Hospital,22.7601381,89.8896509,1,1,"['hospital', 'health', 'point_of_interest', 'establishment']","Khasherhat-Kaligonj Road, Shantoshpur Union",ChIJC5Q346r7_zkRcJhETJN0ueU,"QV6Q+3V Shantoshpur Union, Bangladesh",7MJFQV6Q+3V
Hoglabunia Bazar Union Helth Complex,22.7815632,89.9399436,5,2,"['hospital', 'health', 'point_of_interest', 'establishment']","Nazirpur Upazila, Hoglabunia,Tarabunia,Nazirpur,Pirojpur,Bangladesh",ChIJ09UTEJT8_zkRpyEjSqQwWns,"QWJQ+JX Hoglabunia, Bangladesh",7MJFQWJQ+JX
চর কচুড়িয়া কমিউনিটি ক্লিনিক,22.7382992,89.9237078,not found,not found,"['hospital', 'health', 'point_of_interest', 'establishment']",Chitalmari Upazila,ChIJv8fjgL_7_zkRI060lXxzz7M,"PWQF+8F Shantoshpur Union, Bangladesh",7MJFPWQF+8F
Depara Rural Health Center,22.7142296,89.8438552,not found,not found,"['hospital', 'health', 'point_of_interest', 'establishment']",Bagerhat - Chitalmari Road,ChIJIW5KJFP3_zkRCAPD_Voi2yo,"PR7V+MG Gotapara, Bangladesh",7MJFPR7V+MG
Betaga Manorama Das Community Clinic,22.7088128,89.6336246,5,1,"['hospital', 'health', 'point_of_interest', 'establishment']",Fakirhat Upazila,ChIJMczQz0mL_zkRpvAvFq9-zGg,"PJ5M+GC Betaga, Bangladesh",7MJFPJ5M+GC
Take Care Digital Diagnostic & Consultation Centre,22.7400456,89.6341152,not found,not found,"['hospital', 'health', 'point_of_interest', 'establishment']","ফকিরহাট উপজেলা, Rasel Complex (1st floor), In front of Janata Bank, Katakhali Mor",ChIJ2yWnsR2N_zkR4aHpkyh6Zb8,"PJRM+2J Betaga, Bangladesh",7MJFPJRM+2J
দঃ খানপুর কমিউনিটি ক্লিনিক,22.6453174,89.6977053,not found,not found,"['hospital', 'health', 'point_of_interest', 'establishment']",Barai Para,ChIJaTA5WnSL_zkRk4vWg-9y1OE,"JMWX+43 Chaksree, Bangladesh",7MJFJMWX+43
talapara hospital,22.7483688,89.5939682,5,2,"['hospital', 'health', 'point_of_interest', 'establishment']","talapara, বটিয়াঘাটা উপজেলা",ChIJV1w8uuCP_zkRC_gMisvJBj8,"PHXV+8H Khulna, Bangladesh",7MJFPHXV+8H
Khajura Community Clink,22.7553039,89.6202991,not found,not found,"['hospital', 'health', 'point_of_interest', 'establishment']",Fakirhat Upazila,ChIJW0SINr2P_zkRVMJ6mdJuCiw,"QJ4C+44 Lockpur, Bangladesh",7MJFQJ4C+44
উপজেলা স্বাস্থ্য কমপ্লেক্স,22.5883541,89.6495191,not found,not found,"['hospital', 'health', 'point_of_interest', 'establishment']",Rampal Upazila,ChIJAcODoQEhADoRrfHas0iXGxI,"HJQX+8R Rampal, Bangladesh",7MJFHJQX+8R
CSS Hospital,22.7757735,89.6203891,3.8,6,"['hospital', 'health', 'point_of_interest', 'establishment']",Rupsha Upazila,ChIJBSVCtXCO_zkRAw9q9xLLrRg,"QJGC+85 Khulna, Bangladesh",7MJFQJGC+85
Rev. Abdul Wadud Memorial Hospital,22.7758353,89.6204688,4.2,13,"['hospital', 'health', 'point_of_interest', 'establishment']",Tilok,ChIJAUKqSneO_zkR834RvN0LQWw,"QJGC+85 Khulna, Bangladesh",7MJFQJGC+85
Life care Diagnostic,22.7781497,89.7016606,not found,not found,"['hospital', 'health', 'point_of_interest', 'establishment']",Fakirhat Upazila,ChIJy0tKaJrz_zkRhRJWX9o5pBA,"QPH2+7M Fakirhat, Bangladesh",7MJFQPH2+7M
ফকিরহাট উপজেলা স্বাস্থ্য কমপ্লেক্স,22.7778765,89.7012069,3.3,3,"['hospital', 'health', 'point_of_interest', 'establishment']",Fakirhat Upazila,ChIJzxoer3zz_zkREQTDsgqwujI,"QPH2+5F Fakirhat, Bangladesh",7MJFQPH2+5F
"Ahmed Diagnostic and clinic,",22.7772162,89.7009852,not found,not found,"['hospital', 'health', 'point_of_interest', 'establishment']","Fakirhat Hospital Road, Fakirhat",ChIJqUAuJs3y_zkRU9l6sDXSGlM,"QPG2+V9 Fakirhat, Bangladesh",7MJFQPG2+V9
Labukhali Cantonment Hospital,22.7814907,89.6937395,not found,not found,"['hospital', 'health', 'point_of_interest', 'establishment']","Sheikh Hasina Technical College Ground, Fakirhat - Khulna Bypass Road, Fakirhat",ChIJg4knnzmN_zkRAn1VysY--qA,"QMJV+HF Fakirhat, Bangladesh",7MJFQMJV+HF
"Upojila Health Complex,Rupsha,Khulna",22.797964,89.6412653,4,2,"['hospital', 'health', 'point_of_interest', 'establishment']",Fakirhat - Khulna Bypass Road,ChIJ0_Dqhu2N_zkRZMmbjbUGNsU,"QJXR+5G Alaipur, Bangladesh",7MJFQJXR+5G
Kazdia Health Complex,22.7977974,89.6411053,5,4,"['hospital', 'health', 'point_of_interest', 'establishment']",Rupsha Upazila,ChIJwcvuhe2N_zkRQnL1pfKhl7w,"QJXR+4C Alaipur, Bangladesh",7MJFQJXR+4C
Upazilla health complex kachua,22.654393,89.8898953,3,1,"['hospital', 'health', 'point_of_interest', 'establishment']",Kachua,ChIJjzFqmff4_zkRwirze7TvDoY,"MV3Q+QX Kachua, Bangladesh",7MJFMV3Q+QX
সাইনবোর্ড ক্লিনিক,22.6436205,89.8777878,not found,not found,"['hospital', 'health', 'point_of_interest', 'establishment']",Kachua Road,ChIJv1UZJ6L5_zkRdAdZ2uRloVI,"JVVH+C4 Kachua, Bangladesh",7MJFJVVH+C4
Hazera khatun Health Care Ltd,22.6436447,89.8812432,5,2,"['hospital', 'health', 'point_of_interest', 'establishment']",Kachua Upazila,ChIJPzdhBzn5_zkR3OWlCfMyilo,"JVVJ+FF Kachua, Bangladesh",7MJFJVVJ+FF
Gopalpur union health complex,22.6314481,89.8869133,not found,not found,"['hospital', 'health', 'point_of_interest', 'establishment']",Gopalpur,ChIJvRL2aOD5_zkR_zVo63gSvQ0,"JVJP+HQ Kachua, Bangladesh",7MJFJVJP+HQ
Signboard Clinic & Sharif Diagnostic Centre সাইনবোর্ড ক্লিনিক & শরীফ ডায়াগনষ্টিক সেন্টার,22.6073234,89.8497919,4,2,"['hospital', 'health', 'point_of_interest', 'establishment']",Kachua Upazila,ChIJI8tn1Z0dADoRLgrv_zT2x_Y,"JR4X+WW Gotapara, Bangladesh",7MJFJR4X+WW
সাইনবোর্ড ক্লিনিক & শরীফ ডায়াগনষ্টিক সেন্টার,22.6066518,89.8497746,not found,not found,"['hospital', 'health', 'point_of_interest', 'establishment']",Pirojpur - Bagerhat Highway,ChIJ95Kw8OUdADoRQ6qhIRQCncc,"JR4X+MW Gotapara, Bangladesh",7MJFJR4X+MW
Purba Bakshi Community Clinic,22.6912803,89.9330894,not found,not found,"['hospital', 'health', 'point_of_interest', 'establishment']","নাজিরপুর উপজেলা, Purba",ChIJ7Q7Gkvb__zkRHTUJiorL698,"MWRM+G6 Shakhmatia, Bangladesh",7MJFMWRM+G6
Khanjahania Nursing Home,22.6564632,89.7982536,not found,not found,"['hospital', 'health', 'point_of_interest', 'establishment']",Bagerhat Sadar Upazila,ChIJCXtF9Yj3_zkRRWkOKQazUGw,"MQ4X+H8 Bagerhat, Bangladesh",7MJFMQ4X+H8
Boga Clinic,22.6508363,89.7983918,4.4,9,"['hospital', 'health', 'point_of_interest', 'establishment']","Basabari Road, Bagerhat",ChIJSfd_8kP2_zkRD1rQL-maQHo,"MQ2X+89 Bagerhat, Bangladesh",7MJFMQ2X+89
বগা ক্লিনিক ( হাড়-ভাঙ্গা হাসপাতাল ),22.6508942,89.798379,not found,not found,"['hospital', 'health', 'point_of_interest', 'establishment']","Basabari Road, Bagerhat",ChIJn5D5hh33_zkRcuV9QsIH0mY,"MQ2X+99 Bagerhat, Bangladesh",7MJFMQ2X+99
Animal Hospital,22.8700742,89.7484044,not found,not found,"['hospital', 'health', 'point_of_interest', 'establishment']",Mollahat Upazila,ChIJY3YIX0Xs_zkR1ufdTiDdhPQ,"VPCX+29 Gangni, Bangladesh",7MJFVPCX+29
NASHUKHALI HEALTH CENTRE,22.8699426,89.7482371,not found,not found,"['hospital', 'health', 'point_of_interest', 'establishment']","Mollahat Upazila, NASHUKHALI,MOLLAHAT",ChIJwbOpWEXs_zkRUOLScwdmgMQ,"VP9X+X7 Gangni, Bangladesh",7MJFVP9X+X7
Lucky Clinic,22.9264523,89.8028053,5,5,"['hospital', 'health', 'point_of_interest', 'establishment']","High-School-Road, Mollahat",ChIJ6-_06drp_zkRkf0WOToJq0s,"WRG3+H4 Mollahat, Bangladesh",7MJFWRG3+H4
Mollahat Hospital,22.9272852,89.8020993,4.3,3,"['hospital', 'health', 'point_of_interest', 'establishment']","High-School-Road, Mollahat",ChIJq2qYPT3p_zkRarK1taWwuFc,"WRG2+WR Mollahat, Bangladesh",7MJFWRG2+WR
"Jitendra Bijan Smrity Community Clinic,Girishnagar,Mollahat",22.9286426,89.8178099,5,6,"['hospital', 'health', 'point_of_interest', 'establishment']",Mollahat,ChIJowOa8N3o_zkR_xcmE08Z3K8,"WRH9+F4 Mollahat, Bangladesh",7MJFWRH9+F4
Health center,22.964412,89.753099,5,1,"['hospital', 'health', 'point_of_interest', 'establishment']",Unnamed Road,ChIJv7GJ1gXr_zkRjzGePp9MN7Y,"XQ73+Q6 Chunkhola, Bangladesh",7MJFXQ73+Q6
Sheikh Fazilatunesa Mujib Eye Hospital & Training Institute,22.9491745,89.8207367,4.8,73,"['hospital', 'health', 'point_of_interest', 'establishment']",Ghonapara,ChIJy13JlPno_zkRI36aqaV_bQ4,"WRXC+M7 Ghonapara, Bangladesh",7MJFWRXC+M7
"শেখ ফজিলাতুন্নেছা মুজিব চক্ষু হাসপাতাল ও প্রশিক্ষণ প্রতিষ্ঠান, গোপালগঞ্জ",22.9497567,89.8204983,not found,not found,"['hospital', 'health', 'point_of_interest', 'establishment']",Gopalganj,ChIJb8y5s_vp_zkRia8ArcLyMEU,"WRXC+W5 Vatiapara, Bangladesh",7MJFWRXC+W5
Pakhimara Community Clinic (পাখিমারা কমিউনিটি ক্লিনিক),22.9709506,89.7517239,not found,not found,"['hospital', 'health', 'point_of_interest', 'establishment']",Khulna - Chapail Road,ChIJB_VfqvTr_zkR-hM2Rae1BV4,"XQC2+9M Chunkhola, Bangladesh",7MJFXQC2+9M
পাখীমারা কমিউনীটি ক্লিনিক,22.9709588,89.7517297,not found,not found,"['hospital', 'health', 'point_of_interest', 'establishment']",Kalia Upazila,ChIJ4YEl8aTr_zkRoFAzYFixvzs,"XQC2+9M Chunkhola, Bangladesh",7MJFXQC2+9M
"Terokhada Health Complex, তোরখাদা স্বাস্থ্য কমপ্লেক্স",22.927835,89.6729428,1,1,"['hospital', 'health', 'point_of_interest', 'establishment']",Terokhada Upazila,ChIJPd7Ts92V_zkR4sprSrGOnKc,"WMHF+45 Terokhada, Bangladesh",7MJFWMHF+45
Sheikh Fazilatunesa Mujib Eye Hospital & Training Institute,22.9491745,89.8207367,4.8,72,"['hospital', 'health', 'point_of_interest', 'establishment']",Ghonapara,ChIJy13JlPno_zkRI36aqaV_bQ4,"WRXC+M7 Ghonapara, Bangladesh",7MJFWRXC+M7
Terokkhada Hospital,22.9282754,89.6729271,5,2,"['hospital', 'health', 'point_of_interest', 'establishment']","Terokhada - Mollahat Road, Terokhada",ChIJCUN8u5KU_zkRkh3ut1UrGWI,"WMHF+85 Terokhada, Bangladesh",7MJFWMHF+85
Chor Kushli community Clinic,22.9673695,89.8454367,not found,not found,"['hospital', 'health', 'point_of_interest', 'establishment']",Tungipara Upazila,ChIJ59akVdLp_zkRrwpmU4mzFi4,"XR8W+W5 Gopalganj, Bangladesh",7MJFXR8W+W5
Borashi Community Clinic,22.9833614,89.8360795,5,1,"['hospital', 'health', 'point_of_interest', 'establishment']","Dhaka - Khulna Highway, Gopalganj",ChIJnTVeHDjp_zkRefauTgALgAE,"XRMP+8C Gopalganj, Bangladesh",7MJFXRMP+8C
Borni Govt Hospital বর্নি সরকারী হাসপাতাল,22.9589144,89.8694559,not found,not found,"['hospital', 'health', 'point_of_interest', 'establishment']",Unnamed Road,ChIJA5CCxvzn_zkR2wzlwFjX-k4,"XV59+HQ Gopalganj, Bangladesh",7MJFXV59+HQ
"Sheikh Sayera Khatun Medical College Hospital, Gopalgonj",22.9933379,89.8201605,4.4,24,"['hospital', 'health', 'point_of_interest', 'establishment']","Gopalganj Town Road, Gopalganj",ChIJ82VYOC_o_zkRjiWKJ3hdtHo,"XRVC+83 Gopalganj, Bangladesh",7MJFXRVC+83
"শেখ সায়েরা খাতুন মেডিকেল কলেজ,একাডেমিক ভবন",22.9934859,89.8201955,5,3,"['hospital', 'health', 'point_of_interest', 'establishment']",Gopalganj,ChIJhfamHy_o_zkRx94nhdsetvg,"XRVC+93 Gopalganj, Bangladesh",7MJFXRVC+93
ইখড়ি দশভাইয়া হাসপাতাল রোড Bridge,22.927695,89.6656083,not found,not found,"['hospital', 'health', 'point_of_interest', 'establishment']","Khulna-Terokhada Road, Terokhada",ChIJFchqRBuV_zkRM6sknFpDKyA,"WMH8+36 Terokhada, Bangladesh",7MJFWMH8+36
R M Adhunik Clinic & Diagnostic Centre,22.4529923,89.8514446,5,5,"['hospital', 'health', 'point_of_interest', 'establishment']",Morrelganj,ChIJf_5rl10FADoRh0QdLqHi1Vg,"FV32+5H Morrelganj, Bangladesh",7MJFFV32+5H
Raisha Clinic,22.4535067,89.8572479,1,1,"['hospital', 'health', 'point_of_interest', 'establishment']","Unnamed Road, Morrelganj",ChIJK6nogJoFADoRgXKn5A1uTUU,"FV34+CV Morrelganj, Bangladesh",7MJFFV34+CV
Morrelganj Goverment Hospital,22.4565415,89.8649333,not found,not found,"['hospital', 'health', 'point_of_interest', 'establishment']","Word-09, Morrelganj",ChIJbawLbykFADoROS2sZnFOHEY,"FV47+JX Sankivanga, Bangladesh",7MJFFV47+JX
শিহাব মেডিকেল হল,22.4665936,89.873731,5,3,"['hospital', 'health', 'point_of_interest', 'establishment']",Morrelganj Upazila,ChIJzXMw5LgFADoR74RZNbgaeFk,"FV8F+JF Sankivanga, Bangladesh",7MJFFV8F+JF
Community center,22.4400412,89.8866311,not found,not found,"['hospital', 'health', 'point_of_interest', 'establishment']",বদনীভাঙ্গা road,ChIJlXk_0cAFADoRku3ymdPE8qw,"CVRP+2M Morrelganj, Bangladesh",7MJFCVRP+2M
"কমিউনিটি ক্লিনিক (গোদারা ইয়াতিমখানা), Morrelgong",22.4610064,89.9013313,3.6,5,"['hospital', 'health', 'point_of_interest', 'establishment']",Morrelganj Upazila,ChIJs3VR7esFADoRS0m2JXYYb30,"FW62+CG Bara Baduria, Bangladesh",7MJFFW62+CG
Chattogram Community Hospital,22.4715579,89.795047,not found,not found,"['hospital', 'health', 'point_of_interest', 'establishment']","College Bazar Road, Surjumukhi",ChIJUywfkJkbADoRugRCe38RTzc,"FQCW+J2 Surjumukhi, Bangladesh",7MJFFQCW+J2
ক্লিনিক,22.4163258,89.9139675,5,2,"['hospital', 'health', 'point_of_interest', 'establishment']",Zianagar Upazila,ChIJm2FvlzcPADoRYL36SN7M43o,"CW87+GH Telikhali Union, Bangladesh",7MJFCW87+GH
putikhali hospital,22.523576,89.839132,not found,not found,"['hospital', 'health', 'point_of_interest', 'establishment']","মোরেলগঞ্জ উপজেলা, vhatkhali to putikhali road",ChIJNZ_uO_gbADoROFyXCeO0g0Y,"GRFQ+CM Baharbunia Union, Bangladesh",7MJFGRFQ+CM
hospital,22.5235812,89.8391479,not found,not found,"['hospital', 'health', 'point_of_interest', 'establishment']",Putkhali,ChIJtbZBAfobADoRLZ9RoNzgupo,"GRFQ+CM Baharbunia Union, Bangladesh",7MJFGRFQ+CM
Mohasin Molla Hospital,22.5032264,89.784337,not found,not found,"['hospital', 'health', 'point_of_interest', 'establishment']","Near Fulhata Bazar,Morrelgong, Fulhata High School Road",ChIJTdN00ucbADoRqNBOd4F8UOI,"GQ3M+7P Fulhata Kaskondo, Bangladesh",7MJFGQ3M+7P
A.H.M Hatem Ali General Hospital,22.3669836,89.8708563,5,1,"['hospital', 'health', 'point_of_interest', 'establishment']","সরনখোলা উপজেলা, Amtali,Uttar",ChIJH0eWo6IPADoRYweIYDtuUys,"9V8C+Q8 Chalitabunia, Bangladesh",7MJF9V8C+Q8
Hospital,22.3670081,89.8709911,2,1,"['hospital', 'health', 'point_of_interest', 'establishment']","Sarankhola Upazila, Uttar Khontakata, Saronkhola",ChIJH4Vjr0cOADoRlrhbzozKwOk,"9V8C+R9 Chalitabunia, Bangladesh",7MJF9V8C+R9
Mridharhat Community Clinic,22.4449843,89.9461392,5,1,"['hospital', 'health', 'point_of_interest', 'establishment']",Zianagar Upazila,ChIJ51zrgXQHADoRuKh1ARLM23w,"CWVW+XF Telikhali Union, Bangladesh",7MJFCWVW+XF
Uttar Fulhata Govt. Hospital,22.5057502,89.7793803,not found,not found,"['hospital', 'health', 'point_of_interest', 'establishment']",Fulhata High School Road,ChIJK3RSW-EbADoRynbOntOuM64,"GQ4H+8Q Fulhata Bacher Bari, Bangladesh",7MJFGQ4H+8Q
Kachubunia Hospital,22.5424904,89.8914774,not found,not found,"['hospital', 'health', 'point_of_interest', 'establishment']",Morrelganj Upazila,ChIJcaQ6oJ4DADoRJLuHoedXl9I,"GVRR+XH Kachubunia, Bangladesh",7MJFGVRR+XH
হালিমা বেগম মেডিকেল চেম্বার,22.3342678,89.8100624,5,9,"['hospital', 'health', 'point_of_interest', 'establishment']","আমড়াগাছিয়া বাজার, মাদ্রাসা মার্কেট",ChIJR7UGeUsRADoRR1hbDiD4vk0,"8RM6+P2 Sharankhola, Bangladesh",7MJF8RM6+P2
"Sharankhola Upazila Health Complex, Bagerhat",22.3128846,89.8499333,4.6,11,"['hospital', 'health', 'point_of_interest', 'establishment']",Sharankhola,ChIJiZ5XhgoSADoRIt0GuxUwsKc,"8R7X+5X Sharankhola, Bangladesh",7MJF8R7X+5X
HAJI ABDUR RAZZAK SURGICAL CLINIC,22.3662067,89.9588221,4.8,4,"['hospital', 'health', 'point_of_interest', 'establishment']",Mathbaria Upazila,ChIJySmiJgkJADoREOTbXnvjkcE,"9X85+FG Telikhali Union, Bangladesh",7MJF9X85+FG
নাঈম মেডিকেল হল,22.3685729,89.9637895,not found,not found,"['hospital', 'health', 'point_of_interest', 'establishment']","Safa - Telikhali Road, Telikhali Union",ChIJo7aqGnUJADoRpez6rQKZ9Ag,"9X97+CG Telikhali Union, Bangladesh",7MJF9X97+CG
Union Health Care and Family Welfare Center,22.4235699,89.9682266,5,1,"['hospital', 'health', 'point_of_interest', 'establishment']","হাইস্কুল - বাজার - লঞ্চঘাট রোড, Telikhali Union",ChIJp_IAXHkIADoR9qREoIZtpiE,"CXF9+C7 Telikhali Union, Bangladesh",7MJFCXF9+C7
woodland Diagnostic Center,22.664205,89.7928233,4.5,2,"['hospital', 'health', 'point_of_interest', 'establishment']",Bagerhat,ChIJL4GC9mD2_zkRRtGyq4Fp8oU,"MQ7V+M4 Bagerhat, Bangladesh",7MJFMQ7V+M4
k.S hospital,22.5546915,89.6954643,not found,not found,"['hospital', 'health', 'point_of_interest', 'establishment']",Rampal Upazila,ChIJ_TS6JdohADoRAG8uftj3yGE,"HM3W+V5 Rampal, Bangladesh",7MJFHM3W+V5
"Upazila Health Complex, Rampal",22.5880113,89.6497272,not found,not found,"['hospital', 'premise', 'health', 'point_of_interest', 'establishment']",Rampal,ChIJpchNx-4gADoRYSZknxB50-I,not found,not found
M.R.Central Hospital and Diagnostic Centre,22.7259505,89.5194742,not found,not found,"['hospital', 'health', 'point_of_interest', 'establishment']","Batiaghata Upazila, Zero Point",ChIJjZryxTCb_zkRaFW6ZnW73p4,"PGG9+9Q Batiaghata, Bangladesh",7MJFPGG9+9Q
Baro Sannyasi community clinic,22.5508348,89.7337113,4.5,4,"['hospital', 'health', 'point_of_interest', 'establishment']",Rampal Upazila,ChIJN4XtfjUfADoRdBw5ScvTaqE,"HP2M+8F Aowliar, Bangladesh",7MJFHP2M+8F
Union Health Complex,22.7213487,89.749437,not found,not found,"['premise', 'hospital', 'health', 'point_of_interest', 'establishment']",Jatharapur,ChIJp8iJLo_z_zkRyfBwYukulrk,not found,not found
Sufia Clinic,22.2860857,89.96268,not found,not found,"['hospital', 'health', 'point_of_interest', 'establishment']",Mathbaria,ChIJ7ca5yUkMADoRekY0z_3s0vI,"7XP7+C3 Mathbaria, Bangladesh",7MJF7XP7+C3
পশ্চিম মিঠাখালী কমিউনিটি ক্লিনিক,22.2953879,89.9193017,not found,not found,"['hospital', 'health', 'point_of_interest', 'establishment']",বেতমোর ইউনিয়ন,ChIJ1xTKnTwNADoRKXxNdt_1XqI,"7WW9+5P Mithakhali, Bangladesh",7MJF7WW9+5P
Saudi Probashi Hospital,22.3169934,89.9486404,5,1,"['hospital', 'health', 'point_of_interest', 'establishment']","Baheratala - Baishkura - Dauatala Road, মঠবাড়ীয়া",ChIJvdMH9sMLADoRgmY0c-CiiCU,"8W8X+QF Mathbaria, Bangladesh",7MJF8W8X+QF
কুয়েত প্রবাসী হাসপাতাল এন্ড ডায়াগনস্টিক সেন্টার,22.2964111,89.9527426,not found,not found,"['hospital', 'health', 'point_of_interest', 'establishment']","Charkhali - Mathbaria – Patharghata Road, Mathbaria",ChIJvRdg_LILADoRG6ljdf3JfHY,"7XW3+H3 Mathbaria, Bangladesh",7MJF7XW3+H3
Kuwait Probashi Hospital,22.2965322,89.9529316,5,3,"['hospital', 'health', 'point_of_interest', 'establishment']",Mathbaria,ChIJxyFiZ6ULADoRD7pVOFMqKK4,"7XW3+J5 Mathbaria, Bangladesh",7MJF7XW3+J5
Saudi Probashi Hospital & Diagnostic Center,22.2947345,89.9537775,3.7,3,"['hospital', 'health', 'point_of_interest', 'establishment']","Patharghata, Barisal Rd, Mathbaria",ChIJIXV1ea8LADoRfQ36khnQWPc,"7XV3+VG Mathbaria, Bangladesh",7MJF7XV3+VG
Mattri Sadon O Sashtho Sheba Clinic,22.2930628,89.9542325,not found,not found,"['hospital', 'health', 'point_of_interest', 'establishment']",Mathbaria,ChIJ4RSfRq8LADoRGEka0U1u7uo,"7XV3+6M Mathbaria, Bangladesh",7MJF7XV3+6M
উপজেলা প্রাণিসম্পদ দপ্তর ও প্রাণি হাসপাতাল,22.292994,89.9543277,not found,not found,"['hospital', 'health', 'point_of_interest', 'establishment']",Mathbaria,ChIJZzfMMT0LADoRLplL5c-e98k,"7XV3+5P Mathbaria, Bangladesh",7MJF7XV3+5P
Hospital,22.285638,89.9531133,5,1,"['hospital', 'health', 'point_of_interest', 'establishment']",Mathbaria,ChIJ07qYSi0LADoRNbnau7OEu4k,"7XP3+76 Mathbaria, Bangladesh",7MJF7XP3+76
Mathbaria Hospital,22.2856824,89.953456,5,2,"['hospital', 'health', 'point_of_interest', 'establishment']",Mathbaria,ChIJJ73Q_QcLADoRbYKQVvqZItk,"7XP3+79 Mathbaria, Bangladesh",7MJF7XP3+79
SIKDER DIAGNOSTICCENTER,22.2853378,89.9533771,not found,not found,"['hospital', 'health', 'point_of_interest', 'establishment']","Hospital Road, Mathbaria",ChIJ1ZzIBnALADoRbJ6_YHC7iyI,"7XP3+49 Mathbaria, Bangladesh",7MJF7XP3+49
মঠবাড়িয়া স্বাস্থ্য কমপ্লেক্স,22.2856183,89.9535516,not found,not found,"['hospital', 'health', 'point_of_interest', 'establishment']",Mathbaria,ChIJma3R4TwLADoR8ZAC6C9qbEQ,"7XP3+6C Mathbaria, Bangladesh",7MJF7XP3+6C
Mathbaria Upazila Health Complex,22.2857151,89.9536329,4.8,5,"['hospital', 'health', 'point_of_interest', 'establishment']",Mathbaria,ChIJ27uq_gcLADoRYNHjkQENnPQ,"7XP3+7F Mathbaria, Bangladesh",7MJF7XP3+7F
Mathbaria Ma-Shishu & General Hospital,22.2848404,89.9553908,5,3,"['hospital', 'health', 'point_of_interest', 'establishment']","Hospital Road, Mathbaria",ChIJZ09Wk-oLADoRxRzMhrfaKqc,"7XM4+W5 Mathbaria, Bangladesh",7MJF7XM4+W5
মা শিশু ও জেনারেল হাসপাতাল,22.2832997,89.955532,not found,not found,"['hospital', 'health', 'point_of_interest', 'establishment']",Sener Tikikata,ChIJHylP_lELADoRrNCj1Y-zRXQ,"7XM4+86 Mathbaria, Bangladesh",7MJF7XM4+86
Noor Mohammad Memorial - Pvt. Hospital,23.7545324,88.9379606,5,2,"['hospital', 'health', 'point_of_interest', 'establishment']",আলমডাঙ্গা হাই রোড,ChIJQ_9JOAHI_jkRXEJ_O4fdjYc,"QW3Q+R5 Alamdanga, Bangladesh",7MMCQW3Q+R5
কমিউনিটি ক্লিনিক,23.762667,88.9437806,not found,not found,"['hospital', 'health', 'point_of_interest', 'establishment']","বলেশ্বরপুর, আইলহাস, Alamdanga",ChIJE8q78se5_jkRB_Z7RNviqKo,"QW7V+3G Alamdanga, Bangladesh",7MMCQW7V+3G
New Apollo Hospital pvt,23.7626671,88.9437807,not found,not found,"['hospital', 'health', 'point_of_interest', 'establishment']","New Town,Terminal Road, Alamdanga",ChIJaTds-xe5_jkRKqWytOQ4XRM,"QW7V+3G Alamdanga, Bangladesh",7MMCQW7V+3G
Fatema (PVT) hospital & diagnostic centre,23.7592642,88.9456347,not found,not found,"['hospital', 'health', 'point_of_interest', 'establishment']",Alamdanga,ChIJo6e7kEnH_jkRWVIcIKiRggY,"QW5W+P7 Alamdanga, Bangladesh",7MMCQW5W+P7
Alamadanga Animal Hospital,23.7575582,88.9435048,not found,not found,"['hospital', 'veterinary_care', 'health', 'point_of_interest', 'establishment']","আলমডাঙ্গা হাই রোড, Alamdanga",ChIJq25fpv_H_jkReiUZWPeanvY,"QW5V+2C Alamdanga, Bangladesh",7MMCQW5V+2C
Al-Arafah Hospital,23.7639356,88.9508475,not found,not found,"['hospital', 'health', 'point_of_interest', 'establishment']","Kushtia - Chuadanga Highway, Alamdanga",ChIJkfEfPQ25_jkR0h_PHkEcm3Y,"QX72+H8 Alamdanga, Bangladesh",7MMCQX72+H8
New Apollo Hospital pvt,23.7579991,88.9372863,2.5,2,"['hospital', 'health', 'point_of_interest', 'establishment']","gobindopur Roads, Alamdanga",ChIJDRDzhrPJ_jkRnerykH6i1ds,"QW5P+5W Alamdanga, Bangladesh",7MMCQW5P+5W
ALAMDANGA CLINIC,23.7557148,88.9502752,not found,not found,"['hospital', 'health', 'point_of_interest', 'establishment']",Alamdanga,ChIJx7S0SJ3H_jkRG7oiXlTV9TU,"QX42+74 Alamdanga, Bangladesh",7MMCQX42+74
shefa clinic,23.7545235,88.9491393,not found,not found,"['hospital', 'health', 'point_of_interest', 'establishment']",Alamdanga Upazila,ChIJZ9WsmvnH_jkRMDHKlbWqpCs,"QW3X+RM Alamdanga, Bangladesh",7MMCQW3X+RM
Shefa Clinic & Diagnostic Center,23.7541464,88.9485499,5,4,"['hospital', 'health', 'point_of_interest', 'establishment']",College Para Road,ChIJGTRNf_nH_jkR9GibhUBMsuQ,"QW3X+MC Alamdanga, Bangladesh",7MMCQW3X+MC
Abdul Hamid Memorial Hospital & Clinic,23.7514701,88.954023,3.7,3,"['hospital', 'health', 'point_of_interest', 'establishment']","Z7404, Alamdanga",ChIJV8aVD_HH_jkRLkrsBp2ZGnI,"QX23+HJ Alamdanga, Bangladesh",7MMCQX23+HJ
Bajitpur community clinic বাজিতপুর কমিউনিটি ক্লিনিক,23.7960921,88.9227471,not found,not found,"['hospital', 'health', 'point_of_interest', 'establishment']",Mirpur Upazila,ChIJy_GvIDK3_jkRdLHgq7GPOeg,"QWWF+C3 Hardi, Bangladesh",7MMCQWWF+C3
বাজিতপুর কমিউনিটি ক্লিনিক,23.7961253,88.9227444,5,2,"['hospital', 'health', 'point_of_interest', 'establishment']",Alamdanga,ChIJ84lsDgu3_jkRTxZ9gN5H1js,"QWWF+F3 Hardi, Bangladesh",7MMCQWWF+F3
হারদী হাসপাতাল,23.788476,88.903094,4.8,4,"['hospital', 'health', 'point_of_interest', 'establishment']",Hardi,ChIJ64a5Mhu3_jkRPJ7aWZYRn_A,"QWQ3+96 Hardi, Bangladesh",7MMCQWQ3+96
Hardi Hospital,23.7889356,88.9024128,not found,not found,"['hospital', 'health', 'point_of_interest', 'establishment']","Hardi Hospital, Hardi",ChIJG88LDuK3_jkRue--IaaW-Ak,"QWQ2+HX Hardi, Bangladesh",7MMCQWQ2+HX
Daspara Community Clinic,23.8140905,88.8697205,5,1,"['hospital', 'health', 'point_of_interest', 'establishment']",Alamdanga Upazila,ChIJ8TJrC4S2_jkRhFycbStfKm8,"RV79+JV Bhangbaria, Bangladesh",7MMCRV79+JV
Sutail cominuti clinic,23.8090264,88.9475226,not found,not found,"['hospital', 'health', 'point_of_interest', 'establishment']",Mirpur Upazila,ChIJpw7mV2G5_jkRm86oFjnnsn8,"RW5X+J2 Sutail, Bangladesh",7MMCRW5X+J2
Sutail Community Clinic,23.8088343,88.9481171,4.8,4,"['hospital', 'health', 'point_of_interest', 'establishment']",Mirpur Upazila,ChIJDZt9GNO5_jkRaYJ4hEDl1ww,"RW5X+G6 Sutail, Bangladesh",7MMCRW5X+G6
Makhaldanga Community Clinic,23.5988262,88.8412308,4,1,"['hospital', 'health', 'point_of_interest', 'establishment']","Ward No New 08, Shankarchandra",ChIJpUu56dbN_jkRRiXCHaLo2FY,"HRXR+GF Shankarchandra, Bangladesh",7MMCHRXR+GF
Masudul Haque Impact Hospital,23.6386812,88.8368949,3.6,10,"['hospital', 'health', 'point_of_interest', 'establishment']",Malo Para Road,ChIJe7DovkLM_jkRaHyB_DGhPQI,"JRQP+FQ Chuadanga, Bangladesh",7MMCJRQP+FQ
উপজেলা স্বাস্থ্য কমপ্লেক্স,23.6352071,88.8456342,not found,not found,"['hospital', 'health', 'point_of_interest', 'establishment']","Hospital Para, Chuadanga",ChIJ5VNNpY3N_jkRRgxWLUpB9P4,"JRPW+37 Chuadanga, Bangladesh",7MMCJRPW+37
চুয়াডাঙ্গা সদর হাসপাতাল,23.6349601,88.847141,not found,not found,"['hospital', 'health', 'point_of_interest', 'establishment']",Chuadanga,ChIJv5Q82jrN_jkRexn8sbwhH_o,"JRMW+XV Chuadanga, Bangladesh",7MMCJRMW+XV
চুয়াডাঙ্গা সদর হাসপাতাল,23.6351923,88.8472637,4.5,2,"['hospital', 'health', 'point_of_interest', 'establishment']","Hospital Para, Chuadanga",ChIJ56UnijPN_jkRdoW2SYWYVmg,"JRPW+3W Chuadanga, Bangladesh",7MMCJRPW+3W
Government Hospital,23.6355704,88.8475557,4.5,2,"['hospital', 'health', 'point_of_interest', 'establishment']","Hospital Para, Chuadanga",ChIJByTAWb3N_jkRLZ1SeXUyZpI,"JRPX+62 Chuadanga, Bangladesh",7MMCJRPX+62
"উপজেলা স্বাস্থ্য ও পঃ পঃ কর্মকর্তার কার্যালয়,চুয়াডাঙ্গা",23.6365356,88.8469149,not found,not found,"['hospital', 'health', 'point_of_interest', 'establishment']","184 Eye Hospital Road, Chuadanga",ChIJ6x9Y9ivN_jkRUrOgtljosN0,"JRPW+JQ Chuadanga, Bangladesh",7MMCJRPW+JQ
Islami Hospital and Diagnostic Center,23.6362799,88.8479987,5,3,"['hospital', 'health', 'point_of_interest', 'establishment']","ট বাজার রোড, Chuadanga",ChIJ8WxWnz_M_jkRwk8YOawC_eQ,"JRPX+G5 Chuadanga, Bangladesh",7MMCJRPX+G5
Rajdhani Clinic,23.6375745,88.8467346,5,2,"['hospital', 'health', 'point_of_interest', 'establishment']","Cinema Hall Para, Chuadanga",ChIJ5Z3tMy_N_jkRwnXSHEALNQg,"JRQW+2M Chuadanga, Bangladesh",7MMCJRQW+2M
Health Aid Medical Center,23.637713,88.8469183,4.4,10,"['hospital', 'health', 'point_of_interest', 'establishment']",Hospital Road,ChIJ2d0Tlj_M_jkRru94s5M4EGE,"JRQW+3Q Chuadanga, Bangladesh",7MMCJRQW+3Q
মারজান হোমিও ক্লিনিক,23.7176619,88.8886783,not found,not found,"['hospital', 'health', 'point_of_interest', 'establishment']","alamdanga, Munshiganj",ChIJ_____6PJ_jkRGXVPZdx912o,"PV9Q+3F Munshiganj, Bangladesh",7MMCPV9Q+3F
Munshiganj Hospital,23.7168493,88.8890357,3.9,7,"['hospital', 'health', 'point_of_interest', 'establishment']","R747, Munshiganj",ChIJcySlqKbJ_jkRE73OLduNDfM,"PV8Q+PJ Munshiganj, Bangladesh",7MMCPV8Q+PJ
গড়চাপড়া কমিউনিটি হাসপাতাল,23.7146923,88.9174303,5,2,"['hospital', 'health', 'point_of_interest', 'establishment']",Alamdanga Upazila,ChIJy7hVzaPJ_jkRMZJZ3TyAJxg,"PW78+VX Munshiganj, Bangladesh",7MMCPW78+VX
"Golam Banu (pvt.) Hospital, Nagdah, Chuadanga",23.6845886,88.9152962,4,1,"['hospital', 'health', 'point_of_interest', 'establishment']",Nagdah Road,ChIJpy7TqMPI_jkRUKUWCpLOvmQ,"MWM8+R4 Mominpur, Bangladesh",7MMCMWM8+R4
Batia para hospital,23.6876327,88.8514719,not found,not found,"['hospital', 'health', 'point_of_interest', 'establishment']",Batiapara,ChIJ-yXEY4XL_jkR5nSZ66Zt4Do,"MVQ2+3H Shialmari, Bangladesh",7MMCMVQ2+3H
Bondor Vita Community Clinic,23.7518884,88.8387399,not found,not found,"['hospital', 'health', 'point_of_interest', 'establishment']",Bondor Road,ChIJDVkwiPzL_jkRtUjWK0up9Q4,"QR2Q+QF Asmankhali Bazar, Bangladesh",7MMCQR2Q+QF
NEESA HEALTH CARE,23.4827325,88.8983171,not found,not found,"['hospital', 'health', 'point_of_interest', 'establishment']",Jibannagar Upazila,ChIJ1z5E1SjR_jkR1v301WePK5Y,"FVMX+38 Andulbaria, Bangladesh",7MMCFVMX+38
Uthali Hospital,23.4932362,88.8412663,5,1,"['hospital', 'health', 'point_of_interest', 'establishment']",Jibannagar Upazila,ChIJM_1Pa9_T_jkRHDDxO4o_dHk,"FRVR+7G Begumpur, Bangladesh",7MMCFRVR+7G
"Community clinic, Dayarampur গণস্বাস্থ্য কেন্দ্র, দয়ারামপুর",23.4804974,88.9680794,4.3,3,"['hospital', 'health', 'point_of_interest', 'establishment']",Dayarampur,ChIJb-ArCUnb_jkR8SVeyNtJSxY,"FXJ9+56 Safdarpur, Bangladesh",7MMCFXJ9+56
Santoshpur Community Clinic,23.477441,88.8159566,3,2,"['hospital', 'health', 'point_of_interest', 'establishment']",Jibannagar Upazila,ChIJscUfjfPT_jkR0HCJB11577U,"FRG8+X9 Begumpur, Bangladesh",7MMCFRG8+X9
Joydia Hospital,23.4269657,88.9497284,not found,not found,"['hospital', 'health', 'point_of_interest', 'establishment']",Kotchandpur Upazila,ChIJCXGJCU7Z_jkRdVpX3tseWaM,"CWGX+QV S B K Union, Bangladesh",7MMCCWGX+QV
Rohimon Nesa Diagnostic and Sono Centre,23.5560566,88.8637174,5,1,"['hospital', 'health', 'point_of_interest', 'establishment']","Darsana - Hizalgari Road, Begumpur",ChIJ8Rk2JGHT_jkRiywehFpjFy8,"HV47+CF Begumpur, Bangladesh",7MMCHV47+CF
Hizalgari Government Hospital,23.5567999,88.8631962,3.7,3,"['hospital', 'health', 'point_of_interest', 'establishment']","Hizalgari-Dingedha Road, Begumpur",ChIJNQ6mNB3S_jkRFQqU3kCX4b0,"HV47+P7 Begumpur, Bangladesh",7MMCHV47+P7
Jibannagar Upazila Health Complex,23.4258409,88.823043,3.6,7,"['hospital', 'health', 'point_of_interest', 'establishment']","Jibannagar Upazila Health Complex, near Jibannagar Darsana Rd,, Jibannagar - Darsana Road, জীবননগর",ChIJq6qqNv7U_jkR0PWwBvZIqls,"CRGF+86 Jibannagar, Bangladesh",7MMCCRGF+86
Ma clinic and digonastec centur,23.4249002,88.8234162,4.5,2,"['hospital', 'health', 'point_of_interest', 'establishment']","hospital Road, Jibannagar",ChIJq_ZXxQHV_jkRTJNJ-5vtbVc,"CRFF+X9 Jibannagar, Bangladesh",7MMCCRFF+X9
Mother and Child General Hospital,23.528819,88.8075445,4,5,"['hospital', 'health', 'point_of_interest', 'establishment']","Jibannagar - Darsana Road, Darshana",ChIJoxkiZefS_jkRB3t_6Fi0aPo,"GRH5+G2 Darshana, Bangladesh",7MMCGRH5+G2
Darsana Ma O Shishu Hospital,23.5308012,88.807131,not found,not found,"['hospital', 'health', 'point_of_interest', 'establishment']","Chuadanga Highway, Darshana",ChIJQdFWcD3T_jkRQW7y6ghtNZ0,"GRJ4+8V Darshana, Bangladesh",7MMCGRJ4+8V
Baluhar union health & family welfare centre,23.4334968,88.988353,not found,not found,"['hospital', 'health', 'point_of_interest', 'establishment']",Kotchandpur Upazila,ChIJZxFsrxXZ_jkRSfn7g3Tri8M,"CXMQ+98 S B K Union, Bangladesh",7MMCCXMQ+98
Ma Hospital & Diagnostic Centre,23.6025143,88.7810034,1,1,"['hospital', 'health', 'point_of_interest', 'establishment']",Damurhuda,ChIJy_uINs4y-TkRPJaKSa94ma0,"JQ3J+2C Damurhuda, Bangladesh",7MMCJQ3J+2C
Digital (pvt) Hospital and (Mahbub Homes),23.6129967,88.7638079,5,5,"['hospital', 'health', 'point_of_interest', 'establishment']",Damurhuda Upazila,ChIJTy5r2Skz-TkRAFwQ2hnRF8g,"JQ77+5G Damurhuda, Bangladesh",7MMCJQ77+5G
Upazila Health Complex,23.6134439,88.7634105,4.5,2,"['hospital', 'health', 'point_of_interest', 'establishment']","Karpasdanga - Aramdanga Road, কার্পাশডাঙ্গা",ChIJEfEQI-Iy-TkRjIPz-A8kecg,"JQ77+99 Damurhuda, Bangladesh",7MMCJQ77+99
২নং দামুড়হুদা ইউনিয়ন পরিষদ কমপ্লেক্স ভবন,23.6137305,88.7632616,5,1,"['hospital', 'health', 'point_of_interest', 'establishment']",Damurhuda Upazila,ChIJS5d7gagz-TkRJSdjxWbNFss,"JQ77+F8 Damurhuda, Bangladesh",7MMCJQ77+F8
Perdamurhuda Hospital,23.6139048,88.7633552,5,1,"['hospital', 'health', 'point_of_interest', 'establishment']",Damurhuda Upazila,ChIJBTb8IuIy-TkRHah-TqW2awU,"JQ77+H8 Damurhuda, Bangladesh",7MMCJQ77+H8
উপজেলা স্বাস্থ্য কমপ্লেক্স- দামুড়হুদা (চিৎলা),23.6137802,88.763111,4,1,"['hospital', 'health', 'point_of_interest', 'establishment']",Damurhuda Upazila,ChIJPauV-BYz-TkRNVizzFJOREU,"JQ77+G6 Damurhuda, Bangladesh",7MMCJQ77+G6
কমিনিউটি ক্লিনিক ( শাহাদত হোসেন),23.6411055,88.7722728,not found,not found,"['hospital', 'health', 'point_of_interest', 'establishment']",Bisnupur,ChIJHQNP0swz-TkRajHU1TSFgfA,"JQRC+CW Bisnupur, Bangladesh",7MMCJQRC+CW
Bishnupur Community Clinic,23.6411103,88.7722805,4.2,5,"['hospital', 'health', 'point_of_interest', 'establishment']",Bisnupur,ChIJC4D1iS0z-TkRtjDn_XbviJU,"JQRC+CW Bisnupur, Bangladesh",7MMCJQRC+CW
Moktarpur Community Clinic,23.6000519,88.7274186,not found,not found,"['hospital', 'health', 'point_of_interest', 'establishment']",Muktarpur,ChIJr9OuBjky-TkRtAYCwOHmf-Q,"JP2G+2X Muktarpur, Bangladesh",7MMCJP2G+2X
K.R Malik Adhunik Hospital,23.6627966,88.7881256,not found,not found,"['hospital', 'health', 'point_of_interest', 'establishment']",Damurhuda Upazila,ChIJrSRLrKrM_jkR-P3UPJLVCDY,"MQ7Q+47 Alukdia, Bangladesh",7MMCMQ7Q+47
Lokhmipur Community Clinic,23.6593438,88.7449728,not found,not found,"['hospital', 'health', 'point_of_interest', 'establishment']",Damurhuda Upazila,ChIJPZIUSyIz-TkRiw3SvFxarNQ,"MP5V+PX Dolka, Bangladesh",7MMCMP5V+PX
দলকা লক্ষীপুর কমিউনিটি ক্লিনিক,23.6593535,88.7449786,5,1,"['hospital', 'health', 'point_of_interest', 'establishment']",Juranpur Lakhimpur Road,ChIJbWAvwNoz-TkRzbSnpLGXqVo,"MP5V+PX Dolka, Bangladesh",7MMCMP5V+PX
Kuralgachhi Hospital para,23.5514643,88.7313651,not found,not found,"['hospital', 'health', 'point_of_interest', 'establishment']",Damurhuda Upazila,ChIJB8muFxAt-TkRu-0ji-_QQg8,"HP2J+HG Kurulgachi, Bangladesh",7MMCHP2J+HG
Darsana Mordern Clinic,23.5242658,88.7974336,not found,not found,"['hospital', 'health', 'point_of_interest', 'establishment']","R749, Darshana",ChIJ4YVEfdfS_jkRlk4eMQjrvGM,"GQFW+PX Darshana, Bangladesh",7MMCGQFW+PX
মা ও শিশু হাসপাতাল,23.527629,88.7951034,3.8,4,"['hospital', 'health', 'point_of_interest', 'establishment']","Girl's School Road, Darshana",ChIJbww2AZjT_jkRtsxwp1QGpIY,"GQHW+32 Darshana, Bangladesh",7MMCGQHW+32
carew's hospital,23.531756,88.8018217,4.3,3,"['hospital', 'health', 'point_of_interest', 'establishment']",Darshana,ChIJ7wxjWtvS_jkRTRUkawjrOMc,"GRJ2+PP Darshana, Bangladesh",7MMCGRJ2+PP
GEDE HOSPITAL,23.4924859,88.7851665,4,5,"['hospital', 'health', 'point_of_interest', 'establishment']","Gede,NADIA",ChIJaWyVE38t-TkR2omKyl1skzg,"FQRP+X3 Gede, Bangladesh",7MMCFQRP+X3
Nastipur Community Clinic,23.4931925,88.7629134,not found,not found,"['hospital', 'health', 'point_of_interest', 'establishment']","Damurhuda Upazila, Nastipur nasim road",ChIJR58nwdot-TkRPgFw-QcWVSY,"FQV7+75 Darshana, Bangladesh",7MMCFQV7+75
Maternity and child care centre,23.6424343,88.8510447,not found,not found,"['hospital', 'health', 'point_of_interest', 'establishment']",Chuadanga,ChIJU6oAZRbM_jkRI3E_Oi6dKrU,"JVR2+XC Chuadanga, Bangladesh",7MMCJVR2+XC
Core Group Directorate (animal hospital),23.6405179,88.850416,4,1,"['hospital', 'health', 'point_of_interest', 'establishment']",Chuadanga,ChIJ5-IZBxbM_jkRuxJHizcDcdc,"JVR2+65 Chuadanga, Bangladesh",7MMCJVR2+65
Chuadanga Diabetic Hospital,23.6397613,88.8468703,not found,not found,"['hospital', 'health', 'point_of_interest', 'establishment']","35 Hospital Road, Chuadanga",ChIJV0LpBfjN_jkR0tFHbHgqyYk,"JRQW+WP Chuadanga, Bangladesh",7MMCJRQW+WP
"Bagherpara Upazila Health Complex, Jessore",23.2187002,89.3445087,4.9,7,"['hospital', 'health', 'point_of_interest', 'establishment']",Bagherpara,ChIJl_AuDUEG_zkRSIXmO55CAIU,"689V+FR Bagherpara, Bangladesh",7MMF689V+FR
Bagharpara Hospital,23.2190549,89.3446666,4.3,10,"['hospital', 'health', 'point_of_interest', 'establishment']","Bagharpara - Jessore Road, Bagherpara",ChIJKXWUWkEG_zkRVN8xzkWMnWs,"689V+JV Bagherpara, Bangladesh",7MMF689V+JV
আব্দুল্লাহ্ মেডিকেল এন্ড ডেন্টাল কেয়ার,23.187706,89.34971,not found,not found,"['hospital', 'health', 'point_of_interest', 'establishment']",Bagherpara Upazila,ChIJmeeDn-oJ_zkR1OIATXOu0fg,"58QX+3V Charavita, Bangladesh",7MMF58QX+3V
Khalahi hospital,23.2058731,89.3940434,not found,not found,"['hospital', 'health', 'point_of_interest', 'establishment']",Khalshi,ChIJx5jvxT0H_zkRJob8AiHYwvg,"694V+8J Khalshi, Bangladesh",7MMF694V+8J
কেনায়েত আলী মেডিকেল সেন্টার,23.255576,89.3185975,not found,not found,"['hospital', 'health', 'point_of_interest', 'establishment']",Dhupkhali - Khajura Road,ChIJY3tO0p8F_zkRJqP3Sn2tYeQ,"7849+6C Raipur, Bangladesh",7MMF7849+6C
Jamdia Health Centre,23.1724038,89.3751378,not found,not found,"['hospital', 'health', 'point_of_interest', 'establishment']",Unnamed Road,ChIJ9UzkUvUJ_zkReBrrc2L911U,"59CG+X3 Teghori, Bangladesh",7MMF59CG+X3
Vitabolla Health Complex,23.1655431,89.3744339,1,1,"['hospital', 'health', 'point_of_interest', 'establishment']","Jamdia - Bashundia Road, Jamdia",ChIJBVVErT0J_zkRs6iuZc54m-o,"598F+6Q Teghori, Bangladesh",7MMF598F+6Q
"ক্লিনিক সেন্টার, উত্তর বলরামপুর",23.2839307,89.3669115,1,1,"['hospital', 'health', 'point_of_interest', 'establishment']","উত্তর বলরামপুর, Shershah Road",ChIJy4YBpIMH_zkRRtkKxLxNUxk,"79M8+HQ Narikelbaria, Bangladesh",7MMF79M8+HQ
Azampur community clinic,23.2729533,89.2939179,not found,not found,"['hospital', 'health', 'point_of_interest', 'establishment']",Unnamed Road,ChIJzaIzQk0F_zkRvtERDKJeKcc,"77FV+5H Raipur, Bangladesh",7MMF77FV+5H
Ghuni Islamic Mission Hospital,23.141299,89.3314747,not found,not found,"['hospital', 'health', 'point_of_interest', 'establishment']","যশোর সদর উপজেলা, Islamic Mission Road",ChIJ601NefAJ_zkRHKy6sgL9gNM,"48RJ+GH Ghuni, Bangladesh",7MMF48RJ+GH
Charbharason Digital Hospital & Lab,23.1767465,89.4294163,not found,not found,"['hospital', 'health', 'point_of_interest', 'establishment']","চরভদ্রাসন উপজেলা, Biswas Bari High School Road",ChIJS5QZgxen_zkR_VVsfDNxnSM,"5CGH+MQ Chanchra, Bangladesh",7MMF5CGH+MQ
উপজেলা স্বাস্থ্য কমপ্লেক্স,23.3030069,89.375516,not found,not found,"['hospital', 'health', 'point_of_interest', 'establishment']",Shalikha Upazila,ChIJo8NysMYA_zkRRx0HDQ5sJNA,"893G+66 Shalikha, Bangladesh",7MMF893G+66
Shalikha Upazila Health Complex,23.3032179,89.3755435,4.6,7,"['hospital', 'health', 'point_of_interest', 'establishment']",Shalikha,ChIJvcC6scYA_zkRgOVF4bNwIdY,"893G+76 Shalikha, Bangladesh",7MMF893G+76
বাকসাডাঙ্গা কমিউনিটি ক্লিনিক,23.1998701,89.4521608,not found,not found,"['hospital', 'health', 'point_of_interest', 'establishment']",Tularampur - Maijpara Road,ChIJDwRtp5mo_zkR9g2vgWCdQ3w,"5FX2+WV Chanchra, Bangladesh",7MMF5FX2+WV
Bakasadanga Community Clinic,23.1883946,89.4509327,3,2,"['hospital', 'health', 'point_of_interest', 'establishment']",Tularampur - Maijpara Road,ChIJWyxy0SCm_zkRorlVma9CA0w,"5FQ2+99 Chanchra, Bangladesh",7MMF5FQ2+99
"T. B. Hospital, Jashore",23.147489,89.234177,5,3,"['hospital', 'health', 'point_of_interest', 'establishment']","Jessore - Jenaidah Highway, Jashore",ChIJo3NJxTMQ_zkRwG1o9zE41HI,"46WM+XM Jashore, Bangladesh",7MMF46WM+XM
Fatima Hospital,23.1690215,89.2048645,4.5,51,"['hospital', 'health', 'point_of_interest', 'establishment']","Gorib Shah Road, Jashore",ChIJh_vwcIsQ_zkRelv4T-wzbqU,"5693+JW Jashore, Bangladesh",7MMF5693+JW
Genesis Hospital,23.1694112,89.204894,4.6,22,"['hospital', 'health', 'point_of_interest', 'establishment']","Gorib Shah Road, Jashore",ChIJzwuRnosQ_zkRI3S5avm5FX4,"5693+QX Jashore, Bangladesh",7MMF5693+QX
নওদাগ্রাম কমিউনিটি ক্লিনিক,23.1634014,89.2181664,not found,not found,"['hospital', 'health', 'point_of_interest', 'establishment']","নওদাগ্রাম, সাতমাইল",ChIJ0fv9yWER_zkR-cwwkCTi_vM,"5679+97 Jashore, Bangladesh",7MMF5679+97
Lions Eye Hospital,23.167,89.217,3,3,"['hospital', 'health', 'point_of_interest', 'establishment']","23°10'01. 89°13'01., 02 Road No. 2, Dhaka",ChIJDa8sk2cQ_zkRhlS7yuZMZNU,"5688+RQ Jashore, Bangladesh",7MMF5688+RQ
Ad-din Sakina Medical College and Hospital,23.1634644,89.2128027,4.6,50,"['hospital', 'health', 'point_of_interest', 'establishment']",Jashore,ChIJMbekZF4Q_zkRaUALfiwagFc,"5677+94 Jashore, Bangladesh",7MMF5677+94
sakhina medical college & Hospital,23.1634276,89.2127797,not found,not found,"['hospital', 'health', 'point_of_interest', 'establishment']","Rail Road, Jashore",ChIJ692gZF4Q_zkR2f7W-J-Hk7Q,"5677+94 Jashore, Bangladesh",7MMF5677+94
শুভ্র ডেন্টাল কেয়ার,23.1655859,89.211455,3.7,3,"['hospital', 'health', 'point_of_interest', 'establishment']","31 M K Road, Jashore",ChIJFXW5p2sR_zkRwop2v6285Lk,"5686+6H Jashore, Bangladesh",7MMF5686+6H
Bondhon Hospital,23.1684267,89.2133161,5,1,"['hospital', 'health', 'point_of_interest', 'establishment']","96 Jail Road, Ghope Noapara Road, যশোর",ChIJwxXw5GsR_zkRXBPpFDVWZYg,"5697+98 Jashore, Bangladesh",7MMF5697+98
Nova Hospital,23.1626415,89.2108958,4.2,24,"['hospital', 'health', 'point_of_interest', 'establishment']","Kashoblal Road, Jashore",ChIJ-Xi1AV8Q_zkR_UelKwlW6I0,"5676+39 Jashore, Bangladesh",7MMF5676+39
Uttara Hospital,23.1689624,89.2132679,5,3,"['hospital', 'health', 'point_of_interest', 'establishment']","Jail Road, Jashore",ChIJMV6D1WAQ_zkRMOZgK5lvXck,"5697+H8 Jashore, Bangladesh",7MMF5697+H8
United Eye & General Hospital,23.1687445,89.2127381,4.4,9,"['hospital', 'health', 'point_of_interest', 'establishment']",Jashore,ChIJKZpV2WAQ_zkRXOoFoPNH6a0,"5697+F3 Jashore, Bangladesh",7MMF5697+F3
ইউনাইটেড আই হাসপাতাল,23.1687691,89.2127016,not found,not found,"['hospital', 'health', 'point_of_interest', 'establishment']","N702, Jashore",ChIJw8uXOy4R_zkR9OqdEJTCbkA,"5697+G3 Jashore, Bangladesh",7MMF5697+G3
Dr. Anisuzzaman Hospital,23.2572387,89.0326164,5,5,"['hospital', 'health', 'point_of_interest', 'establishment']","Churamonkathi - Chaugachha Road, Chowgacha",ChIJnbbpfZQj_zkRxbybLEH2jCA,"724M+V2 Chowgacha, Bangladesh",7MMF724M+V2
Chaugachha Islami Hospital,23.2653132,89.0201186,3,1,"['hospital', 'health', 'point_of_interest', 'establishment']","Chaugacha, Road",ChIJj7xPsOoj_zkRrh2--3Ya5oU,"728C+42 Chowgacha, Bangladesh",7MMF728C+42
Modhumoti(pvt.)Hospital,23.2632036,89.020323,not found,not found,"['hospital', 'health', 'point_of_interest', 'establishment']",Chowgacha,ChIJRa5gItkj_zkRwh1vY1BvTqA,"727C+74 Chowgacha, Bangladesh",7MMF727C+74
কপোতাক্ষী ক্লিনিক,23.2618228,89.0226087,5,1,"['hospital', 'health', 'point_of_interest', 'establishment']","Churamonkathi - Chaugachha Road, Chowgacha",ChIJ0X29n_Qj_zkR-mYMEgFTrfs,"726F+P2 Chowgacha, Bangladesh",7MMF726F+P2
Crecent Dental Care,23.260505,89.0239171,5,1,"['hospital', 'health', 'point_of_interest', 'establishment']",Chaugachha Upazila,ChIJVSLzNfMj_zkRtRef-zEGxYY,"726F+6H Chowgacha, Bangladesh",7MMF726F+6H
Modhumoti(pvt) Hospital,23.2606092,89.0240645,not found,not found,"['hospital', 'health', 'point_of_interest', 'establishment']",Chowgacha,ChIJOU7g0cgj_zkR0cYMh0m-AxM,"726F+6J Chowgacha, Bangladesh",7MMF726F+6J
মধুমতি (প্রাঃ) হাসপাতাল এন্ড ডায়াগনস্টিক সেন্টার,23.2604179,89.0239277,5,2,"['hospital', 'health', 'point_of_interest', 'establishment']",Shadhinota Shorok,ChIJbyY9r3gj_zkR7CKSbOKO58o,"726F+5H Chowgacha, Bangladesh",7MMF726F+5H
Modhumoti(pvt.)Hospital,23.2599806,89.0238438,not found,not found,"['hospital', 'health', 'point_of_interest', 'establishment']",Shadhinota Shorok,ChIJTZTD5xYj_zkR0FfGPP49vec,"725F+XG Chowgacha, Bangladesh",7MMF725F+XG
Modhumoti (pvt)Hospital,23.2599746,89.0238771,not found,not found,"['hospital', 'health', 'point_of_interest', 'establishment']",Chaugachha Upazila,ChIJH0V0OUMj_zkREqtpKErj8kc,"725F+XH Chowgacha, Bangladesh",7MMF725F+XH
"Chowgacha Upazila Health Complex, Jessore",23.2594433,89.0249117,4.7,28,"['hospital', 'health', 'point_of_interest', 'establishment']",Chaugachha,ChIJWZz3z4wj_zkRAchYclI9058,"725F+QX Chowgacha, Bangladesh",7MMF725F+QX
Chowgacha Primary Health Care Center,23.2572797,89.0326588,5,1,"['hospital', 'health', 'point_of_interest', 'establishment']","Koyerpara, Chowgacha, Jessore",ChIJ5faNfZQj_zkRb-jfOyQLLto,"724M+W3 Chowgacha, Bangladesh",7MMF724M+W3
পাতিবিলা স্বাস্থ্য ও পরিবার কল্যাণ কেন্দ্র,23.2913611,89.0297858,not found,not found,"['hospital', 'health', 'point_of_interest', 'establishment']",Chaugachha Upazila,ChIJKVgQmF8h_zkRSuuAizyurwk,"72RH+GW Patibila, Bangladesh",7MMF72RH+GW
Bergobindpur Community Clinic-বেড়গোবিন্দপুর কমিউনিটি ক্লিনিক,23.2320492,89.0134758,5,1,"['hospital', 'health', 'point_of_interest', 'establishment']",Chaugachha Upazila,ChIJJZQ2jd8l_zkRctkhnAWye-E,"62J7+R9 Chowgacha, Bangladesh",7MMF62J7+R9
Rostompur Community Clinic,23.2768481,89.0521248,5,1,"['hospital', 'health', 'point_of_interest', 'establishment']",Chaugachha Upazila,ChIJw7RHGqAj_zkRkOl4mw9bcj0,"73G2+PR Patibila, Bangladesh",7MMF73G2+PR
MOHUA SURGICAL CLINIC,23.1129661,89.3548526,2,1,"['hospital', 'health', 'point_of_interest', 'establishment']",Basundia,ChIJ9Sn761kJ_zkRfeVok7VNgZQ,"4973+5W Basundia, Bangladesh",7MMF4973+5W
Tapanbagh health complex,23.1011303,89.393742,5,1,"['hospital', 'health', 'point_of_interest', 'establishment']","শেখহাটী, সদর উপজেলা",ChIJWyNraRgJ_zkRk2gjza5Fei4,"492V+FF Egarokhan, Bangladesh",7MMF492V+FF
Magura Community Clinic (মাগুরা কমিউনিটি ক্লিনিক),23.0809155,89.3249595,5,1,"['hospital', 'health', 'point_of_interest', 'establishment']",Unnamed Road,ChIJoTBLEgML_zkR-HKnGPHBqyY,"38JF+9X Noapara Paurasava, Bangladesh",7MMF38JF+9X
আশা রুপদিয়া হেলথ কমপ্লেক্স,23.127329,89.285561,not found,not found,"['hospital', 'health', 'point_of_interest', 'establishment']","Rupdia Bottola (রুপদিয়া, Jessore - Khulna Highway, চাউলিয়া",ChIJjcoYGvUP_zkRgQzqqwX19xI,"47GP+W6 Rupdia, Bangladesh",7MMF47GP+W6
"আশা সমন্বিত স্বাস্থ্য কেন্দ্র, রূপদিয়া, যশোর, সদর",23.1268648,89.2853821,5,1,"['hospital', 'health', 'point_of_interest', 'establishment']","Rupdia Bottola (রুপদিয়া, Jessore - Khulna Highway, চাউলিয়া",ChIJS7Eq6pYP_zkRLaBeheQJZwo,"47GP+P5 Chaulia, Bangladesh",7MMF47GP+P5
"আড়পাড়া কমিউনিটি ক্লিনিক, Arpara Community Clinic",23.0584317,89.3362709,not found,not found,"['hospital', 'health', 'point_of_interest', 'establishment']","Sundali, Arpara Bazar",ChIJTXjPTFkL_zkRXvaukRy0C_0,"385P+9G Noapara Paurasava, Bangladesh",7MMF385P+9G
আড়পাড়া কমিউনিটি ক্লিনিক,23.0584088,89.3360996,not found,not found,"['hospital', 'health', 'point_of_interest', 'establishment']","Abhoynagar, Jashore, আড়পাড়া, সুন্দলী, অভয়নগর, যশোর।, Sundali",ChIJV5_-qT4L_zkRiHC4xcroXQY,"385P+9C Noapara Paurasava, Bangladesh",7MMF385P+9C
Alimon Nessa Diabetics Hospital.,23.1071087,89.1077793,4.4,7,"['hospital', 'health', 'point_of_interest', 'establishment']","Jessore - Benapole Highway, Jhikargacha",ChIJcUH0jBEW_zkR5elQf4yoOEU,"4445+R4 Jhikargacha, Bangladesh",7MMF4445+R4
সূর্র্যের হাসি ক্লিনিক,23.1480192,89.201551,4.5,6,"['hospital', 'health', 'point_of_interest', 'establishment']",Jashore,ChIJ-f3gf_wQ_zkRPuVoZR0QMHA,"46X2+6J Jashore, Bangladesh",7MMF46X2+6J
চক্ষু হাসপাতাল,23.1499102,89.203342,4.8,9,"['hospital', 'health', 'point_of_interest', 'establishment']",Jashore,ChIJxdCz3PsQ_zkRKc2zjc1_G0M,"46X3+X8 Jashore, Bangladesh",7MMF46X3+X8
Veterinary And Pet Clinic,23.1534712,89.201404,5,1,"['hospital', 'health', 'point_of_interest', 'establishment']",Jessore Sadar Upazila,ChIJMU6Z5-8R_zkRLl_PyEDMcdc,"5632+9H Jashore, Bangladesh",7MMF5632+9H
Veterinary Hospital,23.149098,89.209231,4.4,7,"['hospital', 'health', 'point_of_interest', 'establishment']",Jashore,ChIJ4b5kGlYQ_zkRm31o2neXxWY,"46X5+JM Jashore, Bangladesh",7MMF46X5+JM
Unique Dental & Smile Zone,23.1565584,89.2053634,5,8,"['hospital', 'health', 'point_of_interest', 'establishment']","Railgate, Mujibsarak Jessore - Benapole Highway, Jashore",ChIJCxZvGfcQ_zkRfJBPt9g_uVk,"5644+J4 Jashore, Bangladesh",7MMF5644+J4
Pongu Hospital Jessore,23.1568099,89.205294,4.3,16,"['hospital', 'health', 'point_of_interest', 'establishment']","মুজিব সড়ক, Jashore",ChIJAfURHvcQ_zkR_IFwelyUiN0,"5644+P4 Jashore, Bangladesh",7MMF5644+P4
JASHORE PONGU HOSPITAL,23.1569064,89.2053654,4.7,19,"['hospital', 'health', 'point_of_interest', 'establishment']","Mujib Sorok, Jashore",ChIJ8wt0MVkQ_zkRFtt3onXuZBQ,"5644+Q4 Jashore, Bangladesh",7MMF5644+Q4
জিডিএল হসপিটাল- নিউট্রিশন পয়েন্ট,23.1452024,89.2128903,not found,not found,"['hospital', 'health', 'point_of_interest', 'establishment']","মেডিকেল কলেজ মোড়, Jashore",ChIJtSdJ8RwR_zkRo1CGCKaSaWQ,"46W7+35 Jashore, Bangladesh",7MMF46W7+35
"JDL hospital, medical college more",23.1451945,89.2129418,5,2,"['hospital', 'health', 'point_of_interest', 'establishment']",Jashore,ChIJccqTh1QQ_zkR6747hiiZpSE,"46W7+35 Jashore, Bangladesh",7MMF46W7+35
রাণীয়ালী কমিউনিটি ক্লিনিক,23.1988973,89.1042763,5,1,"['hospital', 'health', 'point_of_interest', 'establishment']",Chaugachha Upazila,ChIJr7qOD2IZ_zkR60eHEvX4zNs,"54X3+HP Raniali, Bangladesh",7MMF54X3+HP
স্বাস্থ্য ও পরিবার কল্যান কেন্দ্র,23.2185957,89.1639354,5,1,"['hospital', 'health', 'point_of_interest', 'establishment']",Churamonkati,ChIJS5cnMIwZ_zkR05knmmZlelo,"6597+CH Churamonkati, Bangladesh",7MMF6597+CH
পশু হাসপাতাল,23.1852258,89.147406,not found,not found,"['hospital', 'health', 'point_of_interest', 'establishment']","আশ্রম রোড, Jashore",ChIJs_y6B7AX_zkREmCkAXoTqKI,"54PW+3X Jashore, Bangladesh",7MMF54PW+3X
UHC,23.1777682,89.1801225,not found,not found,"['hospital', 'health', 'point_of_interest', 'establishment']",Jashore,ChIJCT3ONoYR_zkRx-_vsoOAiA0,"55HJ+42 Jashore, Bangladesh",7MMF55HJ+42
Hasina Clinic,23.1806104,89.1934376,4,4,"['hospital', 'health', 'point_of_interest', 'establishment']",Jashore,ChIJO0iLnpkQ_zkRF6dbGyE0cq0,"55JV+69 Jashore, Bangladesh",7MMF55JV+69
যশোর কমিউনিটি আই হসপিটাল,23.1705766,89.1937253,not found,not found,"['hospital', 'health', 'point_of_interest', 'establishment']",Jessore Sadar Upazila,ChIJ5dOj3dQR_zkRwfPiLmyw7Nc,"55CV+6F Jashore, Bangladesh",7MMF55CV+6F
Combined Military Hospital,23.1886239,89.1690731,4.6,33,"['hospital', 'health', 'point_of_interest', 'establishment']","Cantonment Road, Jashore",ChIJu_DFblUX_zkREM4xd4KX6gA,"55Q9+CJ Jashore, Bangladesh",7MMF55Q9+CJ
"Police Hospital, Jessore",23.1742605,89.1959163,4.5,2,"['hospital', 'health', 'point_of_interest', 'establishment']",Jashore,ChIJIaIlGpEQ_zkRTHesRR4FgUo,"55FW+P9 Jashore, Bangladesh",7MMF55FW+P9
"Ad-din Sakhina Medical Hospital, Child Unit",23.1673534,89.1944411,4.7,6,"['hospital', 'health', 'point_of_interest', 'establishment']","Paridarshon Banglo Rd, যশোর",ChIJFRvuX5MQ_zkRbZ5kVz1W2iA,"558V+WQ Jashore, Bangladesh",7MMF558V+WQ
Genesis Hospital,23.1714896,89.1970927,4.5,4,"['hospital', 'health', 'point_of_interest', 'establishment']","Airport Road, Jashore",ChIJY-ioLpIQ_zkRPpPrkSbgDQI,"55CW+HR Jashore, Bangladesh",7MMF55CW+HR
Ad-din Shishu Hospital,23.1672782,89.1944656,4.7,9,"['hospital', 'health', 'point_of_interest', 'establishment']","ডিসির বাংলো সড়ক, Jashore",ChIJV9CZX5MQ_zkR3mjZr9lWPbw,"558V+WQ Jashore, Bangladesh",7MMF558V+WQ
Ad-din eye hospital jessore,23.1672492,89.1945659,4.5,11,"['hospital', 'health', 'point_of_interest', 'establishment']","7400, যশোর",ChIJrXRgXpMQ_zkRffm_Eg7RazU,"558V+VR Jashore, Bangladesh",7MMF558V+VR
এলোপ্যাথিক মেডিকেল চেম্বার,23.1666444,89.201205,not found,not found,"['hospital', 'health', 'point_of_interest', 'establishment']","Burhan Shah Road, Jashore",ChIJT5D2pnAR_zkRotPXT7Hoqt4,"5682+MF Jashore, Bangladesh",7MMF5682+MF
Ahad diabetic and health complex,23.1596225,89.236416,4.4,8,"['hospital', 'health', 'point_of_interest', 'establishment']",Baliadanga,ChIJQ-UJWzsQ_zkRG4FUsQU2cSg,"565P+RH Baliadanga, Bangladesh",7MMF565P+RH
Kapotakkho Lions Eye & Diabetic Hospital.,23.1543167,89.2272824,4.7,12,"['hospital', 'health', 'point_of_interest', 'establishment']","খুলনা রোড যশোর, Jashore",ChIJL0py-nwR_zkRkqwO41hh4I4,"563G+PW Jashore, Bangladesh",7MMF563G+PW
Janata Hospital,23.1691399,89.2131257,4.3,8,"['hospital', 'health', 'point_of_interest', 'establishment']",Jashore,ChIJJYWIKWEQ_zkR4yPLY6TbfFs,"5697+M7 Jashore, Bangladesh",7MMF5697+M7
"Tb Diagnostic center, ghop, jashore.",23.1721828,89.2140896,5,1,"['hospital', 'health', 'point_of_interest', 'establishment']","Opojit of Queens Hospital, জেল রোড, যশোর",ChIJ0wUYGbQR_zkR2qNhBZiu4qk,"56C7+VJ Jashore, Bangladesh",7MMF56C7+VJ
New Market Asthma Hospital,23.1801715,89.2088855,3.7,3,"['hospital', 'health', 'point_of_interest', 'establishment']","B - Block, Jashore",ChIJd_rsU1wR_zkRIV_gB9k-Olo,"56J5+3H Jashore, Bangladesh",7MMF56J5+3H
Chield Hospital,23.1775113,89.214735,4,2,"['hospital', 'health', 'point_of_interest', 'establishment']","Jessore - Magura Highway, Jashore",ChIJb4KQyWQQ_zkR3KxTCtXtgjI,"56H7+2V Jashore, Bangladesh",7MMF56H7+2V
Children's Hospital in Jessore,23.1773268,89.214948,5,1,"['hospital', 'health', 'point_of_interest', 'establishment']",Jashore,ChIJYQExz2QQ_zkRSfAAkp6CTdY,"56G7+WX Jashore, Bangladesh",7MMF56G7+WX
Children Hospital,23.1772826,89.2149221,4.8,8,"['hospital', 'health', 'point_of_interest', 'establishment']",Jashore,ChIJxz2NyGQQ_zkRmLhmnV_ziro,"56G7+WX Jashore, Bangladesh",7MMF56G7+WX
"Shishu Hospital, Jessore",23.1772278,89.2149939,4.9,9,"['hospital', 'health', 'point_of_interest', 'establishment']","Dhaka - Khulna Highway, Jashore",ChIJQfFdz2QQ_zkRbmEV7VsOtRo,"56G7+VX Jashore, Bangladesh",7MMF56G7+VX
City Hospital Pvt Ltd,23.1721206,89.2104691,4.3,7,"['hospital', 'health', 'point_of_interest', 'establishment']","Central Road, Jashore",ChIJDft4KGIQ_zkR7YCOOjI_dJs,"56C6+R5 Jashore, Bangladesh",7MMF56C6+R5
Elora Dental Care,23.1726661,89.2139933,4,2,"['hospital', 'health', 'point_of_interest', 'establishment']","Jail Road, Jashore",ChIJwWZPBWQQ_zkRTWrr1bbNEmg,"56F7+3H Jashore, Bangladesh",7MMF56F7+3H
Adhunik hospital,23.1707267,89.2101324,not found,not found,"['hospital', 'health', 'point_of_interest', 'establishment']","Ghop Central Road, Jashore",ChIJ_a-pVSER_zkRJoyhbLN-dB4,"56C6+73 Jashore, Bangladesh",7MMF56C6+73
Ppopular diagnostice centre,23.1697161,89.2074649,not found,not found,"['hospital', 'health', 'point_of_interest', 'establishment']","254 Nowapara Road, Jashore",ChIJn41L8qMR_zkRtIrravjYgDI,"5694+VX Jashore, Bangladesh",7MMF5694+VX
Marie Stopes Clinic Jessore.,23.1436363,89.2357454,5,1,"['hospital', 'health', 'point_of_interest', 'establishment']",Jashore,ChIJ4-KDwTIQ_zkRIME4yXvmLI8,"46VP+F7 Jashore, Bangladesh",7MMF46VP+F7
Kazipur Government Hospital,23.134592,89.2330066,5,2,"['hospital', 'health', 'point_of_interest', 'establishment']",Jessore Sadar Upazila,ChIJkQfarAUR_zkRMTZjTBHXnJ0,"46MM+R6 Jashore, Bangladesh",7MMF46MM+R6
Mallick Diagnostic Centre - BDLtd,23.1639467,89.2434829,not found,not found,"['hospital', 'health', 'point_of_interest', 'establishment']",Jessore - Narail Road,ChIJaXbeRP0R_zkRX2_qTkREfJg,"567V+H9 Mandia, Bangladesh",7MMF567V+H9
মনজু মেডিকেল,23.0999276,89.0996616,not found,not found,"['hospital', 'health', 'point_of_interest', 'establishment']","Jhikorgacha-Trimohoni Bazar Road, Jhikargacha",ChIJgQg0d_MX_zkRhHAFMaVykRM,"33XX+XV Jhikargacha, Bangladesh",7MMF33XX+XV
রিফা মেডিকেল হল,23.0995143,89.0999194,not found,not found,"['hospital', 'health', 'point_of_interest', 'establishment']","Central Jam E Mosjid Road, ঝিকরগাছা",ChIJCSu-BucX_zkRouZ8Rcz9ibw,"33XX+RX Jhikargacha, Bangladesh",7MMF33XX+RX
SK CLINIC,23.10134,89.099868,5,2,"['hospital', 'health', 'point_of_interest', 'establishment']","NASIMA COMPLEX, WAPDA ROAD, ঝিকরগাছা",ChIJE1Dfl2wX_zkRtLpQH0eSVCg,"432X+GW Jhikargacha, Bangladesh",7MMF432X+GW
NASIMA COMPLEX,23.1017727,89.1008612,not found,not found,"['hospital', 'health', 'point_of_interest', 'establishment']","524 Wapda Road Jhikorgacha, যশোর",ChIJ3-YHRgQW_zkRMzsYPuEk3Ws,"4422+P8 Jhikargacha, Bangladesh",7MMF4422+P8
বায়তুল শেফা মেডিকেল,23.1019694,89.1019515,not found,not found,"['hospital', 'health', 'point_of_interest', 'establishment']","Jessore - Benapole Highway, Jhikargacha",ChIJmyTYNaIX_zkRwYYVv-bA6Yk,"4422+QQ Jhikargacha, Bangladesh",7MMF4422+QQ
Jhikargacha Animal Hospital,23.1009999,89.094946,not found,not found,"['hospital', 'health', 'point_of_interest', 'establishment']",Jhikargacha,ChIJHyNqFIAX_zkRxUb9p1sVMLg,"432V+9X Jhikargacha, Bangladesh",7MMF432V+9X
Bohilapara Posu Hospital,23.1012584,89.0944998,3.5,2,"['hospital', 'health', 'point_of_interest', 'establishment']",Jhikargacha,ChIJF2BoCwIW_zkR_7IOfz029mo,"432V+GQ Jhikargacha, Bangladesh",7MMF432V+GQ
ফেমাস মেডিকেল এন্ড ডায়াগনষ্টিক সেন্টার,23.1037909,89.103351,not found,not found,"['hospital', 'health', 'point_of_interest', 'establishment']","New Sonali Market, Jessore - Satkhira Highway, Jhikargacha",ChIJ3SWBpnUX_zkRUtMPyaqOMMg,"4433+G8 Jhikargacha, Bangladesh",7MMF4433+G8
fatema clinic,23.1029816,89.1056181,1,1,"['hospital', 'health', 'point_of_interest', 'establishment']","ঝিকরগাছা উপজেলা, college Road",ChIJV47GQvkX_zkRFXPQi6M7jcw,"4434+56 Jhikargacha, Bangladesh",7MMF4434+56
SALMA MEDICAL CENTRE,23.1054289,89.1057297,not found,not found,"['hospital', 'health', 'point_of_interest', 'establishment']","Jessore Road, ঝিকরগাছা",ChIJx6h0M3kX_zkRMRDFXiRB-kM,"4444+57 Jhikargacha, Bangladesh",7MMF4444+57
Family Planing Clinic,23.0974918,89.0895027,not found,not found,"['hospital', 'health', 'point_of_interest', 'establishment']",Jhikargacha,ChIJpwY5KPw9_zkRUZ7NP9k1_Dk,"33WQ+XR Hazarali, Bangladesh",7MMF33WQ+XR
Abid Diabeteic Hospital,23.106103,89.1069904,5,1,"['hospital', 'health', 'point_of_interest', 'establishment']",Jhikargacha,ChIJhTQpHhIX_zkR_IyeiY7y0uM,"4444+CQ Jhikargacha, Bangladesh",7MMF4444+CQ
"SAYERA CLINIC,",23.0932158,89.0916652,not found,not found,"['hospital', 'health', 'point_of_interest', 'establishment']","ঝিকরগাছা - বাঁকড়া রোড, Jhikargacha",ChIJJRuQ7pk__zkR6_HjLgUJfRI,"33VR+7M Kawria, Bangladesh",7MMF33VR+7M
Jhikorgachha eye hospital,23.106651,89.108027,5,1,"['hospital', 'health', 'point_of_interest', 'establishment']","Jessore Road, ঝিকরগাছা",ChIJa2PuGOwX_zkRN4BUjha-9r4,"4445+M6 Jhikargacha, Bangladesh",7MMF4445+M6
Jhikargacha Govt. Hospital,23.1044828,89.1096115,4.3,4,"['hospital', 'health', 'point_of_interest', 'establishment']",Jhikargacha,ChIJy5cS6g0W_zkRsvV5CiG-RMs,"4435+QR Jhikargacha, Bangladesh",7MMF4435+QR
Upuzilla Health Complex,23.104204,89.1097825,4.8,4,"['hospital', 'health', 'point_of_interest', 'establishment']",Jhikargacha,ChIJzeSNwA0W_zkRYCWhPIZix-c,"4435+MW Jhikargacha, Bangladesh",7MMF4435+MW
Ashru-Kunja Islamia Hospital Limited,22.8484943,89.2108904,5,1,"['hospital', 'health', 'point_of_interest', 'establishment']","Teghori,, কেশবপুর",ChIJtcA6oalv_zkRSRplXlyrc7Y,"R6X6+99 Bhandarkhola, Bangladesh",7MJFR6X6+99
টুম্পা মেডিকেল হল,22.9061076,89.2194661,not found,not found,"['hospital', 'health', 'point_of_interest', 'establishment']","Upazila Complex Road, Keshabpur",ChIJk7jhDGVt_zkRT4pJs358dLM,"W649+CQ Keshabpur, Bangladesh",7MJFW649+CQ
নিউ হাবিব মেডিকেল হল,22.9060483,89.2200592,not found,not found,"['hospital', 'health', 'point_of_interest', 'establishment']","A.R. Tower, Holding No. 582, Haji Moksed Ali Sarak, Ward No. 04, Thana, কেশবপুর",ChIJE-TL_-9t_zkRfEJ-qvtCu5Q,"W64C+C2 Keshabpur, Bangladesh",7MJFW64C+C2
Michael Clinic,22.9082457,89.217943,3.5,2,"['hospital', 'health', 'point_of_interest', 'establishment']","Keshabpur - Kalaroa Road, Keshabpur",ChIJZWUnYddt_zkRb1kylregfgQ,"W659+75 Keshabpur, Bangladesh",7MJFW659+75
keshobpur hospital,22.9024435,89.2205222,not found,not found,"['hospital', 'health', 'point_of_interest', 'establishment']",Keshabpur,ChIJ0UeQj3Vv_zkRH76VINx8DsI,"W62C+X6 Keshabpur, Bangladesh",7MJFW62C+X6
Mohakobi Michael Clinic and Diagnostic Centre,22.9082968,89.2177977,not found,not found,"['hospital', 'health', 'point_of_interest', 'establishment']",Keshabpur,ChIJlaQQZ9dt_zkRaj1US9fuaAI,"W659+84 Keshabpur, Bangladesh",7MJFW659+84
KESHABPUR SURGICAL CLINIC & DIAGNOSTIC CENTRE,22.9087309,89.2149994,not found,not found,"['hospital', 'health', 'point_of_interest', 'establishment']","কেশবপুর উপজেলা, Sohid Muktijuddha Dowlat Biswas Sarok",ChIJ9dkAbQxt_zkRDysqhlPisM4,"W657+FX Keshabpur, Bangladesh",7MJFW657+FX
Kapotakkha Surgical Clinic & Diagnostic Centre,22.9088881,89.2144537,not found,not found,"['hospital', 'health', 'point_of_interest', 'establishment']",Keshabpur,ChIJTbgYudZt_zkRAbCzTo4mOK8,"W657+HQ Keshabpur, Bangladesh",7MJFW657+HQ
Kopotakkho surgical clinic,22.9088525,89.2140126,not found,not found,"['hospital', 'health', 'point_of_interest', 'establishment']","Keshabpur - Kalaroa Road, Keshabpur",ChIJNRDBS61t_zkRYXSy2M7hWZ4,"W657+GJ Keshabpur, Bangladesh",7MJFW657+GJ
মর্ডাণ হাসপাতাল,22.9088507,89.2138774,not found,not found,"['hospital', 'health', 'point_of_interest', 'establishment']","Keshabpur Upazila, Jessore, Keshabpur - Kalaroa Road, কেশবপুর",ChIJ3WxipNZt_zkRmr8qfnIq2lU,"W657+GH Keshabpur, Bangladesh",7MJFW657+GH
Modern Hospital & Utsha Diagnostic Center,22.9089152,89.2138696,3.3,3,"['hospital', 'health', 'point_of_interest', 'establishment']","Keshabpur - Kalaroa Road, Keshabpur",ChIJxalZpNZt_zkRuv-h6kjMd3Y,"W657+HG Keshabpur, Bangladesh",7MJFW657+HG
Health Care Hospital Pvt. Ltd,22.9091277,89.2139813,3.7,6,"['hospital', 'health', 'point_of_interest', 'establishment']",Keshabpur-Razgong Road,ChIJEa5bpdZt_zkR0swu_HGNjxk,"W657+MH Keshabpur, Bangladesh",7MJFW657+MH
Keshabpur Upazila Health Complex,22.9092303,89.2133973,4.2,11,"['hospital', 'health', 'point_of_interest', 'establishment']",Keshabpur,ChIJLU2jAtRt_zkR6Qw1EzlF2GA,"W657+M9 Keshabpur, Bangladesh",7MJFW657+M9
Matrimongol clinic,22.8832426,89.2443425,not found,not found,"['hospital', 'health', 'point_of_interest', 'establishment']",Keshabpur Upazila,ChIJF_DfVx9v_zkREkdyJlOsEEM,"V6MV+7P Mangolkot, Bangladesh",7MJFV6MV+7P
Satbaria Community Clinic,22.9048633,89.1597216,5,1,"['hospital', 'health', 'point_of_interest', 'establishment']",Satbaria,ChIJXWjf0t9r_zkR7FHsui-GbwM,"W535+WV Satbaria, Bangladesh",7MJFW535+WV
দুর্বাডাংগা কমিউনিটি ক্লিনিক,22.9499976,89.2548782,not found,not found,"['hospital', 'health', 'point_of_interest', 'establishment']",Durbadanga,ChIJsznhfidz_zkRLxxvGsZwi4M,"W7X3+XX Aminpur, Bangladesh",7MJFW7X3+XX
পাঁজিয়া কমিউনিটি ক্লিনিক,22.900899,89.2793136,5,1,"['hospital', 'health', 'point_of_interest', 'establishment']",Unnamed Road,ChIJIbYgM29x_zkRA-zgODJtRa8,"W72H+9P Mangolkot, Bangladesh",7MJFW72H+9P
সরকারি পশু হাসপাতাল,23.0233253,89.2345348,3,1,"['hospital', 'health', 'point_of_interest', 'establishment']",Durgapur Road,ChIJST-roLET_zkRAX-TDaGAVTY,"26FM+8R Manirampur, Bangladesh",7MMF26FM+8R
হাবিব মেডিকেল,23.0219297,89.2335573,not found,not found,"['hospital', 'health', 'point_of_interest', 'establishment']","Daksinamatha Bus Stand, Jessore-Satkhira Road",ChIJoSL_hJET_zkRYldXsi3Jzbg,"26CM+QC Manirampur, Bangladesh",7MMF26CM+QC
দি প্যাথ ডায়াগনস্টিক সেন্টার,23.0231532,89.2277026,not found,not found,"['hospital', 'health', 'point_of_interest', 'establishment']",Manirampur Upazila,ChIJAQAAAMAS_zkR0dMetfagt6c,"26FH+73 Manirampur, Bangladesh",7MMF26FH+73
Seba Diagnostic Center,23.0208119,89.2331963,5,3,"['hospital', 'health', 'point_of_interest', 'establishment']",Manirampur,ChIJGxu4z70S_zkRb20yDVEfrik,"26CM+87 Manirampur, Bangladesh",7MMF26CM+87
The Path Diagnostic Centre,23.0147412,89.2341435,4,1,"['hospital', 'health', 'point_of_interest', 'establishment']","mohonpur Bottola., যশোর",ChIJe-27sbsS_zkRoMilWCOklpk,"267M+VM Manirampur, Bangladesh",7MMF267M+VM
মুন হসপিটাল এন্ড ডায়াগনস্টিক সেন্টার (Moon Hospital & Diagnostic Center),23.0097468,89.2347023,4,1,"['hospital', 'health', 'point_of_interest', 'establishment']",Jessore - Chuknagar Road.,ChIJicNxP6QT_zkR59FTE8Kbv1s,"265M+VV Manirampur, Bangladesh",7MMF265M+VV
Manirampur Upazila Health Complex,23.008817,89.2352525,5,9,"['hospital', 'health', 'point_of_interest', 'establishment']","R755, Manirampur",ChIJI-vvU7AS_zkRJuEFusQo0eg,"265P+G4 Manirampur, Bangladesh",7MMF265P+G4
Hospital,23.0341957,89.1966472,not found,not found,"['hospital', 'health', 'point_of_interest', 'establishment']",Sonadanga,ChIJCZA13usT_zkRxibP12OTmtQ,"25MW+MM Arazi Gayespur, Bangladesh",7MMF25MW+MM
Haridaskati Union Health Complex,23.030607,89.2737577,not found,not found,"['hospital', 'health', 'point_of_interest', 'establishment']",Dolkhola Road,ChIJXS_P4boN_zkRCZWBJ2w66RM,"27JF+6G Hogladanga, Bangladesh",7MMF27JF+6G
Union Health Complex,23.0305428,89.2739834,4,1,"['hospital', 'health', 'point_of_interest', 'establishment']",Noapara-Monirampur Road,ChIJ1SqOwBAN_zkR4t7L6RixmQ4,"27JF+6H Hogladanga, Bangladesh",7MMF27JF+6H
Hogladanga Health Complex,23.0305888,89.2740182,4.7,3,"['hospital', 'health', 'point_of_interest', 'establishment']",Noapara-Monirampur Road,ChIJAaVdwBAN_zkRaIKHzn8UTk4,"27JF+6J Hogladanga, Bangladesh",7MMF27JF+6J
সরকারি কমিউনিটি ক্লিনিক,22.9977454,89.2635163,4,1,"['hospital', 'health', 'point_of_interest', 'establishment']",Khanpur,ChIJ93JtvbRz_zkRK6EwLvSaiLI,"X7X7+3C Manirampur, Bangladesh",7MJFX7X7+3C
ইউনিয়ান স্বাস্থ্য কমপ্লেক্স,23.0690283,89.2126508,not found,not found,"['hospital', 'health', 'point_of_interest', 'establishment']",Kashimnagar,ChIJKwhRzdYT_zkRswd08R9MmoI,"3697+J3 Arazi Gayespur, Bangladesh",7MMF3697+J3
৭ নং ইউনিয়ন স্বাস্থ্য কমপ্লেক্স,23.0214007,89.1784799,not found,not found,"['hospital', 'health', 'point_of_interest', 'establishment']",Helanchi,ChIJN8lERvMT_zkRJPzuO5lz6oM,"25CH+H9 Jhanpa, Bangladesh",7MMF25CH+H9
Shyamkur Community Clinic,22.9704751,89.2146717,4,1,"['hospital', 'health', 'point_of_interest', 'establishment']",Ghosher Hat Road,ChIJhypgznVt_zkRB-2hI9EO630,"X6C7+5V Aminpur, Bangladesh",7MJFX6C7+5V
Community Clinic,22.9703825,89.2149305,5,1,"['hospital', 'health', 'point_of_interest', 'establishment']",Manirampur Upazila,ChIJbWB9fQVt_zkRFkH9ym2sTzs,"X6C7+5X Aminpur, Bangladesh",7MJFX6C7+5X
Chandipur Community Hospital,22.9866739,89.1832888,not found,not found,"['hospital', 'health', 'point_of_interest', 'establishment']",Monirampur - Rajgonj - Khordo Road,ChIJk78Pcbps_zkRSyY5a4DbRnw,"X5PM+M8 Ramnathpur, Bangladesh",7MJFX5PM+M8
RIJU HOSPITAL,23.0918202,89.2393037,3.5,2,"['hospital', 'health', 'point_of_interest', 'establishment']","KUADHA BAZAR, Jashore",ChIJG1Jl_gIS_zkRrfdlMYYIsI8,"36RQ+PP Kuadah, Bangladesh",7MMF36RQ+PP
Ramnathpur Community Hospital,22.976913,89.1849608,not found,not found,"['hospital', 'health', 'point_of_interest', 'establishment']",Ramnathpur,ChIJpaQSdb5s_zkRobdiPqSn3mk,"X5GM+QX Ramnathpur, Bangladesh",7MJFX5GM+QX
Dhopakhola Health Complex,22.9516012,89.4282275,not found,not found,"['hospital', 'health', 'point_of_interest', 'establishment']",Phultala Upazila,ChIJ7eyox1Ke_zkRymfI4gyg9gA,"XC2H+J7 Phultala, Bangladesh",7MJFXC2H+J7
Abhaynagar Upazila Health Complex,23.0221697,89.395584,4.8,11,"['hospital', 'health', 'point_of_interest', 'establishment']","Hospital Road, Noapara Paurasava",ChIJKc_luKEK_zkR7rHgB-YK-GQ,"29CW+V6 Noapara Paurasava, Bangladesh",7MMF29CW+V6
Sadar Hospital,23.0222562,89.3954774,4,1,"['hospital', 'health', 'point_of_interest', 'establishment']","Hospital Road, Noapara Paurasava",ChIJq38muKEK_zkRxb2eDGVaODc,"29CW+W5 Noapara Paurasava, Bangladesh",7MMF29CW+W5
Lifecare Diagnostic & consultation centre,23.0214528,89.3947711,not found,not found,"['hospital', 'health', 'point_of_interest', 'establishment']",Noapara Paurasava,ChIJ0UfJfd0L_zkROF0UmPveXAI,"29CV+HW Noapara Paurasava, Bangladesh",7MMF29CV+HW
Pulse Diagnostic Centre,23.023831,89.395861,5,2,"['hospital', 'health', 'point_of_interest', 'establishment']","Bhuikara, Noapara Paurasava",ChIJuUbY1HUL_zkRjYDu1sDCFo4,"29FW+G8 Noapara Paurasava, Bangladesh",7MMF29FW+G8
Fatema (pvt.)Hospital & Diagnostic Complx,23.0242196,89.395528,not found,not found,"['hospital', 'health', 'point_of_interest', 'establishment']",Hospital Road,ChIJMzHt_aUL_zkRyG_k36dJKLc,"29FW+M6 Noapara Paurasava, Bangladesh",7MMF29FW+M6
Pain care dental clinic,23.0261353,89.4014876,not found,not found,"['hospital', 'health', 'point_of_interest', 'establishment']","Noapara Bazar, Noapara Paurasava",ChIJkfLE2c2h_zkR1Fbg0Qd5zpc,"2CG2+FH Noapara Paurasava, Bangladesh",7MMF2CG2+FH
Arogya Sadan (PVT) Hospital,23.026458,89.395934,5,2,"['hospital', 'health', 'point_of_interest', 'establishment']","Unnamed Road, Noapara Paurasava",ChIJyagU8JcL_zkRQaURmJGXDA8,"29GW+H9 Noapara Paurasava, Bangladesh",7MMF29GW+H9
L.B. Hospital,23.02837,89.401125,4.7,3,"['hospital', 'health', 'point_of_interest', 'establishment']",Noapara Paurasava,ChIJ53r1NXSg_zkRDu3FsVnfaaU,"2CH2+8C Noapara Paurasava, Bangladesh",7MMF2CH2+8C
Al-Modina hospital & Diagnostic complex,23.0279229,89.395872,not found,not found,"['hospital', 'health', 'point_of_interest', 'establishment']","Hospital Road, Noapara Paurasava",ChIJQ9_KpHIL_zkRSeftffjFXlM,"29HW+58 Noapara Paurasava, Bangladesh",7MMF29HW+58
Sarjikal Clinic,23.0281944,89.3959243,5,3,"['hospital', 'health', 'point_of_interest', 'establishment']","Hospital Road, Noapara Paurasava",ChIJb-o2cp8K_zkRB_uIPliNQ-M,"29HW+79 Noapara Paurasava, Bangladesh",7MMF29HW+79
Doctors Clinic,23.0285702,89.3960577,4.9,7,"['hospital', 'health', 'point_of_interest', 'establishment']",Noapara Paurasava,ChIJ2RFOip4K_zkRm9qK6ooF2ZI,"29HW+CC Noapara Paurasava, Bangladesh",7MMF29HW+CC
Al Madina Clinic,23.0287085,89.3962555,4,2,"['hospital', 'health', 'point_of_interest', 'establishment']","Hospital Road, Noapara Paurasava",ChIJAXqJYZ4K_zkRW8JdglJxES4,"29HW+FG Noapara Paurasava, Bangladesh",7MMF29HW+FG
Momtaz Clinic,23.0287508,89.3960625,4.5,2,"['hospital', 'health', 'point_of_interest', 'establishment']","Hospital Road, Noapara Paurasava",ChIJc_iIiZ4K_zkRBriJcL0STGc,"29HW+GC Noapara Paurasava, Bangladesh",7MMF29HW+GC
Motaleb Dental,23.0303846,89.3987599,not found,not found,"['hospital', 'health', 'point_of_interest', 'establishment']","Jessore-Khulna-Dhaka Highway, Noapara Paurasava",ChIJK0IA906h_zkRtiUukKzaPLA,"29JX+5G Noapara Paurasava, Bangladesh",7MMF29JX+5G
রাজঘাট স্বাস্থ্য কমপ্লেক্সে,23.0094127,89.4114241,not found,not found,"['hospital', 'health', 'point_of_interest', 'establishment']","Unnamed Road, Noapara Paurasava",ChIJaXAg0jSh_zkRTHze0VShF1s,"2C56+QH Noapara Paurasava, Bangladesh",7MMF2C56+QH
Dr. Abdul Shamad Home & Hospital,23.0053394,89.3802776,5,1,"['hospital', 'health', 'point_of_interest', 'establishment']","Unnamed Road, Noapara Paurasava",ChIJ25LGw5EL_zkREt3vqT4un4o,"294J+44 Noapara Paurasava, Bangladesh",7MMF294J+44
Cota Community Clinic,22.9845932,89.3852162,not found,not found,"['hospital', 'health', 'point_of_interest', 'establishment']",Abhaynagar Upazila,ChIJnXlWfyZ1_zkRfhpXVGsVO6E,"X9MP+R3 Noapara Paurasava, Bangladesh",7MJFX9MP+R3
কোটা কমিউনিটি ক্লিনিক,22.9861451,89.3823265,not found,not found,"['hospital', 'health', 'point_of_interest', 'establishment']",Abhaynagar Upazila,ChIJ62AfqOt1_zkRJIK3o4wAWoE,"X9PJ+FW Noapara Paurasava, Bangladesh",7MJFX9PJ+FW
জো মেডিকেল,22.9654856,88.9803938,3.5,2,"['hospital', 'health', 'point_of_interest', 'establishment']",Bagachra,ChIJkxHPzQlH_zkR__kaRLbO7XQ,"XX8J+55 Bagachra, Bangladesh",7MJCXX8J+55
BULBUL DENTAL CARE,22.9543521,88.984223,not found,not found,"['hospital', 'health', 'point_of_interest', 'establishment']","Jessore - Satkhira Highway, Bagachra",ChIJGVTS_j9H_zkRCPnge6yxjJ0,"XX3M+PM Bagachra, Bangladesh",7MJCXX3M+PM
আমিনা মেডিকেল কেয়ার,22.9521126,88.9840791,not found,not found,"['hospital', 'health', 'point_of_interest', 'establishment']","Jessore - Satkhira Highway, Bagachra",ChIJGzHEOsFH_zkRg8a0DYjAH60,"XX2M+RJ Bagachra, Bangladesh",7MJCXX2M+RJ
Janaseba clinic & diagnostic center,22.9498342,88.9842761,not found,not found,"['hospital', 'health', 'point_of_interest', 'establishment']",Sharsha Upazila,ChIJcZxl0WNH_zkRuCkZMk-DzzM,"WXXM+WP Bagachra, Bangladesh",7MJCWXXM+WP
Al-Madina Hospital,22.9543283,88.9854519,3.3,4,"['hospital', 'health', 'point_of_interest', 'establishment']",Bagachra,ChIJeSrCxgNH_zkRVyP13zlOAyM,"XX3P+P5 Bagachra, Bangladesh",7MJCXX3P+P5
samta hospital,22.9941099,88.9875248,not found,not found,"['hospital', 'health', 'point_of_interest', 'establishment']",Sharsha Upazila,ChIJCY7A73xH_zkRNDAVCczqVJc,"XXVQ+J2 Shankarpur Union, Bangladesh",7MJCXXVQ+J2
সামটা সরকারি হাসপাতাল,22.9941481,88.9874899,4.3,3,"['hospital', 'health', 'point_of_interest', 'establishment']",Sharsha Upazila,ChIJEzbD73xH_zkRnONxR8bpft4,"XXVP+MX Shankarpur Union, Bangladesh",7MJCXXVP+MX
Store Store Hospital,22.9662064,89.0168257,not found,not found,"['hospital', 'health', 'point_of_interest', 'establishment']",Shankarpur Union,ChIJu8c5PTNH_zkRFnlxRsKI_ow,"X288+FP Shankarpur Union, Bangladesh",7MJFX288+FP
Ulakol Health Complex,22.9662666,89.0168192,3.5,2,"['hospital', 'health', 'point_of_interest', 'establishment']","ঝিকরগাছা উপজেলা, Ulakol Shankarpur Union",ChIJTWQTPTNH_zkRqQGIXMMoC4s,"X288+GP Shankarpur Union, Bangladesh",7MJFX288+GP
Balunda community clinic,22.9940379,88.9241811,not found,not found,"['hospital', 'health', 'point_of_interest', 'establishment']",Balanda,ChIJ1Rq2BAJJ_zkRNv3Pzj_NoRc,"XWVF+JM Balanda, Bangladesh",7MJCXWVF+JM
Mayer Hasi Hospital,22.9103225,88.9344455,not found,not found,"['hospital', 'health', 'point_of_interest', 'establishment']",Kalaroa Upazila,ChIJR0VGTGdJ_zkRyJsj4WmT8-8,"WW6M+4Q Goyra, Bangladesh",7MJCWW6M+4Q
Balunda community clinic,22.9950613,88.9235798,not found,not found,"['hospital', 'health', 'point_of_interest', 'establishment']",Balanda,ChIJ0yqrL3lJ_zkRhbCqiVSgC3o,"XWWF+2C Balanda, Bangladesh",7MJCXWWF+2C
আছিয়া মেমোরিয়াল হাসপাতাল Achia memorial Hospital,22.9092012,88.9325651,5,1,"['hospital', 'health', 'point_of_interest', 'establishment']",Kalaroa Upazila,ChIJZXCDKnJJ_zkRLTQXAQx91ZI,"WW5M+M2 Goyra, Bangladesh",7MJCWW5M+M2
Chandanpur Health Complex,22.9065808,88.9347808,not found,not found,"['hospital', 'health', 'point_of_interest', 'establishment']",Kalaroa Upazila,ChIJryCMLaxJ_zkRqg25Q599Sh4,"WW4M+JW Chandanpur, Bangladesh",7MJCWW4M+JW
Benapole modern diagnostic center,23.0446295,88.9031161,5,1,"['hospital', 'health', 'point_of_interest', 'establishment']",Benapole,ChIJ-7pBy6Q3_zkRzBpFY9io8eI,"2WV3+V6 Benapole, Bangladesh",7MMC2WV3+V6
রজনী ক্লিনিক,23.0459328,88.906383,not found,not found,"['hospital', 'health', 'point_of_interest', 'establishment']","Jessore - Benapole Highway, Benapole",ChIJr2QCchA3_zkRidLkYIbvKTM,"2WW4+9H Benapole, Bangladesh",7MMC2WW4+9H
Rojoni Clinic,23.0464093,88.9124595,not found,not found,"['hospital', 'health', 'point_of_interest', 'establishment']","Barasat - Petrapole Road, বেনাপোল",ChIJ2WIoUAw3_zkRZLycp19lYk4,"2WW6+HX Benapole, Bangladesh",7MMC2WW6+HX
"কমিউনিটি ক্লিনিক, পোড়াবাড়ী।",23.0585885,88.9098558,5,1,"['hospital', 'health', 'point_of_interest', 'establishment']",Sharsha Upazila,ChIJT5rb8UQ3_zkR8gyAUYSRcOc,"3W55+CW Benapole, Bangladesh",7MMC3W55+CW
Ghiba Community Clinic,23.0750683,88.8745768,not found,not found,"['hospital', 'health', 'point_of_interest', 'establishment']",Ghiba,ChIJXdqbars3_zkRll0plyP7aKQ,"3VGF+2R Ghiba, Bangladesh",7MMC3VGF+2R
জহুরপুর স্বাস্থসেবা কেন্দ্র,23.3191594,89.2396876,5,1,"['hospital', 'health', 'point_of_interest', 'establishment']",Jessore,ChIJ1ZVlS84c_zkRVQPl4C4Eqxw,"869Q+MV Khajura, Bangladesh",7MMF869Q+MV
জহুরপুর স্বাস্থ কমপ্লেক্স,23.3191471,89.2394623,not found,not found,"['hospital', 'health', 'point_of_interest', 'establishment']","জহুরপুর বাঘারপাড়া, Jessore",ChIJFzyEtM8c_zkRJ-mYBBxug8o,"869Q+MQ Khajura, Bangladesh",7MMF869Q+MQ
Rahima (Pvt). Hospital,23.2754342,89.2491417,5,1,"['hospital', 'health', 'point_of_interest', 'establishment']","Jessore - Magura Highway, Khajura",ChIJ41y_6k4F_zkReTr5IEmmcmQ,"76GX+5M Khajura, Bangladesh",7MMF76GX+5M
কিসমত হৈবতপুর ক্লিনিক,23.2852941,89.2060943,5,2,"['hospital', 'health', 'point_of_interest', 'establishment']",Jessore Sadar Upazila,ChIJC6j2fn8c_zkRCWqul5AjMyo,"76P4+4C Khajura, Bangladesh",7MMF76P4+4C
কমিউনিটি ক্লিনিক - Community Clinic,23.351224,89.315343,5,1,"['hospital', 'health', 'point_of_interest', 'establishment']",Unnamed Road,ChIJ6UZoCyED_zkRO_lFl-9JDhw,"9828+F4 Chhandra, Bangladesh",7MMF9828+F4
হাবিবুর মেডিকেল হাসপাল মাঠ,23.2902892,89.1596083,5,1,"['hospital', 'health', 'point_of_interest', 'establishment']",N7,ChIJK4uRMvkf_zkRWPb7tjNmuEA,"75R5+4R Murad Gar, Bangladesh",7MMF75R5+4R
Hospital Masjid,23.3031977,89.1526669,5,1,"['hospital', 'health', 'point_of_interest', 'establishment']",Barobazar Jessore - Jhenaidah Highway,ChIJO7miSgUf_zkRW4aMweyFE7c,"8533+73 Barobazar, Bangladesh",7MMF8533+73
বারবাজার উপ-স্বাস্থ্য কেন্দ্র,23.3046598,89.1503856,5,3,"['hospital', 'health', 'point_of_interest', 'establishment']",Kaliganj Upazila,ChIJdfEV9vMf_zkRyWJzvZiLtDg,"8532+V5 Barobazar, Bangladesh",7MMF8532+V5
Goribsah Hospital,23.3031763,89.1498876,4,1,"['hospital', 'health', 'point_of_interest', 'establishment']",Kaliganj Upazila,ChIJyTppMKQf_zkR_E7ugoecqgA,"843X+7X Barobazar, Bangladesh",7MMF843X+7X
খান ডেন্টাল কেয়ার,23.3885271,89.296528,not found,not found,"['hospital', 'health', 'point_of_interest', 'establishment']",Singde,ChIJC3yynLr9_jkRSoqgYTe8IkU,"97QW+CJ Singde, Bangladesh",7MMF97QW+CJ
সানবান্ধা কমিউনিটি ক্লিনিক,23.3562518,89.1515476,not found,not found,"['hospital', 'health', 'point_of_interest', 'establishment']",Kaliganj Upazila,ChIJZeUnXCwf_zkRImW4555ixfo,"9542+GJ Ektarpur, Bangladesh",7MMF9542+GJ
Dhalai Community Clinic,22.7868791,89.2509474,not found,not found,"['hospital', 'health', 'point_of_interest', 'establishment']","Paikgacha Road, Tala",ChIJA7ZC27V6_zkRymznj8tib90,"Q7P2+Q9 Bhaira, Bangladesh",7MJFQ7P2+Q9
নাথ ক্লিনিক এন্ড ফার্মেসি,22.8193692,89.1616521,not found,not found,"['hospital', 'health', 'point_of_interest', 'establishment']","Road, keshebpur Upazila, Komorpur",ChIJd1Mp8K9o_zkRQ0C8i4MxeMI,"R596+PM Sagardari, Bangladesh",7MJFR596+PM
দেবনাথ ক্লিনিক এন্ড ফার্মেসী,22.8201779,89.161689,5,1,"['hospital', 'health', 'point_of_interest', 'establishment']",Keshabpur Upazila,ChIJCfbJ4q9o_zkR4pJ9JqGtZVM,"R5C6+3M Sagardari, Bangladesh",7MJFR5C6+3M
Manikhar Comunity Clinic,22.8153062,89.1185956,4,1,"['hospital', 'health', 'point_of_interest', 'establishment']",Tala Upazila,ChIJx3wOkV5p_zkRZiwtG_Hx4QA,"R489+4C Sarsa, Bangladesh",7MJFR489+4C
Doctors clinic,22.7672839,89.1659844,5,1,"['hospital', 'health', 'point_of_interest', 'establishment']","Thana Road, Patkelghata",ChIJidOC1uxn_zkRF6lNwaCpqtQ,"Q588+W9 Patkelghata, Bangladesh",7MJFQ588+W9
Kumira Health Complex,22.7721232,89.1771948,2,1,"['hospital', 'health', 'point_of_interest', 'establishment']","Jessore-Satkhira Road, কুমিরা",ChIJPwQnhdBl_zkRk9EWqnyErAQ,"Q5CG+RV কুমিরা, Bangladesh",7MJFQ5CG+RV
স্বাগতা ক্লিনিক,22.763583,89.1659609,not found,not found,"['hospital', 'health', 'point_of_interest', 'establishment']","Unnamed Road, Patkelghata",ChIJrc6Yp09n_zkRwA8BCD1iC5s,"Q578+C9 Patkelghata, Bangladesh",7MJFQ578+C9
Bantra community clinic,22.8291291,89.0905857,not found,not found,"['hospital', 'health', 'point_of_interest', 'establishment']",Unnamed Road,ChIJR5S66IZD_zkRhR1u0rToJGM,"R3HR+M6 Kalaroa, Bangladesh",7MJFR3HR+M6
shatkhira unique diagnostic center,22.7886512,89.2167294,not found,not found,"['hospital', 'health', 'point_of_interest', 'establishment']",Khulna - Satkhira Road,ChIJr7WwPKxl_zkR9BliO5BncTs,"Q6Q8+FM Fatepur, Bangladesh",7MJFQ6Q8+FM
"Islamkati Primary Health Centre, Tala, Satkhira",22.7473311,89.1970321,4.7,3,"['hospital', 'health', 'point_of_interest', 'establishment']",Tala Upazila,ChIJtUVdl0Vk_zkRmNa6NI1P8tg,"P5WW+WR Islamkati, Bangladesh",7MJFP5WW+WR
আখড়াখোলা ক্লিনিক,22.7869249,89.0644215,not found,not found,"['hospital', 'health', 'point_of_interest', 'establishment']",Satkhira,ChIJgZbcHyNd_zkRuSa2RvB9Jio,"Q3P7+QQ Satiantola, Bangladesh",7MJFQ3P7+QQ
Goyalpota Community Clinic,22.71413,89.134824,5,1,"['hospital', 'health', 'point_of_interest', 'establishment']",Unnamed Road,ChIJ7YerWBFn_zkR9QVElVYLAY4,"P47M+MW Harinkhola, Bangladesh",7MJFP47M+MW
Pathorghata Hospital,22.8145481,89.040665,3,3,"['hospital', 'health', 'point_of_interest', 'establishment']",Jessore - Satkhira Highway,ChIJJ_F5vTZD_zkRVJNw2s4DFZ0,"R27R+R7 Jhaudanga, Bangladesh",7MJFR27R+R7
ইউনিয়ন স্বাস্থ ও পরিবার পরিকল্পনা কেন্দ্,22.8138386,89.0362669,not found,not found,"['hospital', 'health', 'point_of_interest', 'establishment']",Jhaudanga,ChIJv2WTF9FD_zkRVxvwCbtyrKc,"R27P+GG Jhaudanga, Bangladesh",7MJFR27P+GG
সুমন ক্লিনিক,23.6474026,89.0739982,5,1,"['hospital', 'health', 'point_of_interest', 'establishment']",Harinakunda Upazila,ChIJd3T3YQXD_jkR5TfRlymk6oc,"J3WF+XH Horinakunda, Bangladesh",7MMFJ3WF+XH
জনসেবা প্রাঃ হাসপাতাল,23.6485586,89.0447634,2.7,3,"['hospital', 'health', 'point_of_interest', 'establishment']","Aijoddin Super market, 1st Floor,, Harinakundu-Sadhuhati Road, Horinakunda",ChIJGU2OyMXD_jkRE5h_9z4lxnw,"J2XV+CW Horinakunda, Bangladesh",7MMFJ2XV+CW
Harinakundu Upazila Health Complex,23.6489751,89.0442568,3,2,"['hospital', 'health', 'point_of_interest', 'establishment']",Horinakunda,ChIJGU_YtMXD_jkRBl1hFZAnpss,"J2XV+HP Horinakunda, Bangladesh",7MMFJ2XV+HP
হরিণাকুন্ডু স্বাস্থ্য কমপ্লেক্স,23.6490838,89.0442609,1.5,2,"['hospital', 'health', 'point_of_interest', 'establishment']","Bazar, Lalon Shah Road, Horinakunda",ChIJ6_OpkXzD_jkRVTpzOb-gq2M,"J2XV+JP Horinakunda, Bangladesh",7MMFJ2XV+JP
Hospital,23.6487722,89.0430191,not found,not found,"['hospital', 'health', 'point_of_interest', 'establishment']",Horinakunda,ChIJlXL0DO7D_jkRA9viulC8s-E,"J2XV+G6 Horinakunda, Bangladesh",7MMFJ2XV+G6
ইসলামী প্রাইভেট হাসপাতাল,23.5605758,89.0282199,not found,not found,"['hospital', 'health', 'point_of_interest', 'establishment']",Sadhuhati,ChIJdwq-eILd_jkR9624uMqX9L8,"H26H+67 Sadhuhati, Bangladesh",7MMFH26H+67
কাজলের ক্লিনিক,23.5606228,89.0268596,not found,not found,"['hospital', 'health', 'point_of_interest', 'establishment']","ডাকবাংলা বাজার, সাধুহাটী",ChIJf5cwgnTd_jkR38H1lkl9yIs,"H26G+6P Sadhuhati, Bangladesh",7MMFH26G+6P
ডাকবাংলা নার্সিংহোম(কাজলের ক্লিনিক),23.5605862,89.0268316,not found,not found,"['hospital', 'health', 'point_of_interest', 'establishment']","Jhenaidah - Chuadanga Road, Sadhuhati",ChIJZUJTn8jd_jkRu7rEcySdGMg,"H26G+6P Sadhuhati, Bangladesh",7MMFH26G+6P
Dakbangla Nursing Home,23.560593,89.02681,not found,not found,"['hospital', 'health', 'point_of_interest', 'establishment']","R745, Sadhuhati",ChIJFzNQ2mTd_jkRMidt1HWM5Dw,"H26G+6P Sadhuhati, Bangladesh",7MMFH26G+6P
RAMCHANDRAPUR COMMUNITY CLINIC,23.5439902,89.0747338,not found,not found,"['hospital', 'health', 'point_of_interest', 'establishment']","bazar gopalpur, Jhenaidah - Chuadanga Road",ChIJhXlfZQjd_jkRH1ynWxFewJ4,"G3VF+HV Holidhani, Bangladesh",7MMFG3VF+HV
"Ramchandrapur community clinic,jhenadha sador",23.5430849,89.0743789,5,1,"['hospital', 'health', 'point_of_interest', 'establishment']",Jhenaidah Sadar Upazila,ChIJVc_iGB3d_jkRU9aDsSAOxz0,"G3VF+6Q Holidhani, Bangladesh",7MMFG3VF+6Q
Konnadah health complex,23.5953748,89.1450103,5,1,"['hospital', 'health', 'point_of_interest', 'establishment']",Harinakunda Upazila,ChIJKYezPL7p_jkREST0vR4nQrU,"H4WW+42 Basudebpur, Bangladesh",7MMFH4WW+42
Badpukuria Community Clinic,23.5461988,89.0384287,5,1,"['hospital', 'health', 'point_of_interest', 'establishment']",Shadhuhati,ChIJs9sTRD3d_jkRTW92EiQ3xak,"G2WQ+F9 Sadhuhati, Bangladesh",7MMFG2WQ+F9
রাহেলা জেনারেল হাসপাতাল,23.5643488,89.0102141,not found,not found,"['hospital', 'health', 'point_of_interest', 'establishment']",Jhenaidah Sadar Upazila,ChIJOSJ7Tpnb_jkRc8zxLCzw3pQ,"H276+P3 Sadhuhati, Bangladesh",7MMFH276+P3
Dafolbari Community Clinic,23.5193126,89.1147852,4,1,"['hospital', 'health', 'point_of_interest', 'establishment']",Jhenaidah - Ganna Bazar - Kotchandpur Road,ChIJZ34kGQvn_jkRqH6pPlyWQlY,"G497+PW Dafolbari, Bangladesh",7MMFG497+PW
ফারিহা মেডিকেল কেয়ার,23.5528198,89.1753614,not found,not found,"['hospital', 'health', 'point_of_interest', 'establishment']","hospital road, Jhenaidah",ChIJQ7wdLIHl_jkRQ1wcUens7GQ,"H53G+44 Jhenaidah, Bangladesh",7MMFH53G+44
Veterinary Hospital,23.5528215,89.1744741,4,2,"['hospital', 'health', 'point_of_interest', 'establishment']","Arappur Cemetery, Kushtia - Jhenaidah Highway, Jhenaidah",ChIJo-n9PeHl_jkRwJ3YKZ2nU9E,"H53F+4Q Jhenaidah, Bangladesh",7MMFH53F+4Q
সেবা ক্লিনিক,23.552815,89.1762346,not found,not found,"['hospital', 'health', 'point_of_interest', 'establishment']","ঝিনাইদহ সদর উপজেলা, আরাপপুর বাস স্ট্যান্ড",ChIJg1pbaafl_jkR0u4cjT7EAh8,"H53G+4F Jhenaidah, Bangladesh",7MMFH53G+4F
Sheba Clinic,23.5539485,89.174974,2,1,"['hospital', 'health', 'point_of_interest', 'establishment']","মুরারিদাহ রোড, Jhenidah",ChIJwcTe8-Pl_jkRcYZ6y5ISM68,"H53F+HX Jhenaidah, Bangladesh",7MMFH53F+HX
M R Homeo Clinic,23.5524331,89.1739344,2,1,"['hospital', 'health', 'point_of_interest', 'establishment']","Bangabandhu Road, Jhenaidah",ChIJe-u0ZuHl_jkRv7JRao9oDvw,"H52F+XH Jhenaidah, Bangladesh",7MMFH52F+XH
Rabeya Hospital And Diagnostic Centre,23.55772,89.172983,4.2,10,"['hospital', 'health', 'point_of_interest', 'establishment']",Jhenaidah,ChIJq2hfJ-Pl_jkRSlvdiQ807Eg,"H55F+35 Jhenaidah, Bangladesh",7MMFH55F+35
Puraton Hospital,23.5474646,89.1710338,not found,not found,"['hospital', 'health', 'point_of_interest', 'establishment']","Gitanjali Road, Jhenaidah",ChIJP7SMWBjl_jkR7aFp2R1ONhE,"G5WC+XC Jhenaidah, Bangladesh",7MMFG5WC+XC
